$GPGGA,165403.269,5649.77159,N,13222.31899,W,2,14,1.8,-0.88,M,,,5,0135*3C
$GPHDT,107.9,T*3A
$GPVTG,122.9,T,,M,1.7,N,3.2,K,D*07
$GPRMC,165403.27,A,5649.77159,N,13222.31899,W,1.7,107.9,200923,,,d*63
$GPZDA,165404.0021,20,09,2023,,*6F
$GPGGA,165404.269,5649.77132,N,13222.31822,W,2,14,1.8,-0.91,M,,,5,0135*3E
$GPHDT,107.7,T*34
$GPVTG,119.1,T,,M,1.8,N,3.2,K,D*08
$GPRMC,165404.27,A,5649.77132,N,13222.31822,W,1.8,107.7,200923,,,d*68
$GPZDA,165405.0021,20,09,2023,,*6E
$GPGGA,165405.269,5649.77109,N,13222.31744,W,2,14,1.8,-0.90,M,,,7,0135*3B
$GPHDT,107.7,T*34
$GPVTG,119.3,T,,M,1.7,N,3.1,K,D*06
$GPRMC,165405.27,A,5649.77109,N,13222.31744,W,1.7,107.7,200923,,,d*61
$PADCP,1,20230920,165405.68,-0.27
$GPZDA,165406.0021,20,09,2023,,*6D
$GPGGA,165406.269,5649.77085,N,13222.31669,W,2,14,1.8,-0.90,M,,,7,0135*33
$GPHDT,107.8,T*3B
$GPVTG,119.9,T,,M,1.7,N,3.1,K,D*0C
$GPRMC,165406.27,A,5649.77085,N,13222.31669,W,1.7,107.8,200923,,,d*66
$GPZDA,165407.0021,20,09,2023,,*6C
$PADCP,2,20230920,165407.13,-0.27
$GPGGA,165407.269,5649.77061,N,13222.31592,W,2,14,1.8,-0.89,M,,,7,0135*37
$GPHDT,107.8,T*3B
$GPVTG,118.5,T,,M,1.8,N,3.3,K,D*0C
$GPRMC,165407.27,A,5649.77061,N,13222.31592,W,1.8,107.8,200923,,,d*65
$GPZDA,165408.0021,20,09,2023,,*63
$GPGGA,165408.269,5649.77038,N,13222.31510,W,2,14,1.8,-0.89,M,,,7,0135*3E
$PADCP,3,20230920,165408.36,-0.27
$GPHDT,107.7,T*34
$GPVTG,116.1,T,,M,1.8,N,3.3,K,D*06
$GPRMC,165408.27,A,5649.77038,N,13222.31510,W,1.8,107.7,200923,,,d*63
$GPZDA,165409.0022,20,09,2023,,*61
$GPGGA,165409.269,5649.77015,N,13222.31429,W,2,14,1.8,-0.89,M,,,5,0135*39
$GPHDT,107.6,T*35
$GPVTG,116.5,T,,M,1.7,N,3.2,K,D*0C
$GPRMC,165409.27,A,5649.77015,N,13222.31429,W,1.7,107.6,200923,,,d*68
$PADCP,4,20230920,165409.59,-0.27
$GPZDA,165410.0022,20,09,2023,,*69
$GPGGA,165410.269,5649.76993,N,13222.31349,W,2,14,1.8,-0.90,M,,,5,0135*3E
$GPHDT,107.4,T*37
$GPVTG,116.7,T,,M,1.8,N,3.2,K,D*01
$GPRMC,165410.27,A,5649.76993,N,13222.31349,W,1.8,107.4,200923,,,d*6A
$PADCP,5,20230920,165410.82,-0.27
$GPZDA,165411.0022,20,09,2023,,*68
$GPGGA,165411.269,5649.76970,N,13222.31271,W,2,14,1.8,-0.89,M,,,7,0135*32
$GPHDT,107.4,T*37
$GPVTG,118.1,T,,M,1.7,N,3.2,K,D*06
$GPRMC,165411.27,A,5649.76970,N,13222.31271,W,1.7,107.4,200923,,,d*63
$GPZDA,165412.0022,20,09,2023,,*6B
$PADCP,6,20230920,165412.05,-0.27
$GPGGA,165412.269,5649.76947,N,13222.31192,W,2,14,1.8,-0.90,M,,,7,0135*33
$GPHDT,107.2,T*31
$GPVTG,115.6,T,,M,1.7,N,3.2,K,D*0C
$GPRMC,165412.27,A,5649.76947,N,13222.31192,W,1.7,107.2,200923,,,d*6C
$GPZDA,165413.0022,20,09,2023,,*6A
$PADCP,7,20230920,165413.28,-0.27
$GPGGA,165413.269,5649.76925,N,13222.31113,W,2,14,1.8,-0.88,M,,,7,0135*36
$GPHDT,107.0,T*33
$GPVTG,117.4,T,,M,1.7,N,3.2,K,D*0C
$GPRMC,165413.27,A,5649.76925,N,13222.31113,W,1.7,107.0,200923,,,d*62
$GPZDA,165414.0022,20,09,2023,,*6D
$GPGGA,165414.269,5649.76901,N,13222.31034,W,2,14,1.8,-0.88,M,,,7,0135*33
$GPHDT,106.7,T*35
$GPVTG,117.5,T,,M,1.8,N,3.3,K,D*03
$GPRMC,165414.27,A,5649.76901,N,13222.31034,W,1.8,106.7,200923,,,d*6E
$PADCP,8,20230920,165414.51,-0.27
$GPZDA,165415.0022,20,09,2023,,*6C
$GPGGA,165415.269,5649.76879,N,13222.30952,W,2,14,1.8,-0.88,M,,,5,0135*36
$GPHDT,106.6,T*34
$GPVTG,114.2,T,,M,1.8,N,3.3,K,D*07
$GPRMC,165415.27,A,5649.76879,N,13222.30952,W,1.8,106.6,200923,,,d*68
$PADCP,9,20230920,165415.73,-0.27
$GPZDA,165416.0022,20,09,2023,,*6F
$GPGGA,165416.269,5649.76857,N,13222.30871,W,2,14,1.8,-0.88,M,,,5,0135*39
$GPHDT,106.5,T*37
$GPVTG,114.9,T,,M,1.8,N,3.3,K,D*0C
$GPRMC,165416.27,A,5649.76857,N,13222.30871,W,1.8,106.5,200923,,,d*64
$PADCP,10,20230920,165416.97,-0.27
$GPZDA,165417.0022,20,09,2023,,*6E
$GPGGA,165417.269,5649.76835,N,13222.30791,W,2,14,1.8,-0.88,M,,,7,0135*3F
$GPHDT,106.5,T*37
$GPVTG,116.3,T,,M,1.8,N,3.3,K,D*04
$GPRMC,165417.27,A,5649.76835,N,13222.30791,W,1.8,106.5,200923,,,d*60
$GPZDA,165418.0022,20,09,2023,,*61
$GPGGA,165418.269,5649.76814,N,13222.30710,W,2,14,1.8,-0.88,M,,,7,0135*3A
$GPHDT,106.2,T*30
$GPVTG,112.8,T,,M,1.8,N,3.3,K,D*0B
$PADCP,11,20230920,165418.39,-0.27
$GPRMC,165418.27,A,5649.76814,N,13222.30710,W,1.8,106.2,200923,,,d*62
$GPZDA,165419.0022,20,09,2023,,*60
$GPGGA,165419.269,5649.76793,N,13222.30628,W,2,14,1.8,-0.86,M,,,7,0135*3F
$GPHDT,105.8,T*39
$GPVTG,114.6,T,,M,1.8,N,3.3,K,D*03
$GPRMC,165419.27,A,5649.76793,N,13222.30628,W,1.8,105.8,200923,,,d*60
$PADCP,12,20230920,165419.62,-0.27
$GPZDA,165420.0022,20,09,2023,,*6A
$GPGGA,165420.269,5649.76771,N,13222.30547,W,2,14,1.8,-0.85,M,,,7,0135*30
$GPHDT,105.4,T*35
$GPVTG,114.8,T,,M,1.8,N,3.3,K,D*0D
$GPRMC,165420.27,A,5649.76771,N,13222.30547,W,1.8,105.4,200923,,,d*60
$PADCP,13,20230920,165420.85,-0.27
$GPZDA,165421.0022,20,09,2023,,*6B
$GPGGA,165421.269,5649.76749,N,13222.30465,W,2,14,1.8,-0.85,M,,,5,0135*39
$GPHDT,105.3,T*32
$GPVTG,114.9,T,,M,1.8,N,3.3,K,D*0C
$GPRMC,165421.27,A,5649.76749,N,13222.30465,W,1.8,105.3,200923,,,d*6C
$GPZDA,165422.0022,20,09,2023,,*68
$PADCP,14,20230920,165422.08,-0.27
$GPGGA,165422.269,5649.76729,N,13222.30386,W,2,14,1.8,-0.85,M,,,5,0135*36
$GPHDT,104.7,T*37
$GPVTG,112.2,T,,M,1.7,N,3.2,K,D*0F
$GPRMC,165422.27,A,5649.76729,N,13222.30386,W,1.7,104.7,200923,,,d*69
$GPZDA,165423.0022,20,09,2023,,*69
$PADCP,15,20230920,165423.31,-0.27
$GPGGA,165423.269,5649.76710,N,13222.30304,W,2,14,1.8,-0.87,M,,,7,0135*37
$GPHDT,104.6,T*36
$GPVTG,111.5,T,,M,1.8,N,3.3,K,D*05
$GPRMC,165423.27,A,5649.76710,N,13222.30304,W,1.8,104.6,200923,,,d*66
$GPZDA,165424.0022,20,09,2023,,*6E
$GPGGA,165424.269,5649.76691,N,13222.30220,W,2,14,1.8,-0.86,M,,,7,0135*3E
$GPHDT,104.4,T*34
$GPVTG,111.5,T,,M,1.8,N,3.3,K,D*05
$GPRMC,165424.27,A,5649.76691,N,13222.30220,W,1.8,104.4,200923,,,d*6C
$PADCP,16,20230920,165424.54,-0.27
$GPZDA,165425.0022,20,09,2023,,*6F
$GPGGA,165425.269,5649.76671,N,13222.30137,W,2,14,1.8,-0.84,M,,,7,0135*36
$GPHDT,104.5,T*35
$GPVTG,112.3,T,,M,1.8,N,3.3,K,D*00
$GPRMC,165425.27,A,5649.76671,N,13222.30137,W,1.8,104.5,200923,,,d*67
$PADCP,17,20230920,165425.77,-0.27
$GPZDA,165426.0022,20,09,2023,,*6C
$GPGGA,165426.269,5649.76652,N,13222.30056,W,2,14,1.8,-0.83,M,,,7,0135*35
$GPHDT,104.4,T*34
$GPVTG,113.2,T,,M,1.8,N,3.3,K,D*00
$GPRMC,165426.27,A,5649.76652,N,13222.30056,W,1.8,104.4,200923,,,d*62
$PADCP,18,20230920,165427.00,-0.27
$GPZDA,165427.0022,20,09,2023,,*6D
$GPGGA,165427.269,5649.76632,N,13222.29973,W,2,14,1.8,-0.83,M,,,5,0135*36
$GPHDT,104.3,T*33
$GPVTG,111.9,T,,M,1.8,N,3.3,K,D*09
$GPRMC,165427.27,A,5649.76632,N,13222.29973,W,1.8,104.3,200923,,,d*64
$GPZDA,165428.0022,20,09,2023,,*62
$PADCP,19,20230920,165428.23,-0.27
$GPGGA,165428.269,5649.76612,N,13222.29890,W,2,14,1.8,-0.83,M,,,5,0135*37
$GPHDT,104.2,T*32
$GPVTG,111.3,T,,M,1.8,N,3.4,K,D*04
$GPRMC,165428.27,A,5649.76612,N,13222.29890,W,1.8,104.2,200923,,,d*64
$GPZDA,165429.0022,20,09,2023,,*63
$GPGGA,165429.269,5649.76593,N,13222.29807,W,2,14,1.8,-0.83,M,,,7,0135*30
$GPHDT,104.3,T*33
$GPVTG,112.1,T,,M,1.8,N,3.3,K,D*02
$GPRMC,165429.27,A,5649.76593,N,13222.29807,W,1.8,104.3,200923,,,d*60
$PADCP,20,20230920,165429.66,-0.27
$GPZDA,165430.0022,20,09,2023,,*6B
$GPGGA,165430.269,5649.76574,N,13222.29724,W,2,14,1.8,-0.81,M,,,7,0135*3D
$GPHDT,104.4,T*34
$GPVTG,111.2,T,,M,1.8,N,3.3,K,D*02
$GPRMC,165430.27,A,5649.76574,N,13222.29724,W,1.8,104.4,200923,,,d*68
$GPZDA,165431.0022,20,09,2023,,*6A
$PADCP,21,20230920,165431.09,-0.27
$GPGGA,165431.269,5649.76554,N,13222.29640,W,2,14,1.8,-0.79,M,,,7,0135*3A
$GPHDT,104.6,T*36
$GPVTG,114.0,T,,M,1.8,N,3.4,K,D*02
$GPRMC,165431.27,A,5649.76554,N,13222.29640,W,1.8,104.6,200923,,,d*6A
$GPZDA,165432.0022,20,09,2023,,*69
$GPGGA,165432.269,5649.76533,N,13222.29556,W,2,14,1.8,-0.79,M,,,4,0135*3F
$GPHDT,104.7,T*37
$GPVTG,111.9,T,,M,1.8,N,3.3,K,D*09
$GPRMC,165432.27,A,5649.76533,N,13222.29556,W,1.8,104.7,200923,,,d*6D
$PADCP,22,20230920,165432.54,-0.27
$GPZDA,165433.0022,20,09,2023,,*68
$GPGGA,165433.269,5649.76515,N,13222.29472,W,2,14,1.8,-0.79,M,,,5,0135*3C
$GPHDT,104.9,T*39
$GPVTG,111.8,T,,M,1.8,N,3.3,K,D*08
$GPRMC,165433.27,A,5649.76515,N,13222.29472,W,1.8,104.9,200923,,,d*61
$PADCP,23,20230920,165433.97,-0.27
$GPZDA,165434.0022,20,09,2023,,*6F
$GPGGA,165434.269,5649.76494,N,13222.29390,W,2,14,1.8,-0.81,M,,,5,0135*3F
$GPHDT,104.9,T*39
$GPVTG,114.4,T,,M,1.8,N,3.4,K,D*06
$GPRMC,165434.27,A,5649.76494,N,13222.29390,W,1.8,104.9,200923,,,d*65
$GPZDA,165435.0022,20,09,2023,,*6E
$GPGGA,165435.269,5649.76473,N,13222.29304,W,2,14,1.8,-0.81,M,,,7,0135*38
$GPHDT,105.0,T*31
$GPVTG,111.3,T,,M,1.8,N,3.4,K,D*04
$PADCP,24,20230920,165435.41,-0.27
$GPRMC,165435.27,A,5649.76473,N,13222.29304,W,1.8,105.0,200923,,,d*68
$GPZDA,165436.0022,20,09,2023,,*6D
$GPGGA,165436.269,5649.76455,N,13222.29219,W,2,14,1.8,-0.76,M,,,7,0135*3A
$GPHDT,105.0,T*31
$GPVTG,111.7,T,,M,1.8,N,3.4,K,D*00
$GPRMC,165436.27,A,5649.76455,N,13222.29219,W,1.8,105.0,200923,,,d*62
$PADCP,25,20230920,165436.65,-0.27
$GPZDA,165437.0022,20,09,2023,,*6C
$GPGGA,165437.269,5649.76435,N,13222.29133,W,2,14,1.8,-0.77,M,,,7,0135*37
$GPHDT,105.1,T*30
$GPVTG,113.7,T,,M,1.9,N,3.5,K,D*02
$GPRMC,165437.27,A,5649.76435,N,13222.29133,W,1.9,105.1,200923,,,d*6E
$PADCP,26,20230920,165437.87,-0.27
$GPZDA,165438.0022,20,09,2023,,*63
$GPGGA,165438.269,5649.76414,N,13222.29049,W,2,14,1.8,-0.78,M,,,7,0135*38
$GPHDT,105.1,T*30
$GPVTG,112.3,T,,M,1.8,N,3.3,K,D*00
$GPRMC,165438.27,A,5649.76414,N,13222.29049,W,1.8,105.1,200923,,,d*6F
$GPZDA,165439.0022,20,09,2023,,*62
$PADCP,27,20230920,165439.10,-0.27
$GPGGA,165439.269,5649.76395,N,13222.28967,W,2,14,1.8,-0.78,M,,,5,0135*31
$GPHDT,104.9,T*39
$GPVTG,113.7,T,,M,1.8,N,3.4,K,D*02
$GPRMC,165439.27,A,5649.76395,N,13222.28967,W,1.8,104.9,200923,,,d*6D
$GPZDA,165440.0022,20,09,2023,,*6C
$PADCP,28,20230920,165440.33,-0.27
$GPGGA,165440.269,5649.76375,N,13222.28882,W,2,14,1.8,-0.77,M,,,5,0135*34
$GPHDT,104.8,T*38
$GPVTG,112.7,T,,M,1.9,N,3.5,K,D*03
$GPRMC,165440.27,A,5649.76375,N,13222.28882,W,1.9,104.8,200923,,,d*67
$GPZDA,165441.0023,20,09,2023,,*6C
$GPGGA,165441.269,5649.76356,N,13222.28797,W,2,14,1.8,-0.75,M,,,7,0135*3F
$GPHDT,104.8,T*38
$GPVTG,111.1,T,,M,1.8,N,3.4,K,D*06
$GPRMC,165441.27,A,5649.76356,N,13222.28797,W,1.8,104.8,200923,,,d*6D
$PADCP,29,20230920,165441.55,-0.27
$GPZDA,165442.0023,20,09,2023,,*6F
$GPGGA,165442.269,5649.76338,N,13222.28710,W,2,14,1.8,-0.76,M,,,7,0135*38
$GPHDT,104.7,T*37
$GPVTG,110.5,T,,M,1.9,N,3.5,K,D*03
$GPRMC,165442.27,A,5649.76338,N,13222.28710,W,1.9,104.7,200923,,,d*67
$PADCP,30,20230920,165442.78,-0.27
$GPZDA,165443.0023,20,09,2023,,*6E
$GPGGA,165443.269,5649.76319,N,13222.28623,W,2,14,1.8,-0.78,M,,,7,0135*35
$GPHDT,104.7,T*37
$GPVTG,111.9,T,,M,1.9,N,3.4,K,D*0F
$GPRMC,165443.27,A,5649.76319,N,13222.28623,W,1.9,104.7,200923,,,d*64
$PADCP,31,20230920,165444.01,-0.27
$GPZDA,165444.0023,20,09,2023,,*69
$GPGGA,165444.269,5649.76301,N,13222.28537,W,2,14,1.8,-0.78,M,,,7,0135*3D
$GPHDT,104.6,T*36
$GPVTG,110.9,T,,M,1.8,N,3.4,K,D*0F
$GPRMC,165444.27,A,5649.76301,N,13222.28537,W,1.8,104.6,200923,,,d*6C
$GPZDA,165445.0023,20,09,2023,,*68
$PADCP,32,20230920,165445.23,-0.27
$GPGGA,165445.269,5649.76285,N,13222.28453,W,2,14,1.8,-0.75,M,,,5,0135*3D
$GPHDT,104.4,T*34
$GPVTG,109.6,T,,M,1.8,N,3.4,K,D*08
$GPRMC,165445.27,A,5649.76285,N,13222.28453,W,1.8,104.4,200923,,,d*61
$GPZDA,165446.0023,20,09,2023,,*6B
$GPGGA,165446.269,5649.76268,N,13222.28366,W,2,14,1.8,-0.72,M,,,5,0135*3B
$GPHDT,104.4,T*34
$GPVTG,109.8,T,,M,1.8,N,3.4,K,D*06
$GPRMC,165446.27,A,5649.76268,N,13222.28366,W,1.8,104.4,200923,,,d*60
$PADCP,33,20230920,165446.66,-0.27
$GPZDA,165447.0023,20,09,2023,,*6A
$GPGGA,165447.269,5649.76250,N,13222.28279,W,2,14,1.8,-0.73,M,,,7,0135*3D
$GPHDT,104.2,T*32
$GPVTG,110.9,T,,M,1.9,N,3.4,K,D*0E
$GPRMC,165447.27,A,5649.76250,N,13222.28279,W,1.9,104.2,200923,,,d*62
$PADCP,34,20230920,165447.89,-0.27
$GPZDA,165448.0023,20,09,2023,,*65
$GPGGA,165448.269,5649.76232,N,13222.28192,W,2,14,1.8,-0.74,M,,,7,0135*37
$GPHDT,104.0,T*30
$GPVTG,110.8,T,,M,1.8,N,3.4,K,D*0E
$GPRMC,165448.27,A,5649.76232,N,13222.28192,W,1.8,104.0,200923,,,d*6C
$GPZDA,165449.0023,20,09,2023,,*64
$PADCP,35,20230920,165449.12,-0.27
$GPGGA,165449.269,5649.76216,N,13222.28106,W,2,14,1.8,-0.75,M,,,7,0135*3C
$GPHDT,103.9,T*3E
$GPVTG,109.1,T,,M,1.9,N,3.5,K,D*0F
$GPRMC,165449.27,A,5649.76216,N,13222.28106,W,1.9,103.9,200923,,,d*69
$GPZDA,165450.0023,20,09,2023,,*6C
$GPGGA,165450.269,5649.76199,N,13222.28017,W,2,14,1.8,-0.74,M,,,7,0135*30
$PADCP,36,20230920,165450.36,-0.27
$GPHDT,103.7,T*30
$GPVTG,109.5,T,,M,1.9,N,3.5,K,D*0B
$GPRMC,165450.27,A,5649.76199,N,13222.28017,W,1.9,103.7,200923,,,d*6A
$GPZDA,165451.0023,20,09,2023,,*6D
$GPGGA,165451.269,5649.76183,N,13222.27928,W,2,14,1.8,-0.73,M,,,5,0135*35
$GPHDT,103.4,T*33
$GPVTG,108.1,T,,M,1.9,N,3.5,K,D*0E
$GPRMC,165451.27,A,5649.76183,N,13222.27928,W,1.9,103.4,200923,,,d*69
$PADCP,37,20230920,165451.59,-0.27
$GPZDA,165452.0023,20,09,2023,,*6E
$GPGGA,165452.269,5649.76168,N,13222.27840,W,2,14,1.8,-0.73,M,,,6,0135*3F
$GPHDT,103.2,T*35
$GPVTG,107.8,T,,M,1.8,N,3.3,K,D*0F
$GPRMC,165452.27,A,5649.76168,N,13222.27840,W,1.8,103.2,200923,,,d*67
$PADCP,38,20230920,165452.81,-0.27
$GPZDA,165453.0023,20,09,2023,,*6F
$GPGGA,165453.269,5649.76153,N,13222.27755,W,2,14,1.8,-0.74,M,,,7,0135*3B
$GPHDT,103.0,T*37
$GPVTG,108.3,T,,M,1.8,N,3.3,K,D*0B
$GPRMC,165453.27,A,5649.76153,N,13222.27755,W,1.8,103.0,200923,,,d*67
$GPZDA,165454.0023,20,09,2023,,*68
$PADCP,39,20230920,165454.04,-0.27
$GPGGA,165454.269,5649.76138,N,13222.27667,W,2,14,1.8,-0.75,M,,,7,0135*30
$GPHDT,102.6,T*30
$GPVTG,106.4,T,,M,1.9,N,3.5,K,D*05
$GPRMC,165454.27,A,5649.76138,N,13222.27667,W,1.9,102.6,200923,,,d*6B
$GPZDA,165455.0023,20,09,2023,,*69
$PADCP,40,20230920,165455.26,-0.27
$GPGGA,165455.269,5649.76125,N,13222.27576,W,2,14,1.8,-0.70,M,,,7,0135*3B
$GPHDT,102.1,T*37
$GPVTG,105.9,T,,M,1.9,N,3.5,K,D*0B
$GPRMC,165455.27,A,5649.76125,N,13222.27576,W,1.9,102.1,200923,,,d*62
$GPZDA,165456.0023,20,09,2023,,*6A
$GPGGA,165456.269,5649.76110,N,13222.27487,W,2,14,1.8,-0.71,M,,,7,0135*30
$GPHDT,101.7,T*32
$GPVTG,108.1,T,,M,1.9,N,3.5,K,D*0E
$GPRMC,165456.27,A,5649.76110,N,13222.27487,W,1.9,101.7,200923,,,d*6D
$PADCP,41,20230920,165456.49,-0.27
$GPZDA,165457.0023,20,09,2023,,*6B
$GPGGA,165457.269,5649.76096,N,13222.27395,W,2,14,1.8,-0.72,M,,,5,0135*3B
$GPHDT,101.5,T*30
$GPVTG,104.1,T,,M,1.9,N,3.5,K,D*02
$GPRMC,165457.27,A,5649.76096,N,13222.27395,W,1.9,101.5,200923,,,d*65
$PADCP,42,20230920,165457.92,-0.27
$GPZDA,165458.0023,20,09,2023,,*64
$GPGGA,165458.269,5649.76083,N,13222.27305,W,2,14,1.8,-0.73,M,,,5,0135*38
$GPHDT,101.0,T*35
$GPVTG,106.3,T,,M,1.9,N,3.4,K,D*03
$GPRMC,165458.27,A,5649.76083,N,13222.27305,W,1.9,101.0,200923,,,d*62
$GPZDA,165459.0023,20,09,2023,,*65
$GPGGA,165459.269,5649.76069,N,13222.27216,W,2,14,1.8,-0.75,M,,,7,0135*3A
$PADCP,43,20230920,165459.35,-0.27
$GPHDT,100.6,T*32
$GPVTG,104.2,T,,M,1.9,N,3.5,K,D*01
$GPRMC,165459.27,A,5649.76069,N,13222.27216,W,1.9,100.6,200923,,,d*63
$GPZDA,165500.0023,20,09,2023,,*68
$GPGGA,165500.269,5649.76058,N,13222.27125,W,2,14,1.8,-0.72,M,,,7,0135*31
$GPHDT,100.0,T*34
$GPVTG,103.5,T,,M,1.9,N,3.5,K,D*01
$GPRMC,165500.27,A,5649.76058,N,13222.27125,W,1.9,100.0,200923,,,d*69
$PADCP,44,20230920,165500.78,-0.27
$GPZDA,165501.0023,20,09,2023,,*69
$GPGGA,165501.269,5649.76046,N,13222.27035,W,2,14,1.8,-0.68,M,,,7,0135*34
$GPHDT,99.2,T*07
$GPVTG,103.2,T,,M,1.9,N,3.5,K,D*06
$GPRMC,165501.27,A,5649.76046,N,13222.27035,W,1.9,99.2,200923,,,d*54
$GPZDA,165502.0023,20,09,2023,,*6A
$PADCP,45,20230920,165502.22,-0.27
$GPGGA,165502.269,5649.76035,N,13222.26944,W,2,14,1.8,-0.68,M,,,7,0135*3D
$GPHDT,98.6,T*02
$GPVTG,102.1,T,,M,1.9,N,3.5,K,D*04
$GPRMC,165502.27,A,5649.76035,N,13222.26944,W,1.9,98.6,200923,,,d*58
$GPZDA,165503.0023,20,09,2023,,*6B
$GPGGA,165503.269,5649.76024,N,13222.26851,W,2,14,1.8,-0.70,M,,,5,0135*32
$GPHDT,98.1,T*05
$GPVTG,101.8,T,,M,1.9,N,3.5,K,D*0E
$GPRMC,165503.27,A,5649.76024,N,13222.26851,W,1.9,98.1,200923,,,d*5B
$PADCP,46,20230920,165503.65,-0.27
$GPZDA,165504.0023,20,09,2023,,*6C
$GPGGA,165504.269,5649.76014,N,13222.26759,W,2,14,1.8,-0.69,M,,,5,0135*39
$GPHDT,97.6,T*0D
$GPVTG,100.9,T,,M,1.8,N,3.4,K,D*0E
$GPRMC,165504.27,A,5649.76014,N,13222.26759,W,1.8,97.6,200923,,,d*51
$GPZDA,165505.0023,20,09,2023,,*6D
$PADCP,47,20230920,165505.10,-0.27
$GPGGA,165505.269,5649.76004,N,13222.26668,W,2,14,1.8,-0.70,M,,,7,0135*30
$GPHDT,97.3,T*08
$GPVTG,101.8,T,,M,1.9,N,3.5,K,D*0E
$GPRMC,165505.27,A,5649.76004,N,13222.26668,W,1.9,97.3,200923,,,d*56
$GPZDA,165506.0023,20,09,2023,,*6E
$GPGGA,165506.269,5649.75995,N,13222.26575,W,2,14,1.8,-0.74,M,,,7,0135*3A
$PADCP,48,20230920,165506.33,-0.27
$GPHDT,97.0,T*0B
$GPVTG,99.1,T,,M,1.9,N,3.5,K,D*37
$GPRMC,165506.27,A,5649.75995,N,13222.26575,W,1.9,97.0,200923,,,d*5B
$GPZDA,165507.0023,20,09,2023,,*6F
$GPGGA,165507.269,5649.75988,N,13222.26481,W,2,14,1.8,-0.73,M,,,7,0135*3A
$GPHDT,97.1,T*0A
$GPVTG,97.1,T,,M,1.9,N,3.5,K,D*39
$GPRMC,165507.27,A,5649.75988,N,13222.26481,W,1.9,97.1,200923,,,d*5D
$PADCP,49,20230920,165507.58,-0.27
$GPZDA,165508.0023,20,09,2023,,*60
$GPGGA,165508.269,5649.75980,N,13222.26388,W,2,14,1.8,-0.70,M,,,7,0135*30
$GPHDT,97.2,T*09
$GPVTG,98.4,T,,M,1.9,N,3.4,K,D*32
$GPRMC,165508.27,A,5649.75980,N,13222.26388,W,1.9,97.2,200923,,,d*57
$PADCP,50,20230920,165508.80,-0.27
$GPZDA,165509.0023,20,09,2023,,*61
$GPGGA,165509.269,5649.75972,N,13222.26294,W,2,14,1.8,-0.71,M,,,5,0135*33
$GPHDT,97.2,T*09
$GPVTG,99.1,T,,M,1.9,N,3.5,K,D*37
$GPRMC,165509.27,A,5649.75972,N,13222.26294,W,1.9,97.2,200923,,,d*57
$GPZDA,165510.0024,20,09,2023,,*6E
$PADCP,51,20230920,165510.03,-0.27
$GPGGA,165510.269,5649.75964,N,13222.26198,W,2,14,1.8,-0.69,M,,,5,0135*3A
$GPHDT,97.2,T*09
$GPVTG,98.1,T,,M,2.0,N,3.6,K,D*3F
$GPRMC,165510.27,A,5649.75964,N,13222.26198,W,2.0,97.2,200923,,,d*5D
$GPZDA,165511.0024,20,09,2023,,*6F
$PADCP,52,20230920,165511.25,-0.27
$GPGGA,165511.269,5649.75956,N,13222.26102,W,2,14,1.8,-0.70,M,,,7,0135*33
$GPHDT,97.4,T*0F
$GPVTG,98.1,T,,M,1.9,N,3.6,K,D*35
$GPRMC,165511.27,A,5649.75956,N,13222.26102,W,1.9,97.4,200923,,,d*52
$GPZDA,165512.0024,20,09,2023,,*6C
$GPGGA,165512.269,5649.75949,N,13222.26007,W,2,14,1.8,-0.70,M,,,7,0135*3A
$GPHDT,97.7,T*0C
$GPVTG,97.1,T,,M,1.9,N,3.5,K,D*39
$GPRMC,165512.27,A,5649.75949,N,13222.26007,W,1.9,97.7,200923,,,d*58
$PADCP,53,20230920,165512.50,-0.27
$GPZDA,165513.0024,20,09,2023,,*6D
$GPGGA,165513.269,5649.75942,N,13222.25911,W,2,14,1.8,-0.71,M,,,7,0135*3C
$GPHDT,97.9,T*02
$GPVTG,97.6,T,,M,2.0,N,3.6,K,D*37
$GPRMC,165513.27,A,5649.75942,N,13222.25911,W,2.0,97.9,200923,,,d*5B
$PADCP,54,20230920,165513.73,-0.27
$GPZDA,165514.0024,20,09,2023,,*6A
$GPGGA,165514.269,5649.75934,N,13222.25814,W,2,14,1.8,-0.73,M,,,7,0135*3C
$GPHDT,98.1,T*05
$GPVTG,98.6,T,,M,2.0,N,3.6,K,D*38
$GPRMC,165514.27,A,5649.75934,N,13222.25814,W,2.0,98.1,200923,,,d*5E
$PADCP,55,20230920,165514.98,-0.27
$GPZDA,165515.0024,20,09,2023,,*6B
$GPGGA,165515.269,5649.75925,N,13222.25717,W,2,14,1.8,-0.73,M,,,5,0135*33
$GPHDT,98.5,T*01
$GPVTG,99.8,T,,M,2.0,N,3.7,K,D*36
$GPRMC,165515.27,A,5649.75925,N,13222.25717,W,2.0,98.5,200923,,,d*57
$GPZDA,165516.0024,20,09,2023,,*68
$GPGGA,165516.269,5649.75915,N,13222.25621,W,2,14,1.8,-0.73,M,,,5,0135*37
$GPHDT,98.9,T*0D
$GPVTG,100.5,T,,M,2.0,N,3.6,K,D*0B
$PADCP,56,20230920,165516.41,-0.27
$GPRMC,165516.27,A,5649.75915,N,13222.25621,W,2.0,98.9,200923,,,d*5F
$GPZDA,165517.0024,20,09,2023,,*69
$GPGGA,165517.269,5649.75907,N,13222.25524,W,2,14,1.8,-0.73,M,,,7,0135*31
$GPHDT,99.4,T*01
$GPVTG,97.9,T,,M,2.0,N,3.7,K,D*39
$GPRMC,165517.27,A,5649.75907,N,13222.25524,W,2.0,99.4,200923,,,d*57
$PADCP,57,20230920,165517.64,-0.27
$GPZDA,165518.0024,20,09,2023,,*66
$GPGGA,165518.269,5649.75899,N,13222.25425,W,2,14,1.8,-0.71,M,,,7,0135*3A
$GPHDT,99.7,T*02
$GPVTG,99.6,T,,M,2.0,N,3.8,K,D*37
$GPRMC,165518.27,A,5649.75899,N,13222.25425,W,2.0,99.7,200923,,,d*5D
$PADCP,58,20230920,165518.87,-0.27
$GPZDA,165519.0024,20,09,2023,,*67
$GPGGA,165519.269,5649.75889,N,13222.25327,W,2,14,1.8,-0.74,M,,,7,0135*3A
$GPHDT,99.9,T*0C
$GPVTG,100.4,T,,M,2.0,N,3.6,K,D*0A
$GPRMC,165519.27,A,5649.75889,N,13222.25327,W,2.0,99.9,200923,,,d*56
$GPZDA,165520.0024,20,09,2023,,*6D
$PADCP,59,20230920,165520.10,-0.27
$GPGGA,165520.269,5649.75879,N,13222.25231,W,2,14,1.8,-0.72,M,,,7,0135*3F
$GPHDT,100.2,T*36
$GPVTG,100.1,T,,M,1.9,N,3.6,K,D*05
$GPRMC,165520.27,A,5649.75879,N,13222.25231,W,1.9,100.2,200923,,,d*65
$GPZDA,165521.0024,20,09,2023,,*6C
$GPGGA,165521.269,5649.75868,N,13222.25135,W,2,14,1.8,-0.72,M,,,5,0135*3B
$PADCP,60,20230920,165521.35,-0.27
$GPHDT,100.4,T*30
$GPVTG,102.6,T,,M,2.0,N,3.7,K,D*0B
$GPRMC,165521.27,A,5649.75868,N,13222.25135,W,2.0,100.4,200923,,,d*6F
$GPZDA,165522.0024,20,09,2023,,*6F
$GPGGA,165522.269,5649.75857,N,13222.25038,W,2,14,1.8,-0.73,M,,,5,0135*39
$GPHDT,100.4,T*30
$GPVTG,100.4,T,,M,2.0,N,3.7,K,D*0B
$GPRMC,165522.27,A,5649.75857,N,13222.25038,W,2.0,100.4,200923,,,d*6C
$PADCP,61,20230920,165522.60,-0.27
$GPZDA,165523.0024,20,09,2023,,*6E
$GPGGA,165523.269,5649.75847,N,13222.24941,W,2,14,1.8,-0.72,M,,,7,0135*3C
$GPHDT,100.8,T*3C
$GPVTG,100.8,T,,M,2.0,N,3.6,K,D*06
$GPRMC,165523.27,A,5649.75847,N,13222.24941,W,2.0,100.8,200923,,,d*66
$PADCP,62,20230920,165523.83,-0.27
$GPZDA,165524.0024,20,09,2023,,*69
$GPGGA,165524.270,5649.75837,N,13222.24845,W,2,14,1.8,-0.74,M,,,7,0135*37
$GPHDT,100.9,T*3D
$GPVTG,101.6,T,,M,2.0,N,3.7,K,D*08
$GPRMC,165524.27,A,5649.75837,N,13222.24845,W,2.0,100.9,200923,,,d*62
$GPZDA,165525.0024,20,09,2023,,*68
$PADCP,63,20230920,165525.05,-0.27
$GPGGA,165525.270,5649.75826,N,13222.24747,W,2,14,1.8,-0.76,M,,,7,0135*39
$GPHDT,101.2,T*37
$GPVTG,102.3,T,,M,2.0,N,3.6,K,D*0F
$GPRMC,165525.27,A,5649.75826,N,13222.24747,W,2.0,101.2,200923,,,d*64
$GPZDA,165526.0024,20,09,2023,,*6B
$PADCP,64,20230920,165526.29,-0.27
$GPGGA,165526.270,5649.75816,N,13222.24652,W,2,14,1.8,-0.72,M,,,7,0135*38
$GPHDT,101.2,T*37
$GPVTG,99.9,T,,M,1.9,N,3.6,K,D*3C
$GPRMC,165526.27,A,5649.75816,N,13222.24652,W,1.9,101.2,200923,,,d*6B
$GPZDA,165527.0024,20,09,2023,,*6A
$GPGGA,165527.270,5649.75806,N,13222.24556,W,2,14,1.8,-0.67,M,,,4,0135*38
$GPHDT,101.3,T*36
$GPVTG,103.3,T,,M,1.9,N,3.5,K,D*07
$GPRMC,165527.27,A,5649.75806,N,13222.24556,W,1.9,101.3,200923,,,d*6D
$PADCP,65,20230920,165527.74,-0.27
$GPZDA,165528.0024,20,09,2023,,*65
$GPGGA,165528.270,5649.75794,N,13222.24461,W,2,14,1.8,-0.71,M,,,5,0135*30
$GPHDT,101.8,T*3D
$GPVTG,101.3,T,,M,2.0,N,3.6,K,D*0C
$GPRMC,165528.27,A,5649.75794,N,13222.24461,W,2.0,101.8,200923,,,d*62
$PADCP,66,20230920,165528.97,-0.27
$GPZDA,165529.0024,20,09,2023,,*64
$GPGGA,165529.270,5649.75784,N,13222.24364,W,2,14,1.8,-0.73,M,,,6,0135*33
$GPHDT,102.5,T*33
$GPVTG,101.9,T,,M,2.0,N,3.6,K,D*06
$GPRMC,165529.27,A,5649.75784,N,13222.24364,W,2.0,102.5,200923,,,d*6E
$GPZDA,165530.0024,20,09,2023,,*6C
$PADCP,67,20230920,165530.19,-0.27
$GPGGA,165530.270,5649.75772,N,13222.24269,W,2,14,1.8,-0.70,M,,,7,0135*3C
$GPHDT,102.8,T*3E
$GPVTG,103.2,T,,M,1.9,N,3.6,K,D*05
$GPRMC,165530.27,A,5649.75772,N,13222.24269,W,1.9,102.8,200923,,,d*64
$GPZDA,165531.0024,20,09,2023,,*6D
$GPGGA,165531.270,5649.75758,N,13222.24173,W,2,14,1.8,-0.70,M,,,7,0135*3D
$GPHDT,103.0,T*37
$GPVTG,105.3,T,,M,2.0,N,3.7,K,D*09
$PADCP,68,20230920,165531.42,-0.27
$GPRMC,165531.27,A,5649.75758,N,13222.24173,W,2.0,103.0,200923,,,d*66
$GPZDA,165532.0024,20,09,2023,,*6E
$GPGGA,165532.270,5649.75744,N,13222.24080,W,2,14,1.8,-0.70,M,,,7,0135*3E
$GPHDT,102.3,T*35
$GPVTG,105.4,T,,M,1.9,N,3.5,K,D*06
$GPRMC,165532.27,A,5649.75744,N,13222.24080,W,1.9,102.3,200923,,,d*6D
$PADCP,69,20230920,165532.66,-0.27
$GPZDA,165533.0024,20,09,2023,,*6F
$GPGGA,165533.270,5649.75730,N,13222.23987,W,2,14,1.8,-0.69,M,,,4,0135*3E
$GPHDT,101.1,T*34
$GPVTG,104.9,T,,M,1.9,N,3.5,K,D*0A
$GPRMC,165533.27,A,5649.75730,N,13222.23987,W,1.9,101.1,200923,,,d*67
$PADCP,70,20230920,165533.88,-0.27
$GPZDA,165534.0024,20,09,2023,,*68
$GPGGA,165534.270,5649.75716,N,13222.23896,W,2,14,1.8,-0.72,M,,,5,0135*37
$GPHDT,99.6,T*03
$GPVTG,105.7,T,,M,1.9,N,3.5,K,D*05
$GPRMC,165534.27,A,5649.75716,N,13222.23896,W,1.9,99.6,200923,,,d*52
$GPZDA,165535.0024,20,09,2023,,*69
$PADCP,71,20230920,165535.11,-0.27
$GPGGA,165535.270,5649.75704,N,13222.23805,W,2,14,1.8,-0.72,M,,,6,0135*3C
$GPHDT,98.2,T*06
$GPVTG,102.9,T,,M,1.9,N,3.5,K,D*0C
$GPRMC,165535.27,A,5649.75704,N,13222.23805,W,1.9,98.2,200923,,,d*5F
$GPZDA,165536.0024,20,09,2023,,*6A
$GPGGA,165536.270,5649.75693,N,13222.23712,W,2,14,1.8,-0.70,M,,,7,0135*3A
$PADCP,72,20230920,165536.34,-0.27
$GPHDT,97.4,T*0F
$GPVTG,101.4,T,,M,1.9,N,3.5,K,D*02
$GPRMC,165536.27,A,5649.75693,N,13222.23712,W,1.9,97.4,200923,,,d*53
$GPZDA,165537.0025,20,09,2023,,*6A
$GPGGA,165537.270,5649.75684,N,13222.23617,W,2,14,1.8,-0.70,M,,,7,0135*39
$GPHDT,97.1,T*0A
$GPVTG,99.2,T,,M,1.9,N,3.6,K,D*37
$GPRMC,165537.27,A,5649.75684,N,13222.23617,W,1.9,97.1,200923,,,d*55
$PADCP,73,20230920,165537.57,-0.27
$GPZDA,165538.0025,20,09,2023,,*65
$GPGGA,165538.270,5649.75676,N,13222.23521,W,2,14,1.8,-0.69,M,,,7,0135*35
$GPHDT,97.2,T*09
$GPVTG,99.4,T,,M,1.9,N,3.6,K,D*31
$GPRMC,165538.27,A,5649.75676,N,13222.23521,W,1.9,97.2,200923,,,d*52
$GPZDA,165539.0025,20,09,2023,,*64
$PADCP,74,20230920,165539.02,-0.27
$GPGGA,165539.270,5649.75667,N,13222.23425,W,2,14,1.8,-0.69,M,,,4,0135*32
$GPHDT,97.7,T*0C
$GPVTG,99.9,T,,M,2.0,N,3.6,K,D*36
$GPRMC,165539.27,A,5649.75667,N,13222.23425,W,2.0,97.7,200923,,,d*59
$GPZDA,165540.0025,20,09,2023,,*6A
$PADCP,75,20230920,165540.25,-0.27
$GPGGA,165540.270,5649.75658,N,13222.23328,W,2,14,1.8,-0.71,M,,,5,0135*32
$GPHDT,98.5,T*01
$GPVTG,99.1,T,,M,2.0,N,3.6,K,D*3E
$GPRMC,165540.27,A,5649.75658,N,13222.23328,W,2.0,98.5,200923,,,d*5C
$GPZDA,165541.0025,20,09,2023,,*6B
$GPGGA,165541.270,5649.75650,N,13222.23232,W,2,14,1.8,-0.71,M,,,6,0135*32
$GPHDT,99.2,T*07
$GPVTG,100.7,T,,M,1.9,N,3.6,K,D*03
$GPRMC,165541.27,A,5649.75650,N,13222.23232,W,1.9,99.2,200923,,,d*53
$PADCP,76,20230920,165541.49,-0.27
$GPZDA,165542.0025,20,09,2023,,*68
$GPGGA,165542.270,5649.75640,N,13222.23136,W,2,14,1.8,-0.70,M,,,7,0135*37
$GPHDT,100.0,T*34
$GPVTG,100.2,T,,M,2.0,N,3.6,K,D*0C
$GPRMC,165542.27,A,5649.75640,N,13222.23136,W,2.0,100.0,200923,,,d*6F
$PADCP,77,20230920,165542.72,-0.27
$GPZDA,165543.0025,20,09,2023,,*69
$GPGGA,165543.270,5649.75631,N,13222.23039,W,2,14,1.8,-0.68,M,,,7,0135*37
$GPHDT,100.5,T*31
$GPVTG,101.5,T,,M,2.0,N,3.6,K,D*0A
$GPRMC,165543.27,A,5649.75631,N,13222.23039,W,2.0,100.5,200923,,,d*63
$PADCP,78,20230920,165543.94,-0.27
$GPZDA,165544.0025,20,09,2023,,*6E
$GPGGA,165544.270,5649.75620,N,13222.22944,W,2,14,1.8,-0.68,M,,,7,0135*32
$GPHDT,100.3,T*37
$GPVTG,103.7,T,,M,1.9,N,3.6,K,D*00
$GPRMC,165544.27,A,5649.75620,N,13222.22944,W,1.9,100.3,200923,,,d*6A
$GPZDA,165545.0025,20,09,2023,,*6F
$PADCP,79,20230920,165545.17,-0.27
$GPGGA,165545.270,5649.75607,N,13222.22851,W,2,14,1.8,-0.70,M,,,4,0135*39
$GPHDT,99.6,T*03
$GPVTG,104.9,T,,M,1.9,N,3.4,K,D*0B
$GPRMC,165545.27,A,5649.75607,N,13222.22851,W,1.9,99.6,200923,,,d*5F
$GPZDA,165546.0025,20,09,2023,,*6C
$GPGGA,165546.270,5649.75594,N,13222.22762,W,2,14,1.8,-0.69,M,,,5,0135*35
$GPHDT,98.1,T*05
$GPVTG,104.6,T,,M,1.8,N,3.3,K,D*02
$PADCP,80,20230920,165546.40,-0.27
$GPRMC,165546.27,A,5649.75594,N,13222.22762,W,1.8,98.1,200923,,,d*5D
$GPZDA,165547.0025,20,09,2023,,*6D
$GPGGA,165547.270,5649.75583,N,13222.22674,W,2,14,1.8,-0.67,M,,,6,0135*39
$GPHDT,96.4,T*0E
$GPVTG,102.2,T,,M,1.8,N,3.4,K,D*07
$GPRMC,165547.27,A,5649.75583,N,13222.22674,W,1.8,96.4,200923,,,d*57
$PADCP,81,20230920,165547.63,-0.27
$GPZDA,165548.0025,20,09,2023,,*62
$GPGGA,165548.270,5649.75573,N,13222.22584,W,2,14,1.8,-0.67,M,,,7,0135*34
$GPHDT,94.6,T*0E
$GPVTG,102.2,T,,M,1.9,N,3.5,K,D*07
$GPRMC,165548.27,A,5649.75573,N,13222.22584,W,1.9,94.6,200923,,,d*5A
$PADCP,82,20230920,165548.86,-0.27
$GPZDA,165549.0025,20,09,2023,,*63
$GPGGA,165549.270,5649.75563,N,13222.22491,W,2,14,1.8,-0.68,M,,,7,0135*3E
$GPHDT,93.5,T*0A
$GPVTG,99.9,T,,M,1.8,N,3.4,K,D*3F
$GPRMC,165549.27,A,5649.75563,N,13222.22491,W,1.8,93.5,200923,,,d*5A
$GPZDA,165550.0025,20,09,2023,,*6B
$PADCP,83,20230920,165550.31,-0.27
$GPGGA,165550.270,5649.75556,N,13222.22399,W,2,14,1.8,-0.67,M,,,7,0135*30
$GPHDT,92.9,T*07
$GPVTG,96.3,T,,M,1.8,N,3.4,K,D*3A
$GPRMC,165550.27,A,5649.75556,N,13222.22399,W,1.8,92.9,200923,,,d*56
$GPZDA,165551.0025,20,09,2023,,*6A
$GPGGA,165551.270,5649.75551,N,13222.22306,W,2,14,1.8,-0.67,M,,,4,0135*33
$GPHDT,93.0,T*0F
$GPVTG,94.0,T,,M,1.9,N,3.4,K,D*3A
$GPRMC,165551.27,A,5649.75551,N,13222.22306,W,1.9,93.0,200923,,,d*5F
$PADCP,84,20230920,165551.75,-0.27
$GPZDA,165552.0025,20,09,2023,,*69
$GPGGA,165552.270,5649.75548,N,13222.22212,W,2,14,1.8,-0.68,M,,,5,0135*32
$GPHDT,93.5,T*0A
$GPVTG,91.4,T,,M,1.9,N,3.5,K,D*3A
$GPRMC,165552.27,A,5649.75548,N,13222.22212,W,1.9,93.5,200923,,,d*55
$GPZDA,165553.0025,20,09,2023,,*68
$PADCP,85,20230920,165553.18,-0.27
$GPGGA,165553.270,5649.75548,N,13222.22117,W,2,14,1.8,-0.68,M,,,6,0135*36
$GPHDT,93.3,T*0C
$GPVTG,90.7,T,,M,1.9,N,3.5,K,D*38
$GPRMC,165553.27,A,5649.75548,N,13222.22117,W,1.9,93.3,200923,,,d*54
$GPZDA,165554.0025,20,09,2023,,*6F
$GPGGA,165554.270,5649.75546,N,13222.22023,W,2,14,1.8,-0.67,M,,,7,0135*37
$GPHDT,92.5,T*0B
$GPVTG,92.0,T,,M,1.9,N,3.4,K,D*3C
$GPRMC,165554.27,A,5649.75546,N,13222.22023,W,1.9,92.5,200923,,,d*5C
$PADCP,86,20230920,165554.62,-0.27
$GPZDA,165555.0025,20,09,2023,,*6E
$GPGGA,165555.270,5649.75545,N,13222.21931,W,2,14,1.8,-0.65,M,,,7,0135*3E
$GPHDT,91.4,T*09
$GPVTG,90.2,T,,M,1.8,N,3.3,K,D*3A
$GPRMC,165555.27,A,5649.75545,N,13222.21931,W,1.8,91.4,200923,,,d*54
$GPZDA,165556.0025,20,09,2023,,*6D
$PADCP,87,20230920,165556.06,-0.27
$GPGGA,165556.270,5649.75546,N,13222.21840,W,2,14,1.8,-0.65,M,,,7,0135*39
$GPHDT,89.9,T*0D
$GPVTG,88.3,T,,M,1.8,N,3.3,K,D*32
$GPRMC,165556.27,A,5649.75546,N,13222.21840,W,1.8,89.9,200923,,,d*57
$GPZDA,165557.0025,20,09,2023,,*6C
$GPGGA,165557.270,5649.75548,N,13222.21751,W,2,14,1.8,-0.67,M,,,4,0135*38
$GPHDT,88.4,T*01
$GPVTG,86.3,T,,M,1.8,N,3.3,K,D*3C
$GPRMC,165557.27,A,5649.75548,N,13222.21751,W,1.8,88.4,200923,,,d*5B
$PADCP,88,20230920,165557.49,-0.27
$GPZDA,165558.0025,20,09,2023,,*63
$GPGGA,165558.270,5649.75552,N,13222.21662,W,2,14,1.8,-0.67,M,,,5,0135*3C
$GPHDT,87.5,T*0F
$GPVTG,83.3,T,,M,1.8,N,3.4,K,D*3E
$GPRMC,165558.27,A,5649.75552,N,13222.21662,W,1.8,87.5,200923,,,d*50
$PADCP,89,20230920,165558.72,-0.27
$GPZDA,165559.0025,20,09,2023,,*62
$GPGGA,165559.270,5649.75559,N,13222.21571,W,2,14,1.8,-0.63,M,,,7,0135*31
$GPHDT,87.3,T*09
$GPVTG,81.4,T,,M,1.8,N,3.4,K,D*3B
$GPRMC,165559.27,A,5649.75559,N,13222.21571,W,1.8,87.3,200923,,,d*5D
$PADCP,90,20230920,165559.95,-0.27
$GPZDA,165600.0025,20,09,2023,,*6D
$GPGGA,165600.270,5649.75565,N,13222.21478,W,2,14,1.8,-0.62,M,,,7,0135*38
$GPHDT,87.7,T*0D
$GPVTG,82.3,T,,M,1.9,N,3.5,K,D*3F
$GPRMC,165600.27,A,5649.75565,N,13222.21478,W,1.9,87.7,200923,,,d*50
$GPZDA,165601.0025,20,09,2023,,*6C
$PADCP,91,20230920,165601.17,-0.27
$GPGGA,165601.270,5649.75573,N,13222.21384,W,2,14,1.8,-0.62,M,,,7,0135*3A
$GPHDT,88.5,T*00
$GPVTG,78.8,T,,M,1.9,N,3.6,K,D*32
$GPRMC,165601.27,A,5649.75573,N,13222.21384,W,1.9,88.5,200923,,,d*5F
$GPZDA,165602.0025,20,09,2023,,*6F
$GPGGA,165602.270,5649.75584,N,13222.21290,W,2,14,1.8,-0.60,M,,,7,0135*37
$GPHDT,89.7,T*03
$GPVTG,78.5,T,,M,1.9,N,3.4,K,D*3D
$PADCP,92,20230920,165602.40,-0.27
$GPRMC,165602.27,A,5649.75584,N,13222.21290,W,1.9,89.7,200923,,,d*53
$GPZDA,165603.0026,20,09,2023,,*6D
$GPGGA,165603.270,5649.75593,N,13222.21197,W,2,14,1.8,-0.61,M,,,5,0135*37
$GPHDT,90.8,T*04
$GPVTG,79.9,T,,M,1.9,N,3.5,K,D*31
$GPRMC,165603.27,A,5649.75593,N,13222.21197,W,1.9,90.8,200923,,,d*57
$PADCP,93,20230920,165603.63,-0.27
$GPZDA,165604.0026,20,09,2023,,*6A
$GPGGA,165604.270,5649.75601,N,13222.21102,W,2,14,1.8,-0.63,M,,,5,0135*36
$GPHDT,91.6,T*0B
$GPVTG,81.2,T,,M,1.9,N,3.5,K,D*3D
$GPRMC,165604.27,A,5649.75601,N,13222.21102,W,1.9,91.6,200923,,,d*5B
$PADCP,94,20230920,165604.86,-0.27
$GPZDA,165605.0026,20,09,2023,,*6B
$GPGGA,165605.270,5649.75607,N,13222.21009,W,2,14,1.8,-0.63,M,,,7,0135*39
$GPHDT,92.0,T*0E
$GPVTG,81.7,T,,M,1.8,N,3.4,K,D*38
$GPRMC,165605.27,A,5649.75607,N,13222.21009,W,1.8,92.0,200923,,,d*52
$GPZDA,165606.0026,20,09,2023,,*68
$PADCP,95,20230920,165606.09,-0.27
$GPGGA,165606.270,5649.75613,N,13222.20918,W,2,14,1.8,-0.62,M,,,7,0135*36
$GPHDT,91.8,T*05
$GPVTG,81.1,T,,M,1.8,N,3.3,K,D*39
$GPRMC,165606.27,A,5649.75613,N,13222.20918,W,1.8,91.8,200923,,,d*57
$GPZDA,165607.0026,20,09,2023,,*69
$PADCP,96,20230920,165607.33,-0.27
$GPGGA,165607.270,5649.75619,N,13222.20826,W,2,14,1.8,-0.58,M,,,7,0135*38
$GPHDT,91.8,T*05
$GPVTG,81.4,T,,M,1.8,N,3.4,K,D*3B
$GPRMC,165607.27,A,5649.75619,N,13222.20826,W,1.8,91.8,200923,,,d*50
$GPZDA,165608.0026,20,09,2023,,*66
$GPGGA,165608.270,5649.75625,N,13222.20733,W,2,14,1.8,-0.59,M,,,7,0135*32
$GPHDT,92.0,T*0E
$GPVTG,82.2,T,,M,1.8,N,3.4,K,D*3E
$GPRMC,165608.27,A,5649.75625,N,13222.20733,W,1.8,92.0,200923,,,d*50
$PADCP,97,20230920,165608.76,-0.27
$GPZDA,165609.0026,20,09,2023,,*67
$GPGGA,165609.270,5649.75633,N,13222.20639,W,2,14,1.8,-0.61,M,,,5,0135*36
$GPHDT,92.5,T*0B
$GPVTG,79.0,T,,M,1.9,N,3.5,K,D*38
$GPRMC,165609.27,A,5649.75633,N,13222.20639,W,1.9,92.5,200923,,,d*59
$PADCP,98,20230920,165609.99,-0.27
$GPZDA,165610.0026,20,09,2023,,*6F
$GPGGA,165610.270,5649.75641,N,13222.20542,W,2,14,1.8,-0.58,M,,,5,0135*3E
$GPHDT,93.8,T*07
$GPVTG,80.9,T,,M,1.9,N,3.5,K,D*37
$GPRMC,165610.27,A,5649.75641,N,13222.20542,W,1.9,93.8,200923,,,d*57
$GPZDA,165611.0026,20,09,2023,,*6E
$PADCP,99,20230920,165611.22,-0.27
$GPGGA,165611.270,5649.75647,N,13222.20446,W,2,14,1.8,-0.58,M,,,7,0135*3E
$GPHDT,95.6,T*0F
$GPVTG,82.8,T,,M,1.9,N,3.5,K,D*34
$GPRMC,165611.27,A,5649.75647,N,13222.20446,W,1.9,95.6,200923,,,d*5D
$GPZDA,165612.0026,20,09,2023,,*6D
$GPGGA,165612.270,5649.75652,N,13222.20348,W,2,14,1.8,-0.59,M,,,7,0135*31
$GPHDT,98.1,T*05
$GPVTG,81.8,T,,M,2.0,N,3.7,K,D*3F
$PADCP,100,20230920,165612.45,-0.27
$GPRMC,165612.27,A,5649.75652,N,13222.20348,W,2.0,98.1,200923,,,d*53
$GPZDA,165613.0026,20,09,2023,,*6C
$GPGGA,165613.270,5649.75657,N,13222.20249,W,2,14,1.8,-0.60,M,,,7,0135*3F
$GPHDT,100.5,T*31
$GPVTG,85.6,T,,M,1.9,N,3.6,K,D*3E
$GPRMC,165613.27,A,5649.75657,N,13222.20249,W,1.9,100.5,200923,,,d*69
$PADCP,101,20230920,165613.67,-0.27
$GPZDA,165614.0026,20,09,2023,,*6B
$GPGGA,165614.270,5649.75658,N,13222.20152,W,2,14,1.8,-0.59,M,,,7,0135*34
$GPHDT,102.0,T*36
$GPVTG,88.3,T,,M,1.8,N,3.4,K,D*35
$GPRMC,165614.27,A,5649.75658,N,13222.20152,W,1.8,102.0,200923,,,d*6E
$PADCP,102,20230920,165614.90,-0.27
$GPZDA,165615.0026,20,09,2023,,*6A
$GPGGA,165615.270,5649.75657,N,13222.20058,W,2,14,1.8,-0.57,M,,,5,0135*3D
$GPHDT,102.7,T*31
$GPVTG,92.0,T,,M,1.8,N,3.4,K,D*3D
$GPRMC,165615.27,A,5649.75657,N,13222.20058,W,1.8,102.7,200923,,,d*6C
$GPZDA,165616.0026,20,09,2023,,*69
$PADCP,103,20230920,165616.14,-0.27
$GPGGA,165616.270,5649.75652,N,13222.19966,W,2,14,1.8,-0.57,M,,,5,0135*35
$GPHDT,102.9,T*3F
$GPVTG,94.4,T,,M,1.8,N,3.3,K,D*38
$GPRMC,165616.27,A,5649.75652,N,13222.19966,W,1.8,102.9,200923,,,d*6A
$GPZDA,165617.0026,20,09,2023,,*68
$GPGGA,165617.270,5649.75646,N,13222.19873,W,2,14,1.8,-0.59,M,,,7,0135*38
$PADCP,104,20230920,165617.37,-0.27
$GPHDT,102.7,T*31
$GPVTG,95.6,T,,M,1.8,N,3.3,K,D*3B
$GPRMC,165617.27,A,5649.75646,N,13222.19873,W,1.8,102.7,200923,,,d*65
$GPZDA,165618.0026,20,09,2023,,*67
$GPGGA,165618.270,5649.75639,N,13222.19781,W,2,14,1.8,-0.59,M,,,7,0135*3D
$GPHDT,102.2,T*34
$GPVTG,95.5,T,,M,1.7,N,3.2,K,D*36
$GPRMC,165618.27,A,5649.75639,N,13222.19781,W,1.7,102.2,200923,,,d*6A
$PADCP,105,20230920,165618.60,-0.27
$GPZDA,165619.0026,20,09,2023,,*66
$GPGGA,165619.270,5649.75632,N,13222.19692,W,2,14,1.8,-0.57,M,,,7,0135*3A
$GPHDT,101.6,T*33
$GPVTG,97.1,T,,M,1.7,N,3.2,K,D*30
$GPRMC,165619.27,A,5649.75632,N,13222.19692,W,1.7,101.6,200923,,,d*64
$GPZDA,165620.0026,20,09,2023,,*6C
$PADCP,106,20230920,165620.03,-0.27
$GPGGA,165620.270,5649.75625,N,13222.19601,W,2,14,1.8,-0.55,M,,,7,0135*3E
$GPHDT,101.1,T*34
$GPVTG,97.3,T,,M,1.8,N,3.3,K,D*3C
$GPRMC,165620.27,A,5649.75625,N,13222.19601,W,1.8,101.1,200923,,,d*6A
$GPZDA,165621.0026,20,09,2023,,*6D
$PADCP,107,20230920,165621.27,-0.27
$GPGGA,165621.270,5649.75617,N,13222.19509,W,2,14,1.8,-0.54,M,,,5,0135*36
$GPHDT,100.9,T*3D
$GPVTG,97.7,T,,M,1.8,N,3.4,K,D*3F
$GPRMC,165621.27,A,5649.75617,N,13222.19509,W,1.8,100.9,200923,,,d*68
$GPZDA,165622.0026,20,09,2023,,*6E
$GPGGA,165622.270,5649.75609,N,13222.19416,W,2,14,1.8,-0.56,M,,,5,0135*37
$GPHDT,101.0,T*35
$GPVTG,97.5,T,,M,1.8,N,3.4,K,D*3D
$GPRMC,165622.27,A,5649.75609,N,13222.19416,W,1.8,101.0,200923,,,d*63
$PADCP,108,20230920,165622.51,-0.27
$GPZDA,165623.0026,20,09,2023,,*6F
$GPGGA,165623.270,5649.75602,N,13222.19324,W,2,14,1.8,-0.59,M,,,7,0135*36
$GPHDT,101.3,T*36
$GPVTG,96.3,T,,M,1.8,N,3.3,K,D*3D
$GPRMC,165623.27,A,5649.75602,N,13222.19324,W,1.8,101.3,200923,,,d*6C
$PADCP,109,20230920,165623.74,-0.27
$GPZDA,165624.0026,20,09,2023,,*68
$GPGGA,165624.270,5649.75595,N,13222.19232,W,2,14,1.8,-0.60,M,,,7,0135*30
$GPHDT,101.6,T*33
$GPVTG,97.0,T,,M,1.8,N,3.4,K,D*38
$GPRMC,165624.27,A,5649.75595,N,13222.19232,W,1.8,101.6,200923,,,d*65
$PADCP,110,20230920,165624.97,-0.27
$GPZDA,165625.0026,20,09,2023,,*69
$GPGGA,165625.270,5649.75586,N,13222.19138,W,2,14,1.8,-0.57,M,,,7,0135*3E
$GPHDT,102.0,T*36
$GPVTG,97.3,T,,M,1.8,N,3.4,K,D*3B
$GPRMC,165625.27,A,5649.75586,N,13222.19138,W,1.8,102.0,200923,,,d*6A
$GPZDA,165626.0026,20,09,2023,,*6A
$GPGGA,165626.270,5649.75578,N,13222.19044,W,2,14,1.8,-0.56,M,,,7,0135*37
$GPHDT,102.3,T*35
$GPVTG,98.8,T,,M,1.8,N,3.4,K,D*3F
$PADCP,111,20230920,165626.40,-0.27
$GPRMC,165626.27,A,5649.75578,N,13222.19044,W,1.8,102.3,200923,,,d*61
$GPZDA,165627.0026,20,09,2023,,*6B
$GPGGA,165627.270,5649.75568,N,13222.18952,W,2,14,1.8,-0.56,M,,,5,0135*3A
$GPHDT,102.7,T*31
$GPVTG,100.0,T,,M,1.8,N,3.4,K,D*07
$GPRMC,165627.27,A,5649.75568,N,13222.18952,W,1.8,102.7,200923,,,d*6A
$PADCP,112,20230920,165627.84,-0.27
$GPZDA,165628.0027,20,09,2023,,*65
$GPGGA,165628.270,5649.75558,N,13222.18859,W,2,14,1.8,-0.57,M,,,5,0135*3D
$GPHDT,103.0,T*37
$GPVTG,99.6,T,,M,1.8,N,3.4,K,D*30
$GPRMC,165628.27,A,5649.75558,N,13222.18859,W,1.8,103.0,200923,,,d*6A
$GPZDA,165629.0027,20,09,2023,,*64
$PADCP,113,20230920,165629.27,-0.27
$GPGGA,165629.270,5649.75548,N,13222.18765,W,2,14,1.8,-0.58,M,,,7,0135*30
$GPHDT,103.3,T*34
$GPVTG,101.0,T,,M,1.9,N,3.5,K,D*06
$GPRMC,165629.27,A,5649.75548,N,13222.18765,W,1.9,103.3,200923,,,d*68
$GPZDA,165630.0027,20,09,2023,,*6C
$GPGGA,165630.270,5649.75537,N,13222.18671,W,2,14,1.8,-0.58,M,,,7,0135*34
$GPHDT,103.6,T*31
$GPVTG,99.5,T,,M,1.9,N,3.5,K,D*33
$GPRMC,165630.27,A,5649.75537,N,13222.18671,W,1.9,103.6,200923,,,d*69
$PADCP,114,20230920,165630.70,-0.27
$GPZDA,165631.0027,20,09,2023,,*6D
$GPGGA,165631.270,5649.75527,N,13222.18577,W,2,14,1.8,-0.57,M,,,7,0135*3E
$GPHDT,103.9,T*3E
$GPVTG,101.8,T,,M,1.9,N,3.5,K,D*0E
$GPRMC,165631.27,A,5649.75527,N,13222.18577,W,1.9,103.9,200923,,,d*63
$GPZDA,165632.0027,20,09,2023,,*6E
$PADCP,115,20230920,165632.14,-0.27
$GPGGA,165632.270,5649.75515,N,13222.18483,W,2,14,1.8,-0.59,M,,,7,0135*38
$GPHDT,104.3,T*33
$GPVTG,101.4,T,,M,1.9,N,3.5,K,D*02
$GPRMC,165632.27,A,5649.75515,N,13222.18483,W,1.9,104.3,200923,,,d*66
$GPZDA,165633.0027,20,09,2023,,*6F
$GPGGA,165633.270,5649.75504,N,13222.18392,W,2,14,1.8,-0.57,M,,,5,0135*32
$GPHDT,104.4,T*34
$GPVTG,103.7,T,,M,1.8,N,3.4,K,D*03
$GPRMC,165633.27,A,5649.75504,N,13222.18392,W,1.8,104.4,200923,,,d*66
$PADCP,116,20230920,165633.57,-0.27
$GPZDA,165634.0027,20,09,2023,,*68
$GPGGA,165634.270,5649.75490,N,13222.18300,W,2,14,1.8,-0.59,M,,,5,0135*3C
$GPHDT,104.7,T*37
$GPVTG,104.4,T,,M,1.9,N,3.5,K,D*07
$GPRMC,165634.27,A,5649.75490,N,13222.18300,W,1.9,104.7,200923,,,d*64
$PADCP,117,20230920,165634.80,-0.27
$GPZDA,165635.0027,20,09,2023,,*69
$GPGGA,165635.270,5649.75477,N,13222.18207,W,2,14,1.8,-0.58,M,,,7,0135*31
$GPHDT,104.8,T*38
$GPVTG,103.9,T,,M,1.9,N,3.5,K,D*0D
$GPRMC,165635.27,A,5649.75477,N,13222.18207,W,1.9,104.8,200923,,,d*65
$PADCP,118,20230920,165636.02,-0.27
$GPZDA,165636.0027,20,09,2023,,*6A
$GPGGA,165636.270,5649.75464,N,13222.18113,W,2,14,1.8,-0.59,M,,,7,0135*37
$GPHDT,104.9,T*39
$GPVTG,104.4,T,,M,1.9,N,3.6,K,D*04
$GPRMC,165636.27,A,5649.75464,N,13222.18113,W,1.9,104.9,200923,,,d*63
$GPZDA,165637.0027,20,09,2023,,*6B
$PADCP,119,20230920,165637.27,-0.27
$GPGGA,165637.270,5649.75451,N,13222.18021,W,2,14,1.8,-0.60,M,,,7,0135*3A
$GPHDT,105.2,T*33
$GPVTG,103.3,T,,M,1.8,N,3.4,K,D*07
$GPRMC,165637.27,A,5649.75451,N,13222.18021,W,1.8,105.2,200923,,,d*6F
$GPZDA,165638.0027,20,09,2023,,*64
$GPGGA,165638.270,5649.75437,N,13222.17928,W,2,14,1.8,-0.61,M,,,7,0135*3B
$GPHDT,105.4,T*35
$GPVTG,105.0,T,,M,1.9,N,3.6,K,D*01
$GPRMC,165638.27,A,5649.75437,N,13222.17928,W,1.9,105.4,200923,,,d*68
$PADCP,120,20230920,165638.49,-0.27
$GPZDA,165639.0027,20,09,2023,,*65
$GPGGA,165639.270,5649.75423,N,13222.17834,W,2,14,1.8,-0.61,M,,,5,0135*31
$GPHDT,105.8,T*39
$GPVTG,106.0,T,,M,1.9,N,3.6,K,D*02
$GPRMC,165639.27,A,5649.75423,N,13222.17834,W,1.9,105.8,200923,,,d*6C
$PADCP,121,20230920,165639.72,-0.27
$GPZDA,165640.0027,20,09,2023,,*6B
$GPGGA,165640.270,5649.75409,N,13222.17739,W,2,14,1.8,-0.61,M,,,5,0135*35
$GPHDT,106.8,T*3A
$GPVTG,104.1,T,,M,1.9,N,3.6,K,D*01
$GPRMC,165640.27,A,5649.75409,N,13222.17739,W,1.9,106.8,200923,,,d*6B
$PADCP,122,20230920,165640.95,-0.27
$GPZDA,165641.0027,20,09,2023,,*6A
$GPGGA,165641.270,5649.75395,N,13222.17642,W,2,14,1.8,-0.59,M,,,7,0135*32
$GPHDT,108.9,T*35
$GPVTG,103.6,T,,M,2.0,N,3.7,K,D*0A
$GPRMC,165641.27,A,5649.75395,N,13222.17642,W,2.0,108.9,200923,,,d*60
$GPZDA,165642.0027,20,09,2023,,*69
$PADCP,123,20230920,165642.18,-0.27
$GPGGA,165642.270,5649.75381,N,13222.17543,W,2,14,1.8,-0.61,M,,,7,0135*3D
$GPHDT,111.5,T*31
$GPVTG,105.2,T,,M,2.0,N,3.7,K,D*08
$GPRMC,165642.27,A,5649.75381,N,13222.17543,W,2.0,111.5,200923,,,d*60
$GPZDA,165643.0027,20,09,2023,,*68
$GPGGA,165643.270,5649.75365,N,13222.17446,W,2,14,1.8,-0.65,M,,,7,0135*36
$GPHDT,114.3,T*32
$GPVTG,108.9,T,,M,2.0,N,3.8,K,D*01
$PADCP,124,20230920,165643.42,-0.27
$GPRMC,165643.27,A,5649.75365,N,13222.17446,W,2.0,114.3,200923,,,d*6C
$GPZDA,165644.0027,20,09,2023,,*6F
$GPGGA,165644.270,5649.75346,N,13222.17349,W,2,14,1.8,-0.67,M,,,7,0135*3A
$GPHDT,116.9,T*3A
$GPVTG,110.0,T,,M,2.0,N,3.7,K,D*0E
$GPRMC,165644.27,A,5649.75346,N,13222.17349,W,2.0,116.9,200923,,,d*6A
$PADCP,125,20230920,165644.86,-0.27
$GPZDA,165645.0027,20,09,2023,,*6E
$GPGGA,165645.270,5649.75326,N,13222.17257,W,2,14,1.8,-0.63,M,,,5,0135*35
$GPHDT,118.3,T*3E
$GPVTG,114.9,T,,M,1.9,N,3.6,K,D*08
$GPRMC,165645.27,A,5649.75326,N,13222.17257,W,1.9,118.3,200923,,,d*6D
$GPZDA,165646.0027,20,09,2023,,*6D
$PADCP,126,20230920,165646.08,-0.27
$GPGGA,165646.270,5649.75301,N,13222.17173,W,2,14,1.8,-0.64,M,,,5,0135*31
$GPHDT,118.2,T*3F
$GPVTG,118.4,T,,M,1.9,N,3.5,K,D*0A
$GPRMC,165646.27,A,5649.75301,N,13222.17173,W,1.9,118.2,200923,,,d*6F
$GPZDA,165647.0027,20,09,2023,,*6C
$PADCP,127,20230920,165647.32,-0.27
$GPGGA,165647.270,5649.75278,N,13222.17089,W,2,14,1.8,-0.60,M,,,7,0135*3D
$GPHDT,118.1,T*3C
$GPVTG,114.6,T,,M,1.9,N,3.4,K,D*05
$GPRMC,165647.27,A,5649.75278,N,13222.17089,W,1.9,118.1,200923,,,d*66
$GPZDA,165648.0027,20,09,2023,,*63
$GPGGA,165648.270,5649.75254,N,13222.17007,W,2,14,1.8,-0.60,M,,,7,0135*3A
$GPHDT,117.4,T*36
$GPVTG,120.6,T,,M,1.8,N,3.3,K,D*04
$GPRMC,165648.27,A,5649.75254,N,13222.17007,W,1.8,117.4,200923,,,d*6A
$PADCP,128,20230920,165648.55,-0.27
$GPZDA,165649.0027,20,09,2023,,*62
$GPGGA,165649.270,5649.75228,N,13222.16926,W,2,14,1.7,-0.66,M,,,7,0135*32
$GPHDT,117.1,T*33
$GPVTG,119.4,T,,M,1.9,N,3.5,K,D*0B
$GPRMC,165649.27,A,5649.75228,N,13222.16926,W,1.9,117.1,200923,,,d*6F
$PADCP,129,20230920,165649.77,-0.27
$GPZDA,165650.0027,20,09,2023,,*6A
$GPGGA,165650.270,5649.75203,N,13222.16843,W,2,14,1.7,-0.63,M,,,7,0135*34
$GPHDT,117.0,T*32
$GPVTG,118.6,T,,M,1.9,N,3.5,K,D*08
$GPRMC,165650.27,A,5649.75203,N,13222.16843,W,1.9,117.0,200923,,,d*6D
$PADCP,130,20230920,165651.00,-0.27
$GPZDA,165651.0028,20,09,2023,,*64
$GPGGA,165651.270,5649.75177,N,13222.16762,W,2,14,1.7,-0.63,M,,,5,0135*3B
$GPHDT,117.1,T*33
$GPVTG,119.3,T,,M,1.9,N,3.5,K,D*0C
$GPRMC,165651.27,A,5649.75177,N,13222.16762,W,1.9,117.1,200923,,,d*61
$GPZDA,165652.0028,20,09,2023,,*67
$PADCP,131,20230920,165652.23,-0.27
$GPGGA,165652.270,5649.75153,N,13222.16679,W,2,14,1.7,-0.64,M,,,6,0135*31
$GPHDT,117.7,T*35
$GPVTG,117.8,T,,M,1.9,N,3.5,K,D*09
$GPRMC,165652.27,A,5649.75153,N,13222.16679,W,1.9,117.7,200923,,,d*69
$GPZDA,165653.0028,20,09,2023,,*66
$GPGGA,165653.270,5649.75128,N,13222.16595,W,2,14,1.7,-0.66,M,,,7,0135*3E
$GPHDT,118.4,T*39
$GPVTG,118.9,T,,M,1.9,N,3.5,K,D*07
$PADCP,132,20230920,165653.46,-0.27
$GPRMC,165653.27,A,5649.75128,N,13222.16595,W,1.9,118.4,200923,,,d*69
$GPZDA,165654.0028,20,09,2023,,*61
$GPGGA,165654.270,5649.75103,N,13222.16509,W,2,14,1.7,-0.66,M,,,7,0135*35
$GPHDT,119.4,T*38
$GPVTG,117.9,T,,M,2.0,N,3.6,K,D*01
$GPRMC,165654.27,A,5649.75103,N,13222.16509,W,2.0,119.4,200923,,,d*69
$PADCP,133,20230920,165654.68,-0.27
$GPZDA,165655.0028,20,09,2023,,*60
$GPGGA,165655.270,5649.75077,N,13222.16423,W,2,14,1.7,-0.65,M,,,7,0135*3C
$GPHDT,120.3,T*35
$GPVTG,120.4,T,,M,1.9,N,3.5,K,D*01
$GPRMC,165655.27,A,5649.75077,N,13222.16423,W,1.9,120.3,200923,,,d*64
$GPZDA,165656.0028,20,09,2023,,*63
$PADCP,134,20230920,165656.11,-0.27
$GPGGA,165656.270,5649.75050,N,13222.16340,W,2,14,1.7,-0.66,M,,,7,0135*3B
$GPHDT,121.3,T*34
$GPVTG,121.7,T,,M,1.9,N,3.5,K,D*03
$GPRMC,165656.27,A,5649.75050,N,13222.16340,W,1.9,121.3,200923,,,d*61
$GPZDA,165657.0028,20,09,2023,,*62
$GPGGA,165657.270,5649.75024,N,13222.16259,W,2,14,1.7,-0.65,M,,,5,0135*31
$PADCP,135,20230920,165657.34,-0.27
$GPHDT,122.2,T*36
$GPVTG,120.7,T,,M,1.9,N,3.5,K,D*02
$GPRMC,165657.27,A,5649.75024,N,13222.16259,W,1.9,122.2,200923,,,d*68
$GPZDA,165658.0028,20,09,2023,,*6D
$GPGGA,165658.270,5649.74996,N,13222.16177,W,2,14,1.7,-0.67,M,,,5,0135*32
$GPHDT,123.0,T*35
$GPVTG,122.9,T,,M,1.9,N,3.6,K,D*0D
$GPRMC,165658.27,A,5649.74996,N,13222.16177,W,1.9,123.0,200923,,,d*6A
$PADCP,136,20230920,165658.57,-0.27
$GPZDA,165659.0028,20,09,2023,,*6C
$GPGGA,165659.270,5649.74967,N,13222.16096,W,2,14,1.7,-0.68,M,,,7,0135*3E
$GPHDT,123.8,T*3D
$GPVTG,123.5,T,,M,1.9,N,3.5,K,D*03
$GPRMC,165659.27,A,5649.74967,N,13222.16096,W,1.9,123.8,200923,,,d*63
$PADCP,137,20230920,165659.80,-0.27
$GPZDA,165700.0028,20,09,2023,,*61
$GPGGA,165700.270,5649.74938,N,13222.16017,W,2,14,1.7,-0.68,M,,,7,0135*30
$GPHDT,124.6,T*34
$GPVTG,125.2,T,,M,1.9,N,3.5,K,D*02
$GPRMC,165700.27,A,5649.74938,N,13222.16017,W,1.9,124.6,200923,,,d*64
$GPZDA,165701.0028,20,09,2023,,*60
$PADCP,138,20230920,165701.03,-0.27
$GPGGA,165701.270,5649.74908,N,13222.15940,W,2,14,1.7,-0.69,M,,,7,0135*3B
$GPHDT,125.0,T*33
$GPVTG,126.1,T,,M,1.9,N,3.6,K,D*01
$GPRMC,165701.27,A,5649.74908,N,13222.15940,W,1.9,125.0,200923,,,d*69
$GPZDA,165702.0028,20,09,2023,,*63
$PADCP,139,20230920,165702.28,-0.27
$GPGGA,165702.270,5649.74876,N,13222.15861,W,2,14,1.7,-0.68,M,,,4,0135*30
$GPHDT,125.8,T*3B
$GPVTG,126.3,T,,M,1.9,N,3.6,K,D*03
$GPRMC,165702.27,A,5649.74876,N,13222.15861,W,1.9,125.8,200923,,,d*68
$GPZDA,165703.0028,20,09,2023,,*62
$GPGGA,165703.270,5649.74845,N,13222.15782,W,2,14,1.7,-0.69,M,,,5,0135*33
$GPHDT,126.4,T*34
$GPVTG,127.0,T,,M,1.9,N,3.5,K,D*02
$GPRMC,165703.27,A,5649.74845,N,13222.15782,W,1.9,126.4,200923,,,d*64
$PADCP,140,20230920,165703.50,-0.27
$GPZDA,165704.0028,20,09,2023,,*65
$GPGGA,165704.270,5649.74813,N,13222.15703,W,2,14,1.7,-0.70,M,,,5,0135*36
$GPHDT,127.1,T*30
$GPVTG,127.0,T,,M,1.9,N,3.6,K,D*01
$GPRMC,165704.27,A,5649.74813,N,13222.15703,W,1.9,127.1,200923,,,d*6D
$PADCP,141,20230920,165704.73,-0.27
$GPZDA,165705.0028,20,09,2023,,*64
$GPGGA,165705.270,5649.74780,N,13222.15625,W,2,14,1.7,-0.71,M,,,7,0135*34
$GPHDT,127.7,T*36
$GPVTG,128.5,T,,M,2.0,N,3.6,K,D*01
$GPRMC,165705.27,A,5649.74780,N,13222.15625,W,2.0,127.7,200923,,,d*60
$PADCP,142,20230920,165705.98,-0.27
$GPZDA,165706.0028,20,09,2023,,*67
$GPGGA,165706.270,5649.74747,N,13222.15547,W,2,14,1.7,-0.73,M,,,7,0135*39
$GPHDT,128.5,T*3B
$GPVTG,129.3,T,,M,2.0,N,3.7,K,D*07
$GPRMC,165706.27,A,5649.74747,N,13222.15547,W,2.0,128.5,200923,,,d*62
$GPZDA,165707.0028,20,09,2023,,*66
$GPGGA,165707.270,5649.74712,N,13222.15471,W,2,14,1.7,-0.74,M,,,7,0135*3B
$GPHDT,128.9,T*37
$GPVTG,131.1,T,,M,1.9,N,3.6,K,D*07
$PADCP,143,20230920,165707.41,-0.27
$GPRMC,165707.27,A,5649.74712,N,13222.15471,W,1.9,128.9,200923,,,d*61
$GPZDA,165708.0028,20,09,2023,,*69
$GPGGA,165708.270,5649.74677,N,13222.15398,W,2,14,1.7,-0.73,M,,,7,0135*31
$GPHDT,129.3,T*3C
$GPVTG,129.8,T,,M,1.9,N,3.5,K,D*04
$GPRMC,165708.27,A,5649.74677,N,13222.15398,W,1.9,129.3,200923,,,d*67
$PADCP,144,20230920,165708.64,-0.27
$GPZDA,165709.0028,20,09,2023,,*68
$GPGGA,165709.270,5649.74643,N,13222.15323,W,2,14,1.7,-0.72,M,,,5,0135*34
$GPHDT,129.7,T*38
$GPVTG,131.4,T,,M,2.0,N,3.6,K,D*08
$GPRMC,165709.27,A,5649.74643,N,13222.15323,W,2.0,129.7,200923,,,d*6F
$PADCP,145,20230920,165709.87,-0.27
$GPZDA,165710.0028,20,09,2023,,*60
$GPGGA,165710.270,5649.74606,N,13222.15248,W,2,14,1.7,-0.75,M,,,5,0135*36
$GPHDT,130.2,T*35
$GPVTG,133.2,T,,M,2.0,N,3.7,K,D*0D
$GPRMC,165710.27,A,5649.74606,N,13222.15248,W,2.0,130.2,200923,,,d*67
$GPZDA,165711.0028,20,09,2023,,*61
$PADCP,146,20230920,165711.10,-0.27
$GPGGA,165711.270,5649.74569,N,13222.15173,W,2,14,1.7,-0.78,M,,,7,0135*39
$GPHDT,130.5,T*32
$GPVTG,131.6,T,,M,1.9,N,3.6,K,D*00
$GPRMC,165711.27,A,5649.74569,N,13222.15173,W,1.9,130.5,200923,,,d*6A
$GPZDA,165712.0028,20,09,2023,,*62
$PADCP,147,20230920,165712.35,-0.27
$GPGGA,165712.270,5649.74533,N,13222.15101,W,2,14,1.7,-0.76,M,,,7,0135*3E
$GPHDT,130.3,T*34
$GPVTG,133.6,T,,M,1.9,N,3.6,K,D*02
$GPRMC,165712.27,A,5649.74533,N,13222.15101,W,1.9,130.3,200923,,,d*65
$GPZDA,165713.0028,20,09,2023,,*63
$GPGGA,165713.270,5649.74496,N,13222.15030,W,2,14,1.7,-0.77,M,,,7,0135*33
$GPHDT,129.7,T*38
$GPVTG,132.8,T,,M,1.9,N,3.6,K,D*0D
$GPRMC,165713.27,A,5649.74496,N,13222.15030,W,1.9,129.7,200923,,,d*65
$PADCP,148,20230920,165713.57,-0.27
$GPZDA,165714.0029,20,09,2023,,*65
$GPGGA,165714.270,5649.74461,N,13222.14958,W,2,14,1.7,-0.77,M,,,7,0135*3A
$GPHDT,129.2,T*3D
$GPVTG,131.0,T,,M,1.9,N,3.4,K,D*04
$GPRMC,165714.27,A,5649.74461,N,13222.14958,W,1.9,129.2,200923,,,d*69
$PADCP,149,20230920,165714.80,-0.27
$GPZDA,165715.0029,20,09,2023,,*64
$GPGGA,165715.270,5649.74427,N,13222.14887,W,2,14,1.7,-0.78,M,,,5,0135*37
$GPHDT,128.3,T*3D
$GPVTG,132.4,T,,M,1.9,N,3.5,K,D*02
$GPRMC,165715.27,A,5649.74427,N,13222.14887,W,1.9,128.3,200923,,,d*69
$GPZDA,165716.0029,20,09,2023,,*67
$PADCP,150,20230920,165716.03,-0.27
$GPGGA,165716.270,5649.74391,N,13222.14815,W,2,14,1.7,-0.78,M,,,5,0135*35
$GPHDT,127.8,T*39
$GPVTG,132.0,T,,M,1.9,N,3.6,K,D*05
$GPRMC,165716.27,A,5649.74391,N,13222.14815,W,1.9,127.8,200923,,,d*6F
$GPZDA,165717.0029,20,09,2023,,*66
$PADCP,151,20230920,165717.26,-0.27
$GPGGA,165717.270,5649.74356,N,13222.14740,W,2,14,1.7,-0.78,M,,,7,0135*32
$GPHDT,127.7,T*36
$GPVTG,131.1,T,,M,2.0,N,3.6,K,D*0D
$GPRMC,165717.27,A,5649.74356,N,13222.14740,W,2.0,127.7,200923,,,d*6F
$GPZDA,165718.0029,20,09,2023,,*69
$GPGGA,165718.270,5649.74322,N,13222.14667,W,2,14,1.7,-0.79,M,,,7,0135*3B
$GPHDT,127.7,T*36
$GPVTG,131.0,T,,M,1.9,N,3.5,K,D*05
$GPRMC,165718.27,A,5649.74322,N,13222.14667,W,1.9,127.7,200923,,,d*6D
$PADCP,152,20230920,165718.69,-0.27
$GPZDA,165719.0029,20,09,2023,,*68
$GPGGA,165719.270,5649.74287,N,13222.14594,W,2,14,1.7,-0.79,M,,,7,0135*3B
$GPHDT,128.1,T*3F
$GPVTG,131.2,T,,M,1.9,N,3.6,K,D*04
$GPRMC,165719.27,A,5649.74287,N,13222.14594,W,1.9,128.1,200923,,,d*64
$PADCP,153,20230920,165719.91,-0.27
$GPZDA,165720.0029,20,09,2023,,*62
$GPGGA,165720.270,5649.74253,N,13222.14520,W,2,14,1.7,-0.79,M,,,7,0135*37
$GPHDT,128.5,T*3B
$GPVTG,129.5,T,,M,1.9,N,3.6,K,D*0A
$GPRMC,165720.27,A,5649.74253,N,13222.14520,W,1.9,128.5,200923,,,d*6C
$GPZDA,165721.0029,20,09,2023,,*63
$PADCP,154,20230920,165721.14,-0.27
$GPGGA,165721.270,5649.74219,N,13222.14444,W,2,14,1.7,-0.78,M,,,5,0135*38
$GPHDT,129.0,T*3F
$GPVTG,129.4,T,,M,2.0,N,3.6,K,D*01
$GPRMC,165721.27,A,5649.74219,N,13222.14444,W,2.0,129.0,200923,,,d*6E
$GPZDA,165722.0029,20,09,2023,,*60
$GPGGA,165722.270,5649.74185,N,13222.14368,W,2,14,1.7,-0.80,M,,,5,0135*33
$GPHDT,129.5,T*3A
$PADCP,155,20230920,165722.38,-0.27
$GPVTG,131.6,T,,M,2.0,N,3.6,K,D*0A
$GPRMC,165722.27,A,5649.74185,N,13222.14368,W,2.0,129.5,200923,,,d*67
$GPZDA,165723.0029,20,09,2023,,*61
$GPGGA,165723.270,5649.74149,N,13222.14294,W,2,14,1.7,-0.80,M,,,7,0135*32
$GPHDT,130.0,T*37
$GPVTG,132.3,T,,M,2.0,N,3.7,K,D*0D
$GPRMC,165723.27,A,5649.74149,N,13222.14294,W,2.0,130.0,200923,,,d*69
$PADCP,156,20230920,165723.60,-0.27
$GPZDA,165724.0029,20,09,2023,,*66
$GPGGA,165724.270,5649.74114,N,13222.14221,W,2,14,1.7,-0.81,M,,,7,0135*32
$GPHDT,130.4,T*33
$GPVTG,132.0,T,,M,1.9,N,3.6,K,D*05
$GPRMC,165724.27,A,5649.74114,N,13222.14221,W,1.9,130.4,200923,,,d*66
$PADCP,157,20230920,165724.83,-0.27
$GPZDA,165725.0029,20,09,2023,,*67
$GPGGA,165725.270,5649.74078,N,13222.14150,W,2,14,1.7,-0.82,M,,,7,0135*3E
$GPHDT,130.6,T*31
$GPVTG,133.5,T,,M,1.9,N,3.5,K,D*02
$GPRMC,165725.27,A,5649.74078,N,13222.14150,W,1.9,130.6,200923,,,d*6B
$GPZDA,165726.0029,20,09,2023,,*64
$PADCP,158,20230920,165726.06,-0.27
$GPGGA,165726.270,5649.74042,N,13222.14083,W,2,14,1.7,-0.85,M,,,7,0135*3C
$GPHDT,129.3,T*3C
$GPVTG,135.6,T,,M,1.8,N,3.4,K,D*07
$GPRMC,165726.27,A,5649.74042,N,13222.14083,W,1.8,129.3,200923,,,d*62
$GPZDA,165727.0029,20,09,2023,,*65
$PADCP,159,20230920,165727.29,-0.27
$GPGGA,165727.270,5649.74007,N,13222.14023,W,2,14,1.7,-0.85,M,,,5,0135*34
$GPHDT,125.9,T*3A
$GPVTG,138.0,T,,M,1.7,N,3.2,K,D*05
$GPRMC,165727.27,A,5649.74007,N,13222.14023,W,1.7,125.9,200923,,,d*61
$GPZDA,165728.0029,20,09,2023,,*6A
$GPGGA,165728.270,5649.73973,N,13222.13969,W,2,14,1.7,-0.84,M,,,5,0135*37
$GPHDT,120.0,T*36
$GPVTG,139.5,T,,M,1.6,N,3.0,K,D*02
$GPRMC,165728.27,A,5649.73973,N,13222.13969,W,1.6,120.0,200923,,,d*6E
$PADCP,160,20230920,165728.51,-0.27
$GPZDA,165729.0029,20,09,2023,,*6B
$GPGGA,165729.270,5649.73940,N,13222.13916,W,2,14,1.7,-0.83,M,,,7,0135*3B
$GPHDT,112.8,T*3F
$GPVTG,138.0,T,,M,1.6,N,2.9,K,D*0E
$GPRMC,165729.27,A,5649.73940,N,13222.13916,W,1.6,112.8,200923,,,d*6E
$PADCP,161,20230920,165729.94,-0.27
$GPZDA,165730.0029,20,09,2023,,*63
$GPGGA,165730.270,5649.73910,N,13222.13864,W,2,14,1.7,-0.83,M,,,7,0135*32
$GPHDT,105.2,T*33
$GPVTG,132.0,T,,M,1.5,N,2.7,K,D*09
$GPRMC,165730.27,A,5649.73910,N,13222.13864,W,1.5,105.2,200923,,,d*68
$GPZDA,165731.0029,20,09,2023,,*62
$PADCP,162,20230920,165731.17,-0.27
$GPGGA,165731.270,5649.73888,N,13222.13812,W,2,14,1.7,-0.78,M,,,7,0135*36
$GPHDT,97.3,T*08
$GPVTG,129.6,T,,M,1.3,N,2.4,K,D*00
$GPRMC,165731.27,A,5649.73888,N,13222.13812,W,1.3,97.3,200923,,,d*55
$GPZDA,165732.0029,20,09,2023,,*61
$GPGGA,165732.270,5649.73867,N,13222.13763,W,2,14,1.7,-0.81,M,,,7,0135*3B
$GPHDT,90.1,T*0D
$GPVTG,125.3,T,,M,1.2,N,2.3,K,D*0F
$PADCP,163,20230920,165732.42,-0.27
$GPRMC,165732.27,A,5649.73867,N,13222.13763,W,1.2,90.1,200923,,,d*5A
$GPZDA,165733.0029,20,09,2023,,*60
$GPGGA,165733.270,5649.73852,N,13222.13713,W,2,14,1.7,-0.81,M,,,5,0135*39
$GPHDT,84.1,T*08
$GPVTG,116.1,T,,M,1.1,N,2.0,K,D*0D
$GPRMC,165733.27,A,5649.73852,N,13222.13713,W,1.1,84.1,200923,,,d*5C
$PADCP,164,20230920,165733.65,-0.27
$GPZDA,165734.0029,20,09,2023,,*67
$GPGGA,165734.270,5649.73841,N,13222.13666,W,2,14,1.7,-0.81,M,,,5,0135*3F
$GPHDT,78.7,T*0D
$GPVTG,108.3,T,,M,1.0,N,1.9,K,D*0B
$GPRMC,165734.27,A,5649.73841,N,13222.13666,W,1.0,78.7,200923,,,d*5E
$PADCP,165,20230920,165734.88,-0.27
$GPZDA,165735.0029,20,09,2023,,*66
$GPGGA,165735.270,5649.73835,N,13222.13620,W,2,14,1.7,-0.81,M,,,7,0135*3D
$GPHDT,74.3,T*05
$GPVTG,101.3,T,,M,0.9,N,1.7,K,D*04
$GPRMC,165735.27,A,5649.73835,N,13222.13620,W,0.9,74.3,200923,,,d*5E
$GPZDA,165736.0030,20,09,2023,,*6D
$PADCP,166,20230920,165736.11,-0.27
$GPGGA,165736.270,5649.73832,N,13222.13579,W,2,14,1.7,-0.81,M,,,7,0135*36
$GPHDT,70.7,T*05
$GPVTG,99.6,T,,M,0.8,N,1.4,K,D*33
$GPRMC,165736.27,A,5649.73832,N,13222.13579,W,0.8,70.7,200923,,,d*54
$GPZDA,165737.0030,20,09,2023,,*6C
$PADCP,167,20230920,165737.34,-0.27
$GPGGA,165737.270,5649.73831,N,13222.13543,W,2,14,1.7,-0.82,M,,,7,0135*3E
$GPHDT,67.4,T*00
$GPVTG,92.9,T,,M,0.7,N,1.3,K,D*3F
$GPRMC,165737.27,A,5649.73831,N,13222.13543,W,0.7,67.4,200923,,,d*55
$GPZDA,165738.0030,20,09,2023,,*63
$GPGGA,165738.270,5649.73832,N,13222.13511,W,2,14,1.7,-0.82,M,,,7,0135*35
$GPHDT,64.6,T*01
$GPVTG,89.5,T,,M,0.6,N,1.2,K,D*39
$GPRMC,165738.27,A,5649.73832,N,13222.13511,W,0.6,64.6,200923,,,d*5E
$PADCP,168,20230920,165738.58,-0.27
$GPZDA,165739.0030,20,09,2023,,*62
$GPGGA,165739.270,5649.73834,N,13222.13482,W,2,14,1.7,-0.82,M,,,5,0135*3B
$GPHDT,62.0,T*01
$GPVTG,84.2,T,,M,0.6,N,1.1,K,D*30
$GPRMC,165739.27,A,5649.73834,N,13222.13482,W,0.6,62.0,200923,,,d*52
$PADCP,169,20230920,165739.81,-0.27
$GPZDA,165740.0030,20,09,2023,,*6C
$GPGGA,165740.270,5649.73838,N,13222.13455,W,2,14,1.7,-0.83,M,,,5,0135*32
$GPHDT,59.7,T*0E
$GPVTG,77.4,T,,M,0.5,N,1.0,K,D*38
$GPRMC,165740.27,A,5649.73838,N,13222.13455,W,0.5,59.7,200923,,,d*56
$GPZDA,165741.0030,20,09,2023,,*6D
$PADCP,170,20230920,165741.24,-0.27
$GPGGA,165741.270,5649.73843,N,13222.13432,W,2,14,1.7,-0.83,M,,,7,0135*3C
$GPHDT,57.6,T*01
$GPVTG,75.5,T,,M,0.5,N,0.9,K,D*33
$GPRMC,165741.27,A,5649.73843,N,13222.13432,W,0.5,57.6,200923,,,d*55
$GPZDA,165742.0030,20,09,2023,,*6E
$GPGGA,165742.270,5649.73849,N,13222.13410,W,2,14,1.7,-0.84,M,,,7,0135*32
$GPHDT,55.6,T*03
$GPVTG,69.3,T,,M,0.5,N,1.0,K,D*30
$PADCP,171,20230920,165742.47,-0.27
$GPRMC,165742.27,A,5649.73849,N,13222.13410,W,0.5,55.6,200923,,,d*5E
$GPZDA,165743.0030,20,09,2023,,*6F
$GPGGA,165743.270,5649.73856,N,13222.13390,W,2,14,1.7,-0.81,M,,,7,0135*37
$GPHDT,54.0,T*04
$GPVTG,66.5,T,,M,0.5,N,0.9,K,D*31
$GPRMC,165743.27,A,5649.73856,N,13222.13390,W,0.5,54.0,200923,,,d*59
$PADCP,172,20230920,165743.69,-0.27
$GPZDA,165744.0030,20,09,2023,,*68
$GPGGA,165744.270,5649.73862,N,13222.13373,W,2,14,1.7,-0.82,M,,,7,0135*39
$GPHDT,52.2,T*00
$GPVTG,61.0,T,,M,0.5,N,0.9,K,D*33
$GPRMC,165744.27,A,5649.73862,N,13222.13373,W,0.5,52.2,200923,,,d*50
$PADCP,173,20230920,165744.94,-0.27
$GPZDA,165745.0030,20,09,2023,,*69
$GPGGA,165745.270,5649.73870,N,13222.13359,W,2,14,1.7,-0.83,M,,,5,0135*30
$GPHDT,50.8,T*08
$GPVTG,51.4,T,,M,0.4,N,0.8,K,D*34
$GPRMC,165745.27,A,5649.73870,N,13222.13359,W,0.4,50.8,200923,,,d*53
$GPZDA,165746.0030,20,09,2023,,*6A
$PADCP,174,20230920,165746.17,-0.27
$GPGGA,165746.270,5649.73878,N,13222.13345,W,2,14,1.7,-0.84,M,,,5,0135*31
$GPHDT,49.5,T*0D
$GPVTG,60.6,T,,M,0.4,N,0.8,K,D*34
$GPRMC,165746.27,A,5649.73878,N,13222.13345,W,0.4,49.5,200923,,,d*50
$GPZDA,165747.0030,20,09,2023,,*6B
$GPGGA,165747.270,5649.73886,N,13222.13331,W,2,14,1.7,-0.85,M,,,7,0135*31
$GPHDT,48.2,T*0B
$GPVTG,51.3,T,,M,0.4,N,0.7,K,D*3C
$PADCP,175,20230920,165747.40,-0.27
$GPRMC,165747.27,A,5649.73886,N,13222.13331,W,0.4,48.2,200923,,,d*55
$GPZDA,165748.0030,20,09,2023,,*64
$GPGGA,165748.270,5649.73893,N,13222.13318,W,2,14,1.7,-0.84,M,,,7,0135*30
$GPHDT,47.1,T*07
$GPVTG,52.3,T,,M,0.4,N,0.8,K,D*30
$GPRMC,165748.27,A,5649.73893,N,13222.13318,W,0.4,47.1,200923,,,d*59
$PADCP,176,20230920,165748.63,-0.27
$GPZDA,165749.0030,20,09,2023,,*65
$GPGGA,165749.270,5649.73901,N,13222.13308,W,2,14,1.7,-0.88,M,,,7,0135*36
$GPHDT,46.1,T*06
$GPVTG,49.2,T,,M,0.4,N,0.7,K,D*34
$GPRMC,165749.27,A,5649.73901,N,13222.13308,W,0.4,46.1,200923,,,d*52
$PADCP,177,20230920,165749.85,-0.27
