$GPGGA,230208.639,5649.88753,N,13221.90269,W,2,17,1.5,1.29,M,,,4,0135*1A
$GPHDT,156.4,T*33
$GPVTG,160.6,T,,M,1.9,N,3.6,K,D*04
$GPRMC,230208.64,A,5649.88753,N,13221.90269,W,1.9,156.4,200923,,,d*6C
$GPZDA,230209.0015,20,09,2023,,*60
$GPGGA,230209.639,5649.88701,N,13221.90234,W,2,17,1.5,1.29,M,,,5,0135*15
$GPHDT,155.9,T*3D
$GPVTG,159.3,T,,M,2.0,N,3.7,K,D*00
$GPRMC,230209.64,A,5649.88701,N,13221.90234,W,2.0,155.9,200923,,,d*66
$GPZDA,230210.0015,20,09,2023,,*68
$GPGGA,230210.639,5649.88650,N,13221.90201,W,2,17,1.5,1.32,M,,,6,0135*17
$GPHDT,155.4,T*30
$GPVTG,160.7,T,,M,1.9,N,3.5,K,D*06
$GPRMC,230210.64,A,5649.88650,N,13221.90201,W,1.9,155.4,200923,,,d*6A
$PADCP,1,20230920,230211.36,0.36
$GPZDA,230211.0015,20,09,2023,,*69
$GPGGA,230211.639,5649.88599,N,13221.90169,W,2,17,1.5,1.36,M,,,7,0135*18
$GPHDT,155.1,T*35
$GPVTG,159.8,T,,M,2.0,N,3.7,K,D*0B
$GPRMC,230211.64,A,5649.88599,N,13221.90169,W,2.0,155.1,200923,,,d*6F
$GPZDA,230212.0015,20,09,2023,,*6A
$PADCP,2,20230920,230212.79,0.36
$GPGGA,230212.639,5649.88543,N,13221.90135,W,2,17,1.5,1.44,M,,,7,0135*10
$GPHDT,154.6,T*33
$GPVTG,162.3,T,,M,2.1,N,3.9,K,D*07
$GPRMC,230212.64,A,5649.88543,N,13221.90135,W,2.1,154.6,200923,,,d*65
$GPZDA,230213.0015,20,09,2023,,*6B
$PADCP,3,20230920,230214.02,0.36
$GPGGA,230213.639,5649.88485,N,13221.90102,W,2,17,1.5,1.45,M,,,7,0135*1F
$GPHDT,154.3,T*36
$GPVTG,163.6,T,,M,2.2,N,4.0,K,D*0E
$GPRMC,230213.64,A,5649.88485,N,13221.90102,W,2.2,154.3,200923,,,d*6D
$GPZDA,230214.0015,20,09,2023,,*6C
$GPGGA,230214.639,5649.88428,N,13221.90069,W,2,17,1.5,1.40,M,,,4,0135*15
$GPHDT,154.4,T*31
$GPVTG,160.4,T,,M,2.1,N,3.9,K,D*02
$GPRMC,230214.64,A,5649.88428,N,13221.90069,W,2.1,154.4,200923,,,d*65
$PADCP,4,20230920,230215.24,0.36
$GPZDA,230215.0015,20,09,2023,,*6D
$GPGGA,230215.639,5649.88376,N,13221.90034,W,2,17,1.5,1.34,M,,,5,0135*12
$GPHDT,154.6,T*33
$GPVTG,159.7,T,,M,1.9,N,3.5,K,D*0C
$GPRMC,230215.64,A,5649.88376,N,13221.90034,W,1.9,154.6,200923,,,d*69
$GPZDA,230216.0016,20,09,2023,,*6D
$PADCP,5,20230920,230216.47,0.36
$GPGGA,230216.639,5649.88327,N,13221.90003,W,2,17,1.5,1.27,M,,,6,0135*10
$GPHDT,154.3,T*36
$GPVTG,162.3,T,,M,1.9,N,3.5,K,D*00
$GPRMC,230216.64,A,5649.88327,N,13221.90003,W,1.9,154.3,200923,,,d*6F
$GPZDA,230217.0016,20,09,2023,,*6C
$PADCP,6,20230920,230217.69,0.36
$GPGGA,230217.639,5649.88276,N,13221.89973,W,2,17,1.5,1.26,M,,,7,0135*12
$GPHDT,154.0,T*35
$GPVTG,160.7,T,,M,1.9,N,3.6,K,D*05
$GPRMC,230217.64,A,5649.88276,N,13221.89973,W,1.9,154.0,200923,,,d*6E
$GPZDA,230218.0016,20,09,2023,,*63
$PADCP,7,20230920,230218.92,0.36
$GPGGA,230218.639,5649.88224,N,13221.89940,W,2,17,1.5,1.29,M,,,7,0135*15
$GPHDT,153.7,T*35
$GPVTG,160.0,T,,M,2.1,N,3.8,K,D*07
$GPRMC,230218.64,A,5649.88224,N,13221.89940,W,2.1,153.7,200923,,,d*6D
$GPZDA,230219.0016,20,09,2023,,*62
$GPGGA,230219.639,5649.88171,N,13221.89905,W,2,17,1.5,1.39,M,,,7,0135*17
$GPHDT,153.6,T*34
$GPVTG,162.5,T,,M,2.0,N,3.8,K,D*01
$PADCP,8,20230920,230220.14,0.36
$GPRMC,230219.64,A,5649.88171,N,13221.89905,W,2.0,153.6,200923,,,d*6E
$GPZDA,230220.0016,20,09,2023,,*68
$GPGGA,230220.639,5649.88117,N,13221.89875,W,2,17,1.5,1.44,M,,,4,0135*12
$GPHDT,153.4,T*36
$GPVTG,163.2,T,,M,2.0,N,3.8,K,D*07
$GPRMC,230220.64,A,5649.88117,N,13221.89875,W,2.0,153.4,200923,,,d*60
$PADCP,9,20230920,230221.37,0.36
$GPZDA,230221.0016,20,09,2023,,*69
$GPGGA,230221.639,5649.88061,N,13221.89844,W,2,17,1.5,1.44,M,,,5,0135*10
$GPHDT,153.4,T*36
$GPVTG,163.4,T,,M,2.1,N,3.9,K,D*01
$GPRMC,230221.64,A,5649.88061,N,13221.89844,W,2.1,153.4,200923,,,d*62
$GPZDA,230222.0016,20,09,2023,,*6A
$PADCP,10,20230920,230222.59,0.36
$GPGGA,230222.639,5649.88006,N,13221.89807,W,2,17,1.5,1.37,M,,,6,0135*12
$GPHDT,153.0,T*32
$GPVTG,158.2,T,,M,2.1,N,3.9,K,D*0F
$GPRMC,230222.64,A,5649.88006,N,13221.89807,W,2.1,153.0,200923,,,d*63
$GPZDA,230223.0016,20,09,2023,,*6B
$PADCP,11,20230920,230224.02,0.36
$GPGGA,230223.639,5649.87952,N,13221.89769,W,2,17,1.5,1.30,M,,,7,0135*15
$GPHDT,152.9,T*3A
$GPVTG,157.3,T,,M,2.0,N,3.8,K,D*01
$GPRMC,230223.64,A,5649.87952,N,13221.89769,W,2.0,152.9,200923,,,d*6B
$GPZDA,230224.0016,20,09,2023,,*6C
$GPGGA,230224.639,5649.87903,N,13221.89729,W,2,17,1.5,1.36,M,,,7,0135*14
$GPHDT,152.5,T*36
$GPVTG,158.5,T,,M,1.9,N,3.6,K,D*0C
$GPRMC,230224.64,A,5649.87903,N,13221.89729,W,1.9,152.5,200923,,,d*6A
$PADCP,12,20230920,230225.25,0.36
$GPZDA,230225.0016,20,09,2023,,*6D
$GPGGA,230225.639,5649.87852,N,13221.89694,W,2,17,1.5,1.45,M,,,7,0135*13
$GPHDT,152.3,T*30
$GPVTG,161.1,T,,M,2.0,N,3.7,K,D*09
$GPRMC,230225.64,A,5649.87852,N,13221.89694,W,2.0,152.3,200923,,,d*65
$GPZDA,230226.0016,20,09,2023,,*6E
$PADCP,13,20230920,230226.47,0.36
$GPGGA,230226.639,5649.87797,N,13221.89661,W,2,17,1.5,1.42,M,,,4,0135*18
$GPHDT,152.1,T*32
$GPVTG,160.9,T,,M,2.1,N,3.8,K,D*0E
$GPRMC,230226.64,A,5649.87797,N,13221.89661,W,2.1,152.1,200923,,,d*69
$GPZDA,230227.0017,20,09,2023,,*6E
$PADCP,14,20230920,230227.69,0.36
$GPGGA,230227.639,5649.87745,N,13221.89618,W,2,17,1.5,1.36,M,,,5,0135*1A
$GPHDT,151.4,T*34
$GPVTG,154.4,T,,M,2.1,N,3.9,K,D*05
$GPRMC,230227.64,A,5649.87745,N,13221.89618,W,2.1,151.4,200923,,,d*6F
$GPZDA,230228.0017,20,09,2023,,*61
$PADCP,15,20230920,230228.92,0.36
$GPGGA,230228.639,5649.87692,N,13221.89574,W,2,17,1.5,1.35,M,,,6,0135*17
$GPHDT,151.8,T*38
$GPVTG,155.9,T,,M,2.1,N,3.8,K,D*08
$GPRMC,230228.64,A,5649.87692,N,13221.89574,W,2.1,151.8,200923,,,d*6E
$GPZDA,230229.0017,20,09,2023,,*60
$GPGGA,230229.639,5649.87639,N,13221.89534,W,2,17,1.5,1.30,M,,,7,0135*17
$GPHDT,152.3,T*30
$GPVTG,159.8,T,,M,2.0,N,3.8,K,D*04
$PADCP,16,20230920,230230.14,0.36
$GPRMC,230229.64,A,5649.87639,N,13221.89534,W,2.0,152.3,200923,,,d*63
$GPZDA,230230.0017,20,09,2023,,*68
$GPGGA,230230.639,5649.87587,N,13221.89493,W,2,17,1.5,1.26,M,,,7,0135*12
$GPHDT,154.1,T*34
$GPVTG,154.0,T,,M,2.1,N,3.8,K,D*00
$GPRMC,230230.64,A,5649.87587,N,13221.89493,W,2.1,154.1,200923,,,d*64
$PADCP,17,20230920,230231.37,0.36
$GPZDA,230231.0017,20,09,2023,,*69
$GPGGA,230231.639,5649.87535,N,13221.89449,W,2,17,1.5,1.26,M,,,7,0135*1D
$GPHDT,156.0,T*37
$GPVTG,158.4,T,,M,2.1,N,3.8,K,D*08
$GPRMC,230231.64,A,5649.87535,N,13221.89449,W,2.1,156.0,200923,,,d*68
$GPZDA,230232.0017,20,09,2023,,*6A
$PADCP,18,20230920,230232.59,0.36
$GPGGA,230232.639,5649.87483,N,13221.89410,W,2,17,1.5,1.26,M,,,4,0135*1D
$GPHDT,157.8,T*3E
$GPVTG,157.7,T,,M,2.0,N,3.8,K,D*05
$GPRMC,230232.64,A,5649.87483,N,13221.89410,W,2.0,157.8,200923,,,d*63
$GPZDA,230233.0017,20,09,2023,,*6B
$PADCP,19,20230920,230233.82,0.36
$GPGGA,230233.639,5649.87429,N,13221.89368,W,2,17,1.5,1.35,M,,,5,0135*17
$GPHDT,158.5,T*3C
$GPVTG,160.2,T,,M,2.2,N,4.0,K,D*09
$GPRMC,230233.64,A,5649.87429,N,13221.89368,W,2.2,158.5,200923,,,d*6A
$GPZDA,230234.0017,20,09,2023,,*6C
$GPGGA,230234.639,5649.87373,N,13221.89336,W,2,17,1.5,1.46,M,,,6,0135*14
$GPHDT,158.5,T*3C
$GPVTG,165.7,T,,M,2.1,N,3.8,K,D*05
$GPRMC,230234.64,A,5649.87373,N,13221.89336,W,2.1,158.5,200923,,,d*6D
$PADCP,20,20230920,230235.25,0.36
$GPZDA,230235.0017,20,09,2023,,*6D
$GPGGA,230235.639,5649.87317,N,13221.89312,W,2,17,1.5,1.53,M,,,7,0135*14
$GPHDT,157.9,T*3F
$GPVTG,169.4,T,,M,2.1,N,3.9,K,D*0B
$GPRMC,230235.64,A,5649.87317,N,13221.89312,W,2.1,157.9,200923,,,d*6B
$GPZDA,230236.0017,20,09,2023,,*6E
$PADCP,21,20230920,230236.47,0.36
$GPGGA,230236.639,5649.87262,N,13221.89293,W,2,17,1.5,1.44,M,,,7,0135*1A
$GPHDT,156.3,T*34
$GPVTG,168.8,T,,M,2.0,N,3.8,K,D*06
$GPRMC,230236.64,A,5649.87262,N,13221.89293,W,2.0,156.3,200923,,,d*69
$GPZDA,230237.0018,20,09,2023,,*60
$PADCP,22,20230920,230237.69,0.36
$GPGGA,230237.639,5649.87208,N,13221.89264,W,2,17,1.5,1.42,M,,,7,0135*19
$GPHDT,154.8,T*3D
$GPVTG,160.1,T,,M,2.0,N,3.8,K,D*07
$GPRMC,230237.64,A,5649.87208,N,13221.89264,W,2.0,154.8,200923,,,d*65
$GPZDA,230238.0018,20,09,2023,,*6F
$PADCP,23,20230920,230238.92,0.36
$GPGGA,230238.639,5649.87154,N,13221.89231,W,2,17,1.5,1.46,M,,,4,0135*1B
$GPHDT,153.6,T*34
$GPVTG,163.5,T,,M,2.1,N,3.9,K,D*00
$GPRMC,230238.64,A,5649.87154,N,13221.89231,W,2.1,153.6,200923,,,d*68
$GPZDA,230239.0018,20,09,2023,,*6E
$GPGGA,230239.639,5649.87097,N,13221.89203,W,2,17,1.5,1.44,M,,,5,0135*16
$GPHDT,152.8,T*3B
$GPVTG,164.8,T,,M,2.1,N,4.0,K,D*04
$PADCP,24,20230920,230240.14,0.36
$GPRMC,230239.64,A,5649.87097,N,13221.89203,W,2.1,152.8,200923,,,d*69
$GPZDA,230240.0018,20,09,2023,,*60
$GPGGA,230240.639,5649.87043,N,13221.89172,W,2,17,1.5,1.45,M,,,6,0135*16
$GPHDT,152.9,T*3A
$GPVTG,162.2,T,,M,2.0,N,3.6,K,D*08
$GPRMC,230240.64,A,5649.87043,N,13221.89172,W,2.0,152.9,200923,,,d*6B
$PADCP,25,20230920,230241.37,0.36
$GPZDA,230241.0018,20,09,2023,,*61
$GPGGA,230241.639,5649.86990,N,13221.89140,W,2,17,1.5,1.46,M,,,7,0135*12
$GPHDT,152.9,T*3A
$GPVTG,162.8,T,,M,2.0,N,3.7,K,D*03
$GPRMC,230241.64,A,5649.86990,N,13221.89140,W,2.0,152.9,200923,,,d*6D
$GPZDA,230242.0018,20,09,2023,,*62
$PADCP,26,20230920,230242.59,0.36
$GPGGA,230242.639,5649.86937,N,13221.89109,W,2,17,1.5,1.48,M,,,7,0135*1F
$GPHDT,152.9,T*3A
$GPVTG,163.2,T,,M,2.0,N,3.8,K,D*07
$GPRMC,230242.64,A,5649.86937,N,13221.89109,W,2.0,152.9,200923,,,d*6E
$GPZDA,230243.0018,20,09,2023,,*63
$PADCP,27,20230920,230243.82,0.36
$GPGGA,230243.639,5649.86884,N,13221.89079,W,2,17,1.5,1.42,M,,,7,0135*1B
$GPHDT,153.4,T*36
$GPVTG,162.9,T,,M,2.0,N,3.8,K,D*0D
$GPRMC,230243.64,A,5649.86884,N,13221.89079,W,2.0,153.4,200923,,,d*6C
$GPZDA,230244.0018,20,09,2023,,*64
$PADCP,28,20230920,230245.05,0.36
$GPGGA,230244.639,5649.86831,N,13221.89046,W,2,17,1.5,1.31,M,,,4,0135*19
$GPHDT,154.3,T*36
$GPVTG,160.4,T,,M,1.9,N,3.6,K,D*06
$GPRMC,230244.64,A,5649.86831,N,13221.89046,W,1.9,154.3,200923,,,d*63
$GPZDA,230245.0018,20,09,2023,,*65
$GPGGA,230245.639,5649.86780,N,13221.89014,W,2,17,1.5,1.24,M,,,5,0135*1F
$GPHDT,154.6,T*33
$GPVTG,163.9,T,,M,2.0,N,3.7,K,D*03
$GPRMC,230245.64,A,5649.86780,N,13221.89014,W,2.0,154.6,200923,,,d*6F
$GPZDA,230246.0018,20,09,2023,,*66
$PADCP,29,20230920,230246.47,0.36
$GPGGA,230246.639,5649.86728,N,13221.88990,W,2,17,1.5,1.32,M,,,6,0135*1E
$GPHDT,154.4,T*31
$GPVTG,169.6,T,,M,2.0,N,3.7,K,D*06
$GPRMC,230246.64,A,5649.86728,N,13221.88990,W,2.0,154.4,200923,,,d*68
$GPZDA,230247.0019,20,09,2023,,*66
$PADCP,30,20230920,230247.70,0.36
$GPGGA,230247.639,5649.86674,N,13221.88970,W,2,17,1.5,1.39,M,,,7,0135*13
$GPHDT,153.8,T*3A
$GPVTG,168.4,T,,M,2.1,N,3.9,K,D*0A
$GPRMC,230247.64,A,5649.86674,N,13221.88970,W,2.1,153.8,200923,,,d*65
$GPZDA,230248.0019,20,09,2023,,*69
$PADCP,31,20230920,230248.92,0.36
$GPGGA,230248.639,5649.86617,N,13221.88948,W,2,17,1.5,1.46,M,,,7,0135*1A
$GPHDT,153.7,T*35
$GPVTG,167.4,T,,M,2.1,N,3.9,K,D*05
$GPRMC,230248.64,A,5649.86617,N,13221.88948,W,2.1,153.7,200923,,,d*6B
$GPZDA,230249.0019,20,09,2023,,*68
$GPGGA,230249.639,5649.86561,N,13221.88919,W,2,17,1.5,1.45,M,,,7,0135*1E
$GPHDT,153.5,T*37
$GPVTG,160.3,T,,M,2.1,N,4.0,K,D*0B
$PADCP,32,20230920,230250.15,0.36
$GPRMC,230249.64,A,5649.86561,N,13221.88919,W,2.1,153.5,200923,,,d*6E
$GPZDA,230250.0019,20,09,2023,,*60
$GPGGA,230250.639,5649.86505,N,13221.88878,W,2,17,1.5,1.54,M,,,4,0135*11
$GPHDT,152.1,T*32
$GPVTG,160.0,T,,M,2.2,N,4.1,K,D*0A
$GPRMC,230250.64,A,5649.86505,N,13221.88878,W,2.2,152.1,200923,,,d*64
$PADCP,33,20230920,230251.37,0.36
$GPZDA,230251.0019,20,09,2023,,*61
$GPGGA,230251.639,5649.86447,N,13221.88849,W,2,17,1.5,1.56,M,,,5,0135*16
$GPHDT,150.8,T*39
$GPVTG,168.5,T,,M,2.2,N,4.0,K,D*06
$GPRMC,230251.64,A,5649.86447,N,13221.88849,W,2.2,150.8,200923,,,d*6B
$GPZDA,230252.0019,20,09,2023,,*62
$PADCP,34,20230920,230252.60,0.36
$GPGGA,230252.639,5649.86392,N,13221.88824,W,2,17,1.5,1.42,M,,,6,0135*17
$GPHDT,150.1,T*30
$GPVTG,164.9,T,,M,2.0,N,3.7,K,D*04
$GPRMC,230252.64,A,5649.86392,N,13221.88824,W,2.0,150.1,200923,,,d*67
$GPZDA,230253.0019,20,09,2023,,*63
$PADCP,35,20230920,230253.82,0.36
$GPGGA,230253.639,5649.86342,N,13221.88794,W,2,17,1.5,1.38,M,,,7,0135*13
$GPHDT,149.2,T*3B
$GPVTG,160.3,T,,M,1.8,N,3.4,K,D*02
$GPRMC,230253.64,A,5649.86342,N,13221.88794,W,1.8,149.2,200923,,,d*6F
$GPZDA,230254.0019,20,09,2023,,*64
$PADCP,36,20230920,230255.05,0.36
$GPGGA,230254.639,5649.86293,N,13221.88764,W,2,17,1.5,1.44,M,,,7,0135*1D
$GPHDT,148.4,T*3C
$GPVTG,162.2,T,,M,2.0,N,3.7,K,D*09
$GPRMC,230254.64,A,5649.86293,N,13221.88764,W,2.0,148.4,200923,,,d*66
$GPZDA,230255.0019,20,09,2023,,*65
$GPGGA,230255.639,5649.86239,N,13221.88733,W,2,17,1.5,1.47,M,,,7,0135*1D
$GPHDT,147.5,T*32
$GPVTG,161.5,T,,M,2.1,N,3.8,K,D*03
$GPRMC,230255.64,A,5649.86239,N,13221.88733,W,2.1,147.5,200923,,,d*6A
$PADCP,37,20230920,230256.27,0.36
$GPZDA,230256.0019,20,09,2023,,*66
$GPGGA,230256.639,5649.86184,N,13221.88699,W,2,17,1.5,1.42,M,,,4,0135*1C
$GPHDT,147.5,T*32
$GPVTG,162.0,T,,M,2.1,N,3.9,K,D*04
$GPRMC,230256.64,A,5649.86184,N,13221.88699,W,2.1,147.5,200923,,,d*6D
$GPZDA,230257.0019,20,09,2023,,*67
$PADCP,38,20230920,230257.70,0.36
$GPGGA,230257.639,5649.86131,N,13221.88664,W,2,17,1.5,1.35,M,,,5,0135*10
$GPHDT,147.3,T*34
$GPVTG,158.0,T,,M,2.0,N,3.6,K,D*03
$GPRMC,230257.64,A,5649.86131,N,13221.88664,W,2.0,147.3,200923,,,d*67
$GPZDA,230258.0020,20,09,2023,,*62
$PADCP,39,20230920,230258.92,0.36
$GPGGA,230258.639,5649.86083,N,13221.88627,W,2,17,1.5,1.35,M,,,6,0135*13
$GPHDT,146.9,T*3F
$GPVTG,159.0,T,,M,1.9,N,3.6,K,D*08
$GPRMC,230258.64,A,5649.86083,N,13221.88627,W,1.9,146.9,200923,,,d*66
$GPZDA,230259.0020,20,09,2023,,*63
$GPGGA,230259.639,5649.86032,N,13221.88595,W,2,17,1.5,1.40,M,,,7,0135*11
$GPHDT,146.5,T*33
$GPVTG,162.8,T,,M,1.9,N,3.5,K,D*0B
$PADCP,40,20230920,230300.15,0.36
$GPRMC,230259.64,A,5649.86032,N,13221.88595,W,1.9,146.5,200923,,,d*6B
$GPZDA,230300.0020,20,09,2023,,*6E
$GPGGA,230300.639,5649.85983,N,13221.88563,W,2,17,1.5,1.45,M,,,7,0135*10
$GPHDT,146.2,T*34
$GPVTG,159.0,T,,M,2.0,N,3.6,K,D*02
$GPRMC,230300.64,A,5649.85983,N,13221.88563,W,2.0,146.2,200923,,,d*62
$PADCP,41,20230920,230301.37,0.36
$GPZDA,230301.0020,20,09,2023,,*6F
$GPGGA,230301.639,5649.85932,N,13221.88525,W,2,17,1.5,1.58,M,,,7,0135*15
$GPHDT,145.2,T*37
$GPVTG,158.6,T,,M,2.0,N,3.7,K,D*04
$GPRMC,230301.64,A,5649.85932,N,13221.88525,W,2.0,145.2,200923,,,d*68
$GPZDA,230302.0020,20,09,2023,,*6C
$PADCP,42,20230920,230302.60,0.36
$GPGGA,230302.639,5649.85877,N,13221.88489,W,2,17,1.5,1.64,M,,,4,0135*1D
$GPHDT,144.1,T*35
$GPVTG,160.6,T,,M,2.2,N,4.2,K,D*0F
$GPRMC,230302.64,A,5649.85877,N,13221.88489,W,2.2,144.1,200923,,,d*6C
$GPZDA,230303.0020,20,09,2023,,*6D
$PADCP,43,20230920,230303.83,0.36
$GPGGA,230303.639,5649.85819,N,13221.88444,W,2,17,1.5,1.59,M,,,5,0135*1A
$GPHDT,144.0,T*34
$GPVTG,155.6,T,,M,2.2,N,4.0,K,D*0B
$GPRMC,230303.64,A,5649.85819,N,13221.88444,W,2.2,144.0,200923,,,d*65
$GPZDA,230304.0020,20,09,2023,,*6A
$PADCP,44,20230920,230305.05,0.36
$GPGGA,230304.639,5649.85770,N,13221.88398,W,2,17,1.5,1.44,M,,,6,0135*14
$GPHDT,144.2,T*36
$GPVTG,150.2,T,,M,1.9,N,3.5,K,D*00
$GPRMC,230304.64,A,5649.85770,N,13221.88398,W,1.9,144.2,200923,,,d*6E
$GPZDA,230305.0020,20,09,2023,,*6B
$GPGGA,230305.639,5649.85726,N,13221.88347,W,2,17,1.5,1.40,M,,,7,0135*11
$GPHDT,145.5,T*30
$GPVTG,147.8,T,,M,1.9,N,3.5,K,D*0C
$GPRMC,230305.64,A,5649.85726,N,13221.88347,W,1.9,145.5,200923,,,d*68
$PADCP,45,20230920,230306.27,0.36
$GPZDA,230306.0020,20,09,2023,,*68
$GPGGA,230306.639,5649.85678,N,13221.88302,W,2,17,1.5,1.44,M,,,7,0135*1D
$GPHDT,146.7,T*31
$GPVTG,156.3,T,,M,2.0,N,3.7,K,D*0F
$GPRMC,230306.64,A,5649.85678,N,13221.88302,W,2.0,146.7,200923,,,d*6B
$GPZDA,230307.0020,20,09,2023,,*69
$PADCP,46,20230920,230307.50,0.36
$GPGGA,230307.639,5649.85624,N,13221.88257,W,2,17,1.5,1.41,M,,,7,0135*11
$GPHDT,148.4,T*3C
$GPVTG,154.1,T,,M,2.2,N,4.0,K,D*0D
$GPRMC,230307.64,A,5649.85624,N,13221.88257,W,2.2,148.4,200923,,,d*6D
$GPZDA,230308.0021,20,09,2023,,*67
$PADCP,47,20230920,230308.93,0.36
$GPGGA,230308.639,5649.85572,N,13221.88212,W,2,17,1.5,1.46,M,,,4,0135*1B
$GPHDT,150.2,T*33
$GPVTG,156.5,T,,M,2.0,N,3.7,K,D*09
$GPRMC,230308.64,A,5649.85572,N,13221.88212,W,2.0,150.2,200923,,,d*6E
$GPZDA,230309.0021,20,09,2023,,*66
$GPGGA,230309.639,5649.85519,N,13221.88174,W,2,17,1.5,1.42,M,,,5,0135*11
$GPHDT,150.9,T*38
$GPVTG,159.3,T,,M,2.1,N,3.9,K,D*0F
$PADCP,48,20230920,230310.15,0.36
$GPRMC,230309.64,A,5649.85519,N,13221.88174,W,2.1,150.9,200923,,,d*6B
$GPZDA,230310.0021,20,09,2023,,*6E
$GPGGA,230310.639,5649.85466,N,13221.88135,W,2,17,1.5,1.45,M,,,6,0135*11
$GPHDT,151.1,T*31
$GPVTG,157.8,T,,M,2.0,N,3.7,K,D*05
$GPRMC,230310.64,A,5649.85466,N,13221.88135,W,2.0,151.1,200923,,,d*67
$PADCP,49,20230920,230311.38,0.36
$GPZDA,230311.0021,20,09,2023,,*6F
$GPGGA,230311.639,5649.85415,N,13221.88102,W,2,17,1.5,1.42,M,,,7,0135*16
$GPHDT,150.5,T*34
$GPVTG,160.4,T,,M,1.9,N,3.5,K,D*05
$GPRMC,230311.64,A,5649.85415,N,13221.88102,W,1.9,150.5,200923,,,d*69
$GPZDA,230312.0021,20,09,2023,,*6C
$PADCP,50,20230920,230312.60,0.36
$GPGGA,230312.639,5649.85367,N,13221.88068,W,2,17,1.5,1.47,M,,,7,0135*1F
$GPHDT,150.2,T*33
$GPVTG,157.6,T,,M,1.9,N,3.4,K,D*02
$GPRMC,230312.64,A,5649.85367,N,13221.88068,W,1.9,150.2,200923,,,d*62
$GPZDA,230313.0021,20,09,2023,,*6D
$PADCP,51,20230920,230313.83,0.36
$GPGGA,230313.639,5649.85316,N,13221.88033,W,2,17,1.5,1.54,M,,,7,0135*14
$GPHDT,149.2,T*3B
$GPVTG,160.0,T,,M,2.0,N,3.8,K,D*06
$GPRMC,230313.64,A,5649.85316,N,13221.88033,W,2.0,149.2,200923,,,d*69
$GPZDA,230314.0021,20,09,2023,,*6A
$PADCP,52,20230920,230315.05,0.36
$GPGGA,230314.639,5649.85260,N,13221.88000,W,2,17,1.5,1.60,M,,,4,0135*17
$GPHDT,148.0,T*38
$GPVTG,161.8,T,,M,2.3,N,4.3,K,D*00
$GPRMC,230314.64,A,5649.85260,N,13221.88000,W,2.3,148.0,200923,,,d*6E
$GPZDA,230315.0021,20,09,2023,,*6B
$GPGGA,230315.639,5649.85198,N,13221.87963,W,2,17,1.5,1.54,M,,,5,0135*17
$GPHDT,147.9,T*3E
$GPVTG,160.6,T,,M,2.2,N,4.1,K,D*0C
$GPRMC,230315.64,A,5649.85198,N,13221.87963,W,2.2,147.9,200923,,,d*6F
$PADCP,53,20230920,230316.28,0.36
$GPZDA,230316.0021,20,09,2023,,*68
$GPGGA,230316.639,5649.85145,N,13221.87926,W,2,17,1.5,1.42,M,,,6,0135*11
$GPHDT,148.3,T*3B
$GPVTG,156.4,T,,M,2.0,N,3.7,K,D*08
$GPRMC,230316.64,A,5649.85145,N,13221.87926,W,2.0,148.3,200923,,,d*6A
$GPZDA,230317.0021,20,09,2023,,*69
$PADCP,54,20230920,230317.50,0.36
$GPGGA,230317.639,5649.85095,N,13221.87886,W,2,17,1.5,1.46,M,,,7,0135*12
$GPHDT,147.7,T*30
$GPVTG,158.0,T,,M,1.9,N,3.5,K,D*0A
$GPRMC,230317.64,A,5649.85095,N,13221.87886,W,1.9,147.7,200923,,,d*6D
$GPZDA,230318.0022,20,09,2023,,*65
$PADCP,55,20230920,230318.73,0.36
$GPGGA,230318.639,5649.85043,N,13221.87855,W,2,17,1.5,1.48,M,,,7,0135*16
$GPHDT,147.2,T*35
$GPVTG,163.5,T,,M,2.0,N,3.7,K,D*0F
$GPRMC,230318.64,A,5649.85043,N,13221.87855,W,2.0,147.2,200923,,,d*68
$GPZDA,230319.0022,20,09,2023,,*64
$GPGGA,230319.639,5649.84993,N,13221.87823,W,2,17,1.5,1.41,M,,,7,0135*1A
$GPHDT,147.3,T*34
$GPVTG,157.1,T,,M,1.9,N,3.5,K,D*04
$PADCP,56,20230920,230320.15,0.36
$GPRMC,230319.64,A,5649.84993,N,13221.87823,W,1.9,147.3,200923,,,d*66
$GPZDA,230320.0022,20,09,2023,,*6E
$GPGGA,230320.639,5649.84945,N,13221.87782,W,2,17,1.5,1.42,M,,,4,0135*1F
$GPHDT,147.6,T*31
$GPVTG,154.2,T,,M,1.9,N,3.6,K,D*07
$GPRMC,230320.64,A,5649.84945,N,13221.87782,W,1.9,147.6,200923,,,d*66
$PADCP,57,20230920,230321.38,0.36
$GPZDA,230321.0022,20,09,2023,,*6F
$GPGGA,230321.639,5649.84895,N,13221.87743,W,2,17,1.5,1.53,M,,,5,0135*1E
$GPHDT,147.2,T*35
$GPVTG,157.0,T,,M,2.1,N,3.9,K,D*02
$GPRMC,230321.64,A,5649.84895,N,13221.87743,W,2.1,147.2,200923,,,d*69
$GPZDA,230322.0022,20,09,2023,,*6C
$PADCP,58,20230920,230322.60,0.36
$GPGGA,230322.639,5649.84839,N,13221.87700,W,2,17,1.5,1.54,M,,,6,0135*18
$GPHDT,147.3,T*34
$GPVTG,157.4,T,,M,2.2,N,4.1,K,D*0A
$GPRMC,230322.64,A,5649.84839,N,13221.87700,W,2.2,147.3,200923,,,d*69
$GPZDA,230323.0022,20,09,2023,,*6D
$PADCP,59,20230920,230323.83,0.36
$GPGGA,230323.639,5649.84785,N,13221.87656,W,2,17,1.5,1.53,M,,,7,0135*15
$GPHDT,148.2,T*3A
$GPVTG,153.8,T,,M,2.1,N,3.8,K,D*0F
$GPRMC,230323.64,A,5649.84785,N,13221.87656,W,2.1,148.2,200923,,,d*6F
$GPZDA,230324.0022,20,09,2023,,*6A
$PADCP,60,20230920,230325.05,0.36
$GPGGA,230324.639,5649.84734,N,13221.87615,W,2,17,1.5,1.55,M,,,7,0135*19
$GPHDT,148.6,T*3E
$GPVTG,157.5,T,,M,2.0,N,3.7,K,D*08
$GPRMC,230324.64,A,5649.84734,N,13221.87615,W,2.0,148.6,200923,,,d*60
$GPZDA,230325.0022,20,09,2023,,*6B
$GPGGA,230325.639,5649.84679,N,13221.87574,W,2,17,1.5,1.53,M,,,7,0135*12
$GPHDT,149.2,T*3B
$GPVTG,157.2,T,,M,2.2,N,4.2,K,D*0F
$GPRMC,230325.64,A,5649.84679,N,13221.87574,W,2.2,149.2,200923,,,d*6A
$PADCP,61,20230920,230326.28,0.36
$GPZDA,230326.0022,20,09,2023,,*68
$GPGGA,230326.639,5649.84624,N,13221.87531,W,2,17,1.5,1.50,M,,,4,0135*18
$GPHDT,149.7,T*3E
$GPVTG,155.8,T,,M,2.1,N,3.9,K,D*08
$GPRMC,230326.64,A,5649.84624,N,13221.87531,W,2.1,149.7,200923,,,d*66
$GPZDA,230327.0022,20,09,2023,,*69
$PADCP,62,20230920,230327.50,0.36
$GPGGA,230327.639,5649.84572,N,13221.87487,W,2,17,1.5,1.44,M,,,5,0135*11
$GPHDT,151.3,T*33
$GPVTG,153.9,T,,M,2.0,N,3.7,K,D*00
$GPRMC,230327.64,A,5649.84572,N,13221.87487,W,2.0,151.3,200923,,,d*67
$GPZDA,230328.0022,20,09,2023,,*66
$PADCP,63,20230920,230328.73,0.36
$GPGGA,230328.639,5649.84522,N,13221.87445,W,2,17,1.5,1.42,M,,,6,0135*10
$GPHDT,152.5,T*36
$GPVTG,158.8,T,,M,2.1,N,3.8,K,D*04
$GPRMC,230328.64,A,5649.84522,N,13221.87445,W,2.1,152.5,200923,,,d*67
$GPZDA,230329.0023,20,09,2023,,*66
$PADCP,64,20230920,230329.95,0.36
$GPGGA,230329.639,5649.84467,N,13221.87414,W,2,17,1.5,1.40,M,,,7,0135*16
$GPHDT,153.2,T*30
$GPVTG,163.3,T,,M,2.1,N,3.8,K,D*07
$GPRMC,230329.64,A,5649.84467,N,13221.87414,W,2.1,153.2,200923,,,d*64
$GPZDA,230330.0023,20,09,2023,,*6E
$GPGGA,230330.639,5649.84414,N,13221.87387,W,2,17,1.5,1.38,M,,,7,0135*18
$GPHDT,154.1,T*34
$GPVTG,166.5,T,,M,1.9,N,3.5,K,D*02
$GPRMC,230330.64,A,5649.84414,N,13221.87387,W,1.9,154.1,200923,,,d*6A
$PADCP,65,20230920,230331.38,0.36
$GPZDA,230331.0023,20,09,2023,,*6F
$GPGGA,230331.639,5649.84364,N,13221.87365,W,2,17,1.5,1.33,M,,,7,0135*1E
$GPHDT,154.2,T*37
$GPVTG,163.5,T,,M,1.9,N,3.6,K,D*04
$GPRMC,230331.64,A,5649.84364,N,13221.87365,W,1.9,154.2,200923,,,d*64
$GPZDA,230332.0023,20,09,2023,,*6C
$PADCP,66,20230920,230332.61,0.36
$GPGGA,230332.639,5649.84311,N,13221.87329,W,2,17,1.5,1.46,M,,,4,0135*16
$GPHDT,153.2,T*30
$GPVTG,161.3,T,,M,2.1,N,3.9,K,D*04
$GPRMC,230332.64,A,5649.84311,N,13221.87329,W,2.1,153.2,200923,,,d*61
$GPZDA,230333.0023,20,09,2023,,*6D
$PADCP,67,20230920,230333.84,0.36
$GPGGA,230333.639,5649.84254,N,13221.87300,W,2,17,1.5,1.47,M,,,5,0135*1C
$GPHDT,151.9,T*39
$GPVTG,163.1,T,,M,2.2,N,4.0,K,D*09
$GPRMC,230333.64,A,5649.84254,N,13221.87300,W,2.2,151.9,200923,,,d*61
$GPZDA,230334.0023,20,09,2023,,*6A
$PADCP,68,20230920,230335.06,0.36
$GPGGA,230334.639,5649.84199,N,13221.87262,W,2,17,1.5,1.50,M,,,6,0135*19
$GPHDT,151.6,T*36
$GPVTG,156.4,T,,M,2.0,N,3.8,K,D*07
$GPRMC,230334.64,A,5649.84199,N,13221.87262,W,2.0,151.6,200923,,,d*6C
$GPZDA,230335.0023,20,09,2023,,*6B
$GPGGA,230335.639,5649.84148,N,13221.87228,W,2,17,1.5,1.51,M,,,7,0135*1A
$GPHDT,151.2,T*32
$GPVTG,162.3,T,,M,2.0,N,3.7,K,D*08
$GPRMC,230335.64,A,5649.84148,N,13221.87228,W,2.0,151.2,200923,,,d*6B
$PADCP,69,20230920,230336.28,0.36
$GPZDA,230336.0023,20,09,2023,,*68
$GPGGA,230336.639,5649.84094,N,13221.87195,W,2,17,1.5,1.52,M,,,7,0135*1F
$GPHDT,151.0,T*30
$GPVTG,162.3,T,,M,2.1,N,3.9,K,D*07
$GPRMC,230336.64,A,5649.84094,N,13221.87195,W,2.1,151.0,200923,,,d*6E
$GPZDA,230337.0023,20,09,2023,,*69
$PADCP,70,20230920,230337.50,0.36
$GPGGA,230337.639,5649.84039,N,13221.87161,W,2,17,1.5,1.45,M,,,7,0135*14
$GPHDT,151.5,T*35
$GPVTG,158.9,T,,M,2.1,N,3.9,K,D*04
$GPRMC,230337.64,A,5649.84039,N,13221.87161,W,2.1,151.5,200923,,,d*66
$GPZDA,230338.0023,20,09,2023,,*66
$PADCP,71,20230920,230338.73,0.36
$GPGGA,230338.639,5649.83985,N,13221.87120,W,2,17,1.5,1.45,M,,,4,0135*14
$GPHDT,152.4,T*37
$GPVTG,157.4,T,,M,2.0,N,3.8,K,D*06
$GPRMC,230338.64,A,5649.83985,N,13221.87120,W,2.0,152.4,200923,,,d*66
$GPZDA,230339.0024,20,09,2023,,*60
$PADCP,72,20230920,230339.95,0.36
$GPGGA,230339.639,5649.83933,N,13221.87086,W,2,17,1.5,1.41,M,,,5,0135*10
$GPHDT,153.1,T*33
$GPVTG,159.9,T,,M,2.0,N,3.8,K,D*05
$GPRMC,230339.64,A,5649.83933,N,13221.87086,W,2.0,153.1,200923,,,d*63
$GPZDA,230340.0024,20,09,2023,,*6E
$GPGGA,230340.639,5649.83879,N,13221.87049,W,2,17,1.5,1.40,M,,,6,0135*10
$GPHDT,153.5,T*37
$GPVTG,162.5,T,,M,2.1,N,3.8,K,D*00
$PADCP,73,20230920,230341.18,0.36
$GPRMC,230340.64,A,5649.83879,N,13221.87049,W,2.1,153.5,200923,,,d*64
$GPZDA,230341.0024,20,09,2023,,*6F
$GPGGA,230341.639,5649.83825,N,13221.87022,W,2,17,1.5,1.30,M,,,7,0135*13
$GPHDT,154.0,T*35
$GPVTG,165.9,T,,M,1.9,N,3.6,K,D*0E
$GPRMC,230341.64,A,5649.83825,N,13221.87022,W,1.9,154.0,200923,,,d*68
$GPZDA,230342.0024,20,09,2023,,*6C
$PADCP,74,20230920,230342.61,0.36
$GPGGA,230342.639,5649.83775,N,13221.86992,W,2,17,1.5,1.31,M,,,7,0135*18
$GPHDT,154.3,T*36
$GPVTG,162.9,T,,M,1.9,N,3.5,K,D*0A
$GPRMC,230342.64,A,5649.83775,N,13221.86992,W,1.9,154.3,200923,,,d*61
$GPZDA,230343.0024,20,09,2023,,*6D
$PADCP,75,20230920,230344.04,0.36
$GPGGA,230343.639,5649.83726,N,13221.86967,W,2,17,1.5,1.37,M,,,7,0135*13
$GPHDT,152.8,T*3B
$GPVTG,167.0,T,,M,1.9,N,3.6,K,D*05
$GPRMC,230343.64,A,5649.83726,N,13221.86967,W,1.9,152.8,200923,,,d*61
$GPZDA,230344.0024,20,09,2023,,*6A
$GPGGA,230344.640,5649.83670,N,13221.86943,W,2,17,1.5,1.47,M,,,4,0135*1A
$GPHDT,151.7,T*37
$GPVTG,166.3,T,,M,2.2,N,4.1,K,D*0F
$GPRMC,230344.64,A,5649.83670,N,13221.86943,W,2.2,151.7,200923,,,d*66
$GPZDA,230345.0024,20,09,2023,,*6B
$PADCP,76,20230920,230345.47,0.36
$GPGGA,230345.640,5649.83613,N,13221.86912,W,2,17,1.5,1.48,M,,,5,0135*14
$GPHDT,150.3,T*32
$GPVTG,162.3,T,,M,2.1,N,3.8,K,D*06
$GPRMC,230345.64,A,5649.83613,N,13221.86912,W,2.1,150.3,200923,,,d*60
$GPZDA,230346.0024,20,09,2023,,*68
$PADCP,77,20230920,230346.89,0.36
$GPGGA,230346.640,5649.83560,N,13221.86882,W,2,17,1.5,1.51,M,,,6,0135*13
$GPHDT,149.0,T*39
$GPVTG,163.4,T,,M,2.0,N,3.7,K,D*0E
$GPRMC,230346.64,A,5649.83560,N,13221.86882,W,2.0,149.0,200923,,,d*66
$GPZDA,230347.0024,20,09,2023,,*69
$GPGGA,230347.640,5649.83507,N,13221.86846,W,2,17,1.5,1.41,M,,,7,0135*1B
$GPHDT,147.9,T*3E
$GPVTG,158.5,T,,M,1.9,N,3.6,K,D*0C
$GPRMC,230347.64,A,5649.83507,N,13221.86846,W,1.9,147.9,200923,,,d*63
$PADCP,78,20230920,230348.32,0.36
$GPZDA,230348.0024,20,09,2023,,*66
$GPGGA,230348.640,5649.83459,N,13221.86812,W,2,17,1.5,1.39,M,,,7,0135*10
$GPHDT,147.4,T*33
$GPVTG,158.7,T,,M,1.9,N,3.5,K,D*0D
$GPRMC,230348.64,A,5649.83459,N,13221.86812,W,1.9,147.4,200923,,,d*6A
$GPZDA,230349.0025,20,09,2023,,*66
$PADCP,79,20230920,230349.55,0.36
$GPGGA,230349.640,5649.83410,N,13221.86776,W,2,17,1.5,1.39,M,,,7,0135*11
$GPHDT,147.3,T*34
$GPVTG,158.9,T,,M,1.9,N,3.5,K,D*03
$GPRMC,230349.64,A,5649.83410,N,13221.86776,W,1.9,147.3,200923,,,d*6C
$GPZDA,230350.0025,20,09,2023,,*6E
$PADCP,80,20230920,230350.78,0.36
$GPGGA,230350.640,5649.83361,N,13221.86738,W,2,17,1.5,1.45,M,,,4,0135*1A
$GPHDT,146.7,T*31
$GPVTG,159.4,T,,M,2.0,N,3.8,K,D*08
$GPRMC,230350.64,A,5649.83361,N,13221.86738,W,2.0,146.7,200923,,,d*60
$GPZDA,230351.0025,20,09,2023,,*6F
$PADCP,81,20230920,230352.00,0.36
$GPGGA,230351.640,5649.83307,N,13221.86701,W,2,17,1.5,1.41,M,,,5,0135*14
$GPHDT,146.3,T*35
$GPVTG,158.7,T,,M,2.0,N,3.8,K,D*0A
$GPRMC,230351.64,A,5649.83307,N,13221.86701,W,2.0,146.3,200923,,,d*6F
$GPZDA,230352.0025,20,09,2023,,*6C
$GPGGA,230352.640,5649.83257,N,13221.86658,W,2,17,1.5,1.35,M,,,6,0135*1E
$GPHDT,146.8,T*3E
$GPVTG,151.5,T,,M,2.0,N,3.7,K,D*0E
$GPRMC,230352.64,A,5649.83257,N,13221.86658,W,2.0,146.8,200923,,,d*6E
$PADCP,82,20230920,230353.22,0.36
$GPZDA,230353.0025,20,09,2023,,*6D
$GPGGA,230353.640,5649.83207,N,13221.86607,W,2,17,1.5,1.40,M,,,7,0135*13
$GPHDT,146.9,T*3F
$GPVTG,153.9,T,,M,2.0,N,3.7,K,D*00
$GPRMC,230353.64,A,5649.83207,N,13221.86607,W,2.0,146.9,200923,,,d*61
$GPZDA,230354.0025,20,09,2023,,*6A
$PADCP,83,20230920,230354.45,0.36
$GPGGA,230354.640,5649.83153,N,13221.86559,W,2,17,1.5,1.34,M,,,7,0135*1D
$GPHDT,146.5,T*33
$GPVTG,153.2,T,,M,2.2,N,4.1,K,D*08
$GPRMC,230354.64,A,5649.83153,N,13221.86559,W,2.2,146.5,200923,,,d*62
$GPZDA,230355.0025,20,09,2023,,*6B
$PADCP,84,20230920,230355.67,0.36
$GPGGA,230355.640,5649.83102,N,13221.86510,W,2,17,1.5,1.39,M,,,7,0135*18
$GPHDT,147.2,T*35
$GPVTG,154.0,T,,M,2.1,N,3.8,K,D*00
$GPRMC,230355.64,A,5649.83102,N,13221.86510,W,2.1,147.2,200923,,,d*6F
$GPZDA,230356.0025,20,09,2023,,*68
$PADCP,85,20230920,230356.89,0.36
$GPGGA,230356.640,5649.83051,N,13221.86459,W,2,17,1.5,1.38,M,,,4,0135*12
$GPHDT,147.7,T*30
$GPVTG,149.2,T,,M,2.0,N,3.7,K,D*00
$GPRMC,230356.64,A,5649.83051,N,13221.86459,W,2.0,147.7,200923,,,d*63
$GPZDA,230357.0025,20,09,2023,,*69
$GPGGA,230357.640,5649.83001,N,13221.86410,W,2,17,1.5,1.42,M,,,5,0135*17
$GPHDT,148.7,T*3F
$PADCP,86,20230920,230358.12,0.36
$GPVTG,156.3,T,,M,2.1,N,3.9,K,D*00
$GPRMC,230357.64,A,5649.83001,N,13221.86410,W,2.1,148.7,200923,,,d*64
$GPZDA,230358.0025,20,09,2023,,*66
$GPGGA,230358.640,5649.82947,N,13221.86369,W,2,17,1.5,1.40,M,,,6,0135*1A
$GPHDT,149.9,T*30
$GPVTG,159.3,T,,M,2.0,N,3.7,K,D*00
$GPRMC,230358.64,A,5649.82947,N,13221.86369,W,2.0,149.9,200923,,,d*66
$GPZDA,230359.0025,20,09,2023,,*67
$PADCP,87,20230920,230359.55,0.36
$GPGGA,230359.640,5649.82895,N,13221.86331,W,2,17,1.5,1.36,M,,,7,0135*18
$GPHDT,151.8,T*38
$GPVTG,156.5,T,,M,1.9,N,3.6,K,D*02
$GPRMC,230359.64,A,5649.82895,N,13221.86331,W,1.9,151.8,200923,,,d*66
$GPZDA,230400.0026,20,09,2023,,*6F
$PADCP,88,20230920,230400.77,0.36
$GPGGA,230400.640,5649.82842,N,13221.86288,W,2,17,1.5,1.39,M,,,7,0135*15
$GPHDT,153.4,T*36
$GPVTG,158.0,T,,M,2.2,N,4.1,K,D*01
$GPRMC,230400.64,A,5649.82842,N,13221.86288,W,2.2,153.4,200923,,,d*62
$GPZDA,230401.0026,20,09,2023,,*6E
$PADCP,89,20230920,230402.00,0.36
$GPGGA,230401.640,5649.82786,N,13221.86246,W,2,17,1.5,1.43,M,,,7,0135*1C
$GPHDT,155.3,T*37
$GPVTG,158.0,T,,M,2.2,N,4.0,K,D*00
$GPRMC,230401.64,A,5649.82786,N,13221.86246,W,2.2,155.3,200923,,,d*67
$GPZDA,230402.0026,20,09,2023,,*6D
$GPGGA,230402.640,5649.82728,N,13221.86205,W,2,17,1.5,1.39,M,,,4,0135*12
$GPHDT,157.1,T*37
$GPVTG,158.5,T,,M,2.2,N,4.1,K,D*04
$GPRMC,230402.64,A,5649.82728,N,13221.86205,W,2.2,157.1,200923,,,d*67
$PADCP,90,20230920,230403.22,0.36
$GPZDA,230403.0026,20,09,2023,,*6C
$GPGGA,230403.640,5649.82671,N,13221.86162,W,2,17,1.5,1.39,M,,,5,0135*1D
$GPHDT,158.8,T*31
$GPVTG,158.4,T,,M,2.3,N,4.3,K,D*06
$GPRMC,230403.64,A,5649.82671,N,13221.86162,W,2.3,158.8,200923,,,d*6E
$GPZDA,230404.0026,20,09,2023,,*6B
$PADCP,91,20230920,230404.45,0.36
$GPGGA,230404.640,5649.82612,N,13221.86123,W,2,17,1.5,1.43,M,,,6,0135*14
$GPHDT,159.9,T*31
$GPVTG,163.4,T,,M,2.2,N,4.1,K,D*0D
$GPRMC,230404.64,A,5649.82612,N,13221.86123,W,2.2,159.9,200923,,,d*68
$GPZDA,230405.0026,20,09,2023,,*6A
$PADCP,92,20230920,230405.67,0.36
$GPGGA,230405.640,5649.82551,N,13221.86093,W,2,17,1.5,1.36,M,,,7,0135*18
$GPHDT,161.5,T*36
$GPVTG,166.9,T,,M,2.2,N,4.1,K,D*05
$GPRMC,230405.64,A,5649.82551,N,13221.86093,W,2.2,161.5,200923,,,d*60
$GPZDA,230406.0026,20,09,2023,,*69
$PADCP,93,20230920,230406.89,0.36
$GPGGA,230406.640,5649.82494,N,13221.86064,W,2,17,1.5,1.35,M,,,7,0135*18
$GPHDT,162.9,T*39
$GPVTG,164.9,T,,M,2.1,N,3.9,K,D*0B
$GPRMC,230406.64,A,5649.82494,N,13221.86064,W,2.1,162.9,200923,,,d*6F
$GPZDA,230407.0026,20,09,2023,,*68
$GPGGA,230407.640,5649.82437,N,13221.86040,W,2,17,1.5,1.34,M,,,7,0135*17
$GPHDT,163.1,T*30
$PADCP,94,20230920,230408.12,0.36
$GPVTG,168.5,T,,M,2.1,N,3.9,K,D*0B
$GPRMC,230407.64,A,5649.82437,N,13221.86040,W,2.1,163.1,200923,,,d*68
$GPZDA,230408.0026,20,09,2023,,*67
$GPGGA,230408.640,5649.82378,N,13221.86023,W,2,17,1.5,1.37,M,,,4,0135*11
$GPHDT,162.4,T*34
$GPVTG,172.7,T,,M,2.1,N,4.0,K,D*0C
$GPRMC,230408.64,A,5649.82378,N,13221.86023,W,2.1,162.4,200923,,,d*6A
$PADCP,95,20230920,230409.35,0.36
$GPZDA,230409.0026,20,09,2023,,*66
$GPGGA,230409.640,5649.82320,N,13221.86011,W,2,17,1.5,1.37,M,,,5,0135*1D
$GPHDT,161.2,T*31
$GPVTG,172.7,T,,M,2.1,N,3.9,K,D*02
$GPRMC,230409.64,A,5649.82320,N,13221.86011,W,2.1,161.2,200923,,,d*62
$GPZDA,230410.0027,20,09,2023,,*6F
$PADCP,96,20230920,230410.78,0.36
$GPGGA,230410.640,5649.82263,N,13221.85993,W,2,17,1.6,1.42,M,,,6,0135*11
$GPHDT,159.6,T*3E
$GPVTG,167.3,T,,M,2.0,N,3.7,K,D*0D
$GPRMC,230410.64,A,5649.82263,N,13221.85993,W,2.0,159.6,200923,,,d*62
$GPZDA,230411.0027,20,09,2023,,*6E
$GPGGA,230411.640,5649.82209,N,13221.85972,W,2,17,1.6,1.45,M,,,7,0135*15
$GPHDT,157.1,T*37
$GPVTG,167.4,T,,M,2.0,N,3.7,K,D*0A
$GPRMC,230411.64,A,5649.82209,N,13221.85972,W,2.0,157.1,200923,,,d*69
$PADCP,97,20230920,230412.20,0.36
$GPZDA,230412.0027,20,09,2023,,*6D
$GPGGA,230412.640,5649.82157,N,13221.85946,W,2,17,1.6,1.46,M,,,7,0135*1A
$GPHDT,154.8,T*3D
$GPVTG,161.0,T,,M,2.0,N,3.7,K,D*08
$GPRMC,230412.64,A,5649.82157,N,13221.85946,W,2.0,154.8,200923,,,d*6F
$GPZDA,230413.0027,20,09,2023,,*6C
$PADCP,98,20230920,230413.64,0.36
$GPGGA,230413.640,5649.82104,N,13221.85918,W,2,17,1.6,1.44,M,,,7,0135*14
$GPHDT,152.8,T*3B
$GPVTG,166.3,T,,M,2.0,N,3.7,K,D*0C
$GPRMC,230413.64,A,5649.82104,N,13221.85918,W,2.0,152.8,200923,,,d*65
$GPZDA,230414.0027,20,09,2023,,*6B
$PADCP,99,20230920,230415.07,0.36
$GPGGA,230414.640,5649.82049,N,13221.85890,W,2,17,1.6,1.40,M,,,4,0135*1D
$GPHDT,151.9,T*39
$GPVTG,160.9,T,,M,2.1,N,3.9,K,D*0F
$GPRMC,230414.64,A,5649.82049,N,13221.85890,W,2.1,151.9,200923,,,d*68
$GPZDA,230415.0027,20,09,2023,,*6A
$GPGGA,230415.640,5649.81995,N,13221.85854,W,2,17,1.6,1.43,M,,,5,0135*1D
$GPHDT,151.7,T*37
$GPVTG,160.8,T,,M,2.0,N,3.8,K,D*0E
$GPRMC,230415.64,A,5649.81995,N,13221.85854,W,2.0,151.7,200923,,,d*65
$GPZDA,230416.0027,20,09,2023,,*69
$PADCP,100,20230920,230416.49,0.36
$GPGGA,230416.640,5649.81941,N,13221.85819,W,2,17,1.6,1.40,M,,,6,0135*1E
$GPHDT,152.1,T*32
$GPVTG,158.9,T,,M,2.1,N,3.9,K,D*04
$GPRMC,230416.64,A,5649.81941,N,13221.85819,W,2.1,152.1,200923,,,d*62
$GPZDA,230417.0027,20,09,2023,,*68
$PADCP,101,20230920,230417.92,0.36
$GPGGA,230417.640,5649.81886,N,13221.85780,W,2,17,1.6,1.45,M,,,7,0135*1E
$GPHDT,153.2,T*30
$GPVTG,162.5,T,,M,2.1,N,3.8,K,D*00
$GPRMC,230417.64,A,5649.81886,N,13221.85780,W,2.1,153.2,200923,,,d*64
$GPZDA,230418.0027,20,09,2023,,*67
$GPGGA,230418.640,5649.81830,N,13221.85751,W,2,17,1.6,1.41,M,,,7,0135*14
$GPHDT,153.9,T*3B
$GPVTG,162.6,T,,M,2.2,N,4.1,K,D*0E
$PADCP,102,20230920,230419.15,0.36
$GPRMC,230418.64,A,5649.81830,N,13221.85751,W,2.2,153.9,200923,,,d*62
$GPZDA,230419.0027,20,09,2023,,*66
$GPGGA,230419.640,5649.81771,N,13221.85714,W,2,17,1.6,1.41,M,,,7,0135*1E
$GPHDT,156.0,T*37
$GPVTG,160.7,T,,M,2.2,N,4.1,K,D*0D
$GPRMC,230419.64,A,5649.81771,N,13221.85714,W,2.2,156.0,200923,,,d*64
$PADCP,103,20230920,230420.37,0.36
$GPZDA,230420.0027,20,09,2023,,*6C
$GPGGA,230420.640,5649.81716,N,13221.85678,W,2,17,1.6,1.45,M,,,4,0135*19
$GPHDT,157.9,T*3F
$GPVTG,160.6,T,,M,2.0,N,3.8,K,D*00
$GPRMC,230420.64,A,5649.81716,N,13221.85678,W,2.0,157.9,200923,,,d*6E
$GPZDA,230421.0028,20,09,2023,,*62
$PADCP,104,20230920,230421.60,0.36
$GPGGA,230421.640,5649.81661,N,13221.85643,W,2,17,1.6,1.44,M,,,5,0135*11
$GPHDT,160.0,T*32
$GPVTG,162.1,T,,M,2.2,N,4.1,K,D*09
$GPRMC,230421.64,A,5649.81661,N,13221.85643,W,2.2,160.0,200923,,,d*69
$GPZDA,230422.0028,20,09,2023,,*61
$PADCP,105,20230920,230422.82,0.36
$GPGGA,230422.640,5649.81602,N,13221.85607,W,2,17,1.6,1.46,M,,,6,0135*16
$GPHDT,161.7,T*34
$GPVTG,162.1,T,,M,2.3,N,4.3,K,D*0A
$GPRMC,230422.64,A,5649.81602,N,13221.85607,W,2.3,161.7,200923,,,d*68
$GPZDA,230423.0028,20,09,2023,,*60
$PADCP,106,20230920,230424.05,0.36
$GPGGA,230423.640,5649.81540,N,13221.85577,W,2,17,1.6,1.47,M,,,7,0135*16
$GPHDT,163.5,T*34
$GPVTG,167.9,T,,M,2.3,N,4.2,K,D*06
$GPRMC,230423.64,A,5649.81540,N,13221.85577,W,2.3,163.5,200923,,,d*68
$GPZDA,230424.0028,20,09,2023,,*67
$GPGGA,230424.640,5649.81478,N,13221.85555,W,2,17,1.6,1.37,M,,,7,0135*1C
$GPHDT,164.6,T*30
$GPVTG,170.5,T,,M,2.2,N,4.0,K,D*0F
$GPRMC,230424.64,A,5649.81478,N,13221.85555,W,2.2,164.6,200923,,,d*60
$PADCP,107,20230920,230425.27,0.36
$GPZDA,230425.0028,20,09,2023,,*66
$GPGGA,230425.640,5649.81423,N,13221.85540,W,2,17,1.6,1.29,M,,,7,0135*18
$GPHDT,164.1,T*37
$GPVTG,171.2,T,,M,2.0,N,3.6,K,D*0A
$GPRMC,230425.64,A,5649.81423,N,13221.85540,W,2.0,164.1,200923,,,d*6E
$GPZDA,230426.0028,20,09,2023,,*65
$PADCP,108,20230920,230426.50,0.36
$GPGGA,230426.640,5649.81369,N,13221.85524,W,2,17,1.6,1.28,M,,,4,0135*12
$GPHDT,162.5,T*35
$GPVTG,171.5,T,,M,2.0,N,3.7,K,D*0C
$GPRMC,230426.64,A,5649.81369,N,13221.85524,W,2.0,162.5,200923,,,d*64
$GPZDA,230427.0028,20,09,2023,,*64
$PADCP,109,20230920,230427.72,0.36
$GPGGA,230427.640,5649.81315,N,13221.85515,W,2,17,1.6,1.36,M,,,5,0135*14
$GPHDT,160.4,T*36
$GPVTG,178.5,T,,M,2.0,N,3.7,K,D*05
$GPRMC,230427.64,A,5649.81315,N,13221.85515,W,2.0,160.4,200923,,,d*6F
$GPZDA,230428.0028,20,09,2023,,*6B
$GPGGA,230428.640,5649.81258,N,13221.85507,W,2,17,1.6,1.37,M,,,6,0135*12
$GPHDT,158.3,T*3A
$GPVTG,171.9,T,,M,2.1,N,3.9,K,D*0F
$PADCP,110,20230920,230429.15,0.36
$GPRMC,230428.64,A,5649.81258,N,13221.85507,W,2.1,158.3,200923,,,d*66
$GPZDA,230429.0028,20,09,2023,,*6A
$GPGGA,230429.640,5649.81204,N,13221.85488,W,2,17,1.6,1.44,M,,,7,0135*19
$GPHDT,156.5,T*32
$GPVTG,167.3,T,,M,2.0,N,3.7,K,D*0D
$GPRMC,230429.64,A,5649.81204,N,13221.85488,W,2.0,156.5,200923,,,d*61
$PADCP,111,20230920,230430.38,0.36
$GPZDA,230430.0028,20,09,2023,,*62
$GPGGA,230430.640,5649.81149,N,13221.85461,W,2,17,1.6,1.47,M,,,7,0135*1F
$GPHDT,156.0,T*37
$GPVTG,163.6,T,,M,2.1,N,3.9,K,D*03
$GPRMC,230430.64,A,5649.81149,N,13221.85461,W,2.1,156.0,200923,,,d*60
$GPZDA,230431.0029,20,09,2023,,*62
$PADCP,112,20230920,230431.60,0.36
$GPGGA,230431.640,5649.81093,N,13221.85429,W,2,17,1.6,1.45,M,,,7,0135*16
$GPHDT,156.6,T*31
$GPVTG,160.2,T,,M,2.2,N,4.0,K,D*09
$GPRMC,230431.64,A,5649.81093,N,13221.85429,W,2.2,156.6,200923,,,d*6E
$GPZDA,230432.0029,20,09,2023,,*61
$PADCP,113,20230920,230432.82,0.36
$GPGGA,230432.640,5649.81038,N,13221.85395,W,2,17,1.6,1.41,M,,,4,0135*13
$GPHDT,157.9,T*3F
$GPVTG,162.8,T,,M,2.1,N,3.9,K,D*0C
$GPRMC,230432.64,A,5649.81038,N,13221.85395,W,2.1,157.9,200923,,,d*61
$GPZDA,230433.0029,20,09,2023,,*60
$PADCP,114,20230920,230434.05,0.36
$GPGGA,230433.640,5649.80982,N,13221.85364,W,2,17,1.6,1.33,M,,,5,0135*11
$GPHDT,159.6,T*3E
$GPVTG,164.7,T,,M,2.0,N,3.7,K,D*0A
$GPRMC,230433.64,A,5649.80982,N,13221.85364,W,2.0,159.6,200923,,,d*67
$GPZDA,230434.0029,20,09,2023,,*67
$GPGGA,230434.640,5649.80931,N,13221.85336,W,2,17,1.6,1.31,M,,,6,0135*18
$GPHDT,161.4,T*37
$GPVTG,162.5,T,,M,2.0,N,3.7,K,D*0E
$GPRMC,230434.64,A,5649.80931,N,13221.85336,W,2.0,161.4,200923,,,d*66
$PADCP,115,20230920,230435.28,0.36
$GPZDA,230435.0029,20,09,2023,,*66
$GPGGA,230435.640,5649.80877,N,13221.85308,W,2,17,1.6,1.34,M,,,7,0135*13
$GPHDT,162.6,T*36
$GPVTG,165.3,T,,M,2.1,N,3.8,K,D*01
$GPRMC,230435.64,A,5649.80877,N,13221.85308,W,2.1,162.6,200923,,,d*69
$GPZDA,230436.0029,20,09,2023,,*65
$PADCP,116,20230920,230436.50,0.36
$GPGGA,230436.640,5649.80818,N,13221.85279,W,2,17,1.6,1.40,M,,,7,0135*1D
$GPHDT,164.2,T*34
$GPVTG,166.6,T,,M,2.4,N,4.4,K,D*09
$GPRMC,230436.64,A,5649.80818,N,13221.85279,W,2.4,164.2,200923,,,d*63
$GPZDA,230437.0029,20,09,2023,,*64
$PADCP,117,20230920,230437.72,0.36
$GPGGA,230437.640,5649.80754,N,13221.85257,W,2,17,1.6,1.43,M,,,7,0135*14
$GPHDT,164.7,T*31
$GPVTG,172.5,T,,M,2.3,N,4.3,K,D*0F
$GPRMC,230437.64,A,5649.80754,N,13221.85257,W,2.3,164.7,200923,,,d*6B
$GPZDA,230438.0029,20,09,2023,,*6B
$PADCP,118,20230920,230438.95,0.36
$GPGGA,230438.640,5649.80694,N,13221.85244,W,2,17,1.6,1.43,M,,,4,0135*17
$GPHDT,163.4,T*35
$GPVTG,172.0,T,,M,2.1,N,4.0,K,D*0B
$GPRMC,230438.64,A,5649.80694,N,13221.85244,W,2.1,163.4,200923,,,d*6D
$GPZDA,230439.0029,20,09,2023,,*6A
$GPGGA,230439.640,5649.80637,N,13221.85226,W,2,17,1.6,1.47,M,,,5,0135*1E
$GPHDT,161.6,T*35
$GPVTG,173.0,T,,M,2.2,N,4.1,K,D*08
$GPRMC,230439.64,A,5649.80637,N,13221.85226,W,2.2,161.6,200923,,,d*62
$PADCP,119,20230920,230440.38,0.36
$GPZDA,230440.0029,20,09,2023,,*64
$GPGGA,230440.640,5649.80578,N,13221.85212,W,2,17,1.6,1.42,M,,,6,0135*19
$GPHDT,159.8,T*30
$GPVTG,172.3,T,,M,2.1,N,3.9,K,D*06
$GPRMC,230440.64,A,5649.80578,N,13221.85212,W,2.1,159.8,200923,,,d*65
$GPZDA,230441.0030,20,09,2023,,*6D
$PADCP,120,20230920,230441.60,0.36
$GPGGA,230441.640,5649.80525,N,13221.85198,W,2,17,1.6,1.36,M,,,7,0135*13
$GPHDT,159.0,T*38
$GPVTG,171.6,T,,M,1.9,N,3.5,K,D*07
$GPRMC,230441.64,A,5649.80525,N,13221.85198,W,1.9,159.0,200923,,,d*6E
$GPZDA,230442.0030,20,09,2023,,*6E
$PADCP,121,20230920,230442.83,0.36
$GPGGA,230442.640,5649.80474,N,13221.85182,W,2,17,1.6,1.32,M,,,7,0135*1A
$GPHDT,158.1,T*38
$GPVTG,168.0,T,,M,1.9,N,3.5,K,D*09
$GPRMC,230442.64,A,5649.80474,N,13221.85182,W,1.9,158.1,200923,,,d*63
$GPZDA,230443.0030,20,09,2023,,*6F
$PADCP,122,20230920,230444.06,0.36
$GPGGA,230443.640,5649.80421,N,13221.85161,W,2,17,1.6,1.37,M,,,7,0135*13
$GPHDT,158.1,T*38
$GPVTG,167.6,T,,M,2.1,N,3.9,K,D*07
$GPRMC,230443.64,A,5649.80421,N,13221.85161,W,2.1,158.1,200923,,,d*64
$GPZDA,230444.0030,20,09,2023,,*68
$GPGGA,230444.640,5649.80364,N,13221.85138,W,2,17,1.6,1.37,M,,,4,0135*1D
$GPHDT,158.3,T*3A
$GPVTG,165.6,T,,M,2.1,N,3.9,K,D*05
$GPRMC,230444.64,A,5649.80364,N,13221.85138,W,2.1,158.3,200923,,,d*6B
$PADCP,123,20230920,230445.28,0.36
$GPZDA,230445.0030,20,09,2023,,*69
$GPGGA,230445.640,5649.80305,N,13221.85107,W,2,17,1.6,1.38,M,,,5,0135*19
$GPHDT,159.7,T*3F
$GPVTG,164.6,T,,M,2.4,N,4.4,K,D*0B
$GPRMC,230445.64,A,5649.80305,N,13221.85107,W,2.4,159.7,200923,,,d*61
$GPZDA,230446.0030,20,09,2023,,*6A
$PADCP,124,20230920,230446.50,0.36
$GPGGA,230446.640,5649.80244,N,13221.85079,W,2,17,1.6,1.40,M,,,6,0135*1A
$GPHDT,160.5,T*37
$GPVTG,167.8,T,,M,2.2,N,4.2,K,D*06
$GPRMC,230446.64,A,5649.80244,N,13221.85079,W,2.2,160.5,200923,,,d*60
$GPZDA,230447.0030,20,09,2023,,*6B
$PADCP,125,20230920,230447.73,0.36
$GPGGA,230447.640,5649.80184,N,13221.85055,W,2,17,1.6,1.43,M,,,7,0135*18
$GPHDT,160.6,T*34
$GPVTG,169.3,T,,M,2.3,N,4.2,K,D*02
$GPRMC,230447.64,A,5649.80184,N,13221.85055,W,2.3,160.6,200923,,,d*62
$GPZDA,230448.0030,20,09,2023,,*64
$PADCP,126,20230920,230448.96,0.36
$GPGGA,230448.640,5649.80122,N,13221.85028,W,2,17,1.6,1.39,M,,,7,0135*1C
$GPHDT,160.2,T*30
$GPVTG,166.1,T,,M,2.2,N,4.1,K,D*0D
$GPRMC,230448.64,A,5649.80122,N,13221.85028,W,2.2,160.2,200923,,,d*6E
$GPZDA,230449.0030,20,09,2023,,*65
$GPGGA,230449.640,5649.80065,N,13221.85005,W,2,17,1.6,1.39,M,,,7,0135*10
$GPHDT,158.6,T*3F
$GPVTG,171.2,T,,M,2.1,N,3.9,K,D*04
$PADCP,127,20230920,230450.18,0.36
$GPRMC,230449.64,A,5649.80065,N,13221.85005,W,2.1,158.6,200923,,,d*6E
$GPZDA,230450.0030,20,09,2023,,*6D
$GPGGA,230450.640,5649.80009,N,13221.84994,W,2,17,1.6,1.32,M,,,4,0135*1A
$GPHDT,156.4,T*33
$GPVTG,174.7,T,,M,2.0,N,3.7,K,D*0B
$GPRMC,230450.64,A,5649.80009,N,13221.84994,W,2.0,156.4,200923,,,d*61
$GPZDA,230451.0030,20,09,2023,,*6C
$PADCP,128,20230920,230451.61,0.36
$GPGGA,230451.640,5649.79957,N,13221.84985,W,2,17,1.6,1.28,M,,,5,0135*15
$GPHDT,153.7,T*35
$GPVTG,173.7,T,,M,1.8,N,3.4,K,D*04
$GPRMC,230451.64,A,5649.79957,N,13221.84985,W,1.8,153.7,200923,,,d*69
$GPZDA,230452.0031,20,09,2023,,*6E
$PADCP,129,20230920,230452.83,0.36
$GPGGA,230452.640,5649.79909,N,13221.84969,W,2,17,1.6,1.32,M,,,6,0135*17
$GPHDT,152.4,T*37
$GPVTG,164.6,T,,M,1.9,N,3.6,K,D*00
$GPRMC,230452.64,A,5649.79909,N,13221.84969,W,1.9,152.4,200923,,,d*60
$GPZDA,230453.0031,20,09,2023,,*6F
$PADCP,130,20230920,230454.06,0.36
$GPGGA,230453.640,5649.79855,N,13221.84935,W,2,17,1.6,1.44,M,,,7,0135*17
$GPHDT,151.5,T*35
$GPVTG,159.9,T,,M,2.2,N,4.1,K,D*09
$GPRMC,230453.64,A,5649.79855,N,13221.84935,W,2.2,151.5,200923,,,d*6A
$GPZDA,230454.0031,20,09,2023,,*68
$GPGGA,230454.640,5649.79796,N,13221.84894,W,2,17,1.6,1.50,M,,,7,0135*1F
$GPHDT,151.7,T*37
$GPVTG,159.4,T,,M,2.4,N,4.5,K,D*06
$GPRMC,230454.64,A,5649.79796,N,13221.84894,W,2.4,151.7,200923,,,d*63
$PADCP,131,20230920,230455.28,0.36
$GPZDA,230455.0031,20,09,2023,,*69
$GPGGA,230455.640,5649.79735,N,13221.84850,W,2,17,1.6,1.51,M,,,7,0135*1E
$GPHDT,153.2,T*30
$GPVTG,157.9,T,,M,2.2,N,4.0,K,D*06
$GPRMC,230455.64,A,5649.79735,N,13221.84850,W,2.2,153.2,200923,,,d*62
$GPZDA,230456.0031,20,09,2023,,*6A
$PADCP,132,20230920,230456.51,0.36
$GPGGA,230456.640,5649.79683,N,13221.84811,W,2,17,1.6,1.49,M,,,4,0135*1E
$GPHDT,154.9,T*3C
$GPVTG,159.4,T,,M,2.0,N,3.8,K,D*08
$GPRMC,230456.64,A,5649.79683,N,13221.84811,W,2.0,154.9,200923,,,d*66
$GPZDA,230457.0031,20,09,2023,,*6B
$PADCP,133,20230920,230457.73,0.36
$GPGGA,230457.640,5649.79632,N,13221.84779,W,2,17,1.6,1.39,M,,,5,0135*12
$GPHDT,156.7,T*30
$GPVTG,163.1,T,,M,1.8,N,3.3,K,D*04
$GPRMC,230457.64,A,5649.79632,N,13221.84779,W,1.8,156.7,200923,,,d*6B
$GPZDA,230458.0031,20,09,2023,,*64
$PADCP,134,20230920,230458.96,0.36
$GPGGA,230458.640,5649.79589,N,13221.84759,W,2,17,1.6,1.25,M,,,6,0135*12
$GPHDT,158.7,T*3E
$GPVTG,168.3,T,,M,1.5,N,2.8,K,D*0A
$GPRMC,230458.64,A,5649.79589,N,13221.84759,W,1.5,158.7,200923,,,d*66
$GPZDA,230459.0031,20,09,2023,,*65
$GPGGA,230459.640,5649.79553,N,13221.84745,W,2,17,1.6,1.25,M,,,7,0135*18
$GPHDT,160.5,T*37
$GPVTG,171.5,T,,M,1.3,N,2.5,K,D*0F
$PADCP,135,20230920,230500.18,0.36
$GPRMC,230459.64,A,5649.79553,N,13221.84745,W,1.3,160.5,200923,,,d*62
$GPZDA,230500.0031,20,09,2023,,*68
$GPGGA,230500.640,5649.79514,N,13221.84731,W,2,17,1.6,1.34,M,,,7,0135*15
$GPHDT,161.6,T*35
$GPVTG,168.0,T,,M,1.5,N,2.9,K,D*08
$GPRMC,230500.64,A,5649.79514,N,13221.84731,W,1.5,161.6,200923,,,d*6B
$GPZDA,230501.0031,20,09,2023,,*69
$PADCP,136,20230920,230501.41,0.36
$GPGGA,230501.640,5649.79471,N,13221.84714,W,2,17,1.6,1.42,M,,,7,0135*10
$GPHDT,162.5,T*35
$GPVTG,168.0,T,,M,1.8,N,3.3,K,D*0E
$GPRMC,230501.64,A,5649.79471,N,13221.84714,W,1.8,162.5,200923,,,d*62
$GPZDA,230502.0032,20,09,2023,,*69
$PADCP,137,20230920,230502.84,0.36
$GPGGA,230502.640,5649.79426,N,13221.84697,W,2,17,1.6,1.43,M,,,4,0135*19
$GPHDT,163.2,T*33
$GPVTG,171.2,T,,M,1.5,N,2.8,K,D*03
$GPRMC,230502.64,A,5649.79426,N,13221.84697,W,1.5,163.2,200923,,,d*62
$GPZDA,230503.0032,20,09,2023,,*68
$PADCP,138,20230920,230504.06,0.36
$GPGGA,230503.640,5649.79385,N,13221.84686,W,2,17,1.6,1.40,M,,,5,0135*14
$GPHDT,163.8,T*39
$GPVTG,171.5,T,,M,1.6,N,2.9,K,D*06
$GPRMC,230503.64,A,5649.79385,N,13221.84686,W,1.6,163.8,200923,,,d*64
$GPZDA,230504.0032,20,09,2023,,*6F
$GPGGA,230504.640,5649.79346,N,13221.84676,W,2,17,1.6,1.42,M,,,6,0135*12
$GPHDT,163.8,T*39
$GPVTG,172.6,T,,M,1.4,N,2.6,K,D*0B
$GPRMC,230504.64,A,5649.79346,N,13221.84676,W,1.4,163.8,200923,,,d*61
$PADCP,139,20230920,230505.29,0.36
$GPZDA,230505.0032,20,09,2023,,*6E
$GPGGA,230505.640,5649.79307,N,13221.84666,W,2,17,1.6,1.40,M,,,7,0135*14
$GPHDT,164.3,T*35
$GPVTG,172.9,T,,M,1.4,N,2.6,K,D*04
$GPRMC,230505.64,A,5649.79307,N,13221.84666,W,1.4,164.3,200923,,,d*68
$GPZDA,230506.0032,20,09,2023,,*6D
$PADCP,140,20230920,230506.51,0.36
$GPGGA,230506.640,5649.79273,N,13221.84665,W,2,17,1.6,1.34,M,,,7,0135*15
$GPHDT,164.8,T*3E
$GPVTG,186.1,T,,M,1.2,N,2.3,K,D*04
$GPRMC,230506.64,A,5649.79273,N,13221.84665,W,1.2,164.8,200923,,,d*67
$GPZDA,230507.0032,20,09,2023,,*6C
$PADCP,141,20230920,230507.73,0.36
$GPGGA,230507.640,5649.79238,N,13221.84674,W,2,17,1.6,1.24,M,,,7,0135*1A
$GPHDT,165.1,T*36
$GPVTG,185.7,T,,M,1.3,N,2.4,K,D*07
$GPRMC,230507.64,A,5649.79238,N,13221.84674,W,1.3,165.1,200923,,,d*60
$GPZDA,230508.0032,20,09,2023,,*63
$PADCP,142,20230920,230508.96,0.36
$GPGGA,230508.640,5649.79204,N,13221.84675,W,2,17,1.6,1.37,M,,,4,0135*1A
$GPHDT,165.4,T*33
$GPVTG,180.3,T,,M,1.3,N,2.4,K,D*06
$GPRMC,230508.64,A,5649.79204,N,13221.84675,W,1.3,165.4,200923,,,d*64
$GPZDA,230509.0032,20,09,2023,,*62
$GPGGA,230509.640,5649.79168,N,13221.84679,W,2,17,1.6,1.40,M,,,5,0135*1F
$GPHDT,165.1,T*36
$GPVTG,185.4,T,,M,1.3,N,2.4,K,D*04
$PADCP,143,20230920,230510.18,0.36
$GPRMC,230509.64,A,5649.79168,N,13221.84679,W,1.3,165.1,200923,,,d*65
$GPZDA,230510.0032,20,09,2023,,*6A
$GPGGA,230510.640,5649.79134,N,13221.84683,W,2,17,1.6,1.42,M,,,6,0135*1A
$GPHDT,164.6,T*30
$GPVTG,181.5,T,,M,1.3,N,2.4,K,D*01
$GPRMC,230510.64,A,5649.79134,N,13221.84683,W,1.3,164.6,200923,,,d*67
$GPZDA,230511.0032,20,09,2023,,*6B
$PADCP,144,20230920,230511.41,0.36
$GPGGA,230511.640,5649.79097,N,13221.84682,W,2,17,1.6,1.43,M,,,7,0135*12
$GPHDT,164.1,T*37
$GPVTG,177.3,T,,M,1.4,N,2.5,K,D*08
$GPRMC,230511.64,A,5649.79097,N,13221.84682,W,1.4,164.1,200923,,,d*6F
$GPZDA,230512.0033,20,09,2023,,*69
$PADCP,145,20230920,230512.63,0.36
$GPGGA,230512.640,5649.79060,N,13221.84677,W,2,17,1.6,1.43,M,,,7,0135*13
$GPHDT,163.5,T*34
$GPVTG,176.2,T,,M,1.4,N,2.5,K,D*08
$GPRMC,230512.64,A,5649.79060,N,13221.84677,W,1.4,163.5,200923,,,d*6D
$GPZDA,230513.0033,20,09,2023,,*68
$PADCP,146,20230920,230514.06,0.36
$GPGGA,230513.640,5649.79025,N,13221.84678,W,2,17,1.6,1.29,M,,,7,0135*10
$GPHDT,162.5,T*35
$GPVTG,184.4,T,,M,1.2,N,2.2,K,D*02
$GPRMC,230513.64,A,5649.79025,N,13221.84678,W,1.2,162.5,200923,,,d*65
$GPZDA,230514.0033,20,09,2023,,*6F
$GPGGA,230514.640,5649.78996,N,13221.84688,W,2,17,1.6,1.25,M,,,4,0135*17
$GPHDT,161.6,T*35
$GPVTG,194.5,T,,M,1.1,N,2.0,K,D*03
$GPRMC,230514.64,A,5649.78996,N,13221.84688,W,1.1,161.6,200923,,,d*6E
$GPZDA,230515.0033,20,09,2023,,*6E
$PADCP,147,20230920,230515.49,0.36
$GPGGA,230515.640,5649.78966,N,13221.84701,W,2,17,1.6,1.29,M,,,5,0135*14
$GPHDT,161.1,T*32
$GPVTG,192.9,T,,M,1.2,N,2.1,K,D*0B
$GPRMC,230515.64,A,5649.78966,N,13221.84701,W,1.2,161.1,200923,,,d*64
$GPZDA,230516.0033,20,09,2023,,*6D
$PADCP,148,20230920,230516.92,0.36
$GPGGA,230516.640,5649.78934,N,13221.84712,W,2,17,1.6,1.38,M,,,6,0135*11
$GPHDT,160.6,T*34
$GPVTG,185.8,T,,M,1.2,N,2.2,K,D*0F
$GPRMC,230516.64,A,5649.78934,N,13221.84712,W,1.2,160.6,200923,,,d*64
$GPZDA,230517.0033,20,09,2023,,*6C
$GPGGA,230517.640,5649.78902,N,13221.84714,W,2,17,1.6,1.49,M,,,7,0135*14
$GPHDT,159.9,T*31
$GPVTG,181.0,T,,M,1.3,N,2.3,K,D*03
$GPRMC,230517.64,A,5649.78902,N,13221.84714,W,1.3,159.9,200923,,,d*62
$PADCP,149,20230920,230518.34,0.36
$GPZDA,230518.0033,20,09,2023,,*63
$GPGGA,230518.640,5649.78866,N,13221.84717,W,2,17,1.6,1.46,M,,,7,0135*14
$GPHDT,160.1,T*33
$GPVTG,180.4,T,,M,1.4,N,2.5,K,D*07
$GPRMC,230518.64,A,5649.78866,N,13221.84717,W,1.4,160.1,200923,,,d*68
$GPZDA,230519.0033,20,09,2023,,*62
$PADCP,150,20230920,230519.78,0.36
$GPGGA,230519.640,5649.78830,N,13221.84708,W,2,17,1.6,1.43,M,,,7,0135*1D
$GPHDT,160.2,T*30
$GPVTG,169.0,T,,M,1.3,N,2.4,K,D*02
$GPRMC,230519.64,A,5649.78830,N,13221.84708,W,1.3,160.2,200923,,,d*60
$GPZDA,230520.0033,20,09,2023,,*68
$PADCP,151,20230920,230521.00,0.36
$GPGGA,230520.640,5649.78796,N,13221.84702,W,2,17,1.6,1.42,M,,,4,0135*1C
$GPHDT,160.4,T*36
$GPVTG,180.9,T,,M,1.2,N,2.3,K,D*0A
$GPRMC,230520.64,A,5649.78796,N,13221.84702,W,1.2,160.4,200923,,,d*64
$GPZDA,230521.0033,20,09,2023,,*69
$GPGGA,230521.640,5649.78766,N,13221.84703,W,2,17,1.6,1.29,M,,,5,0135*1F
$GPHDT,160.3,T*31
$GPVTG,182.6,T,,M,1.0,N,1.9,K,D*0C
$GPRMC,230521.64,A,5649.78766,N,13221.84703,W,1.0,160.3,200923,,,d*6E
$PADCP,152,20230920,230522.23,0.36
$GPZDA,230522.0033,20,09,2023,,*6A
$GPGGA,230522.640,5649.78737,N,13221.84709,W,2,17,1.6,1.27,M,,,6,0135*1F
$GPHDT,160.7,T*35
$GPVTG,189.4,T,,M,1.1,N,2.1,K,D*0F
$GPRMC,230522.64,A,5649.78737,N,13221.84709,W,1.1,160.7,200923,,,d*66
$GPZDA,230523.0034,20,09,2023,,*6C
$PADCP,153,20230920,230523.45,0.36
$GPGGA,230523.640,5649.78709,N,13221.84717,W,2,17,1.6,1.30,M,,,7,0135*1B
$GPHDT,161.6,T*35
$GPVTG,184.7,T,,M,1.1,N,2.0,K,D*00
$GPRMC,230523.64,A,5649.78709,N,13221.84717,W,1.1,161.6,200923,,,d*65
$GPZDA,230524.0034,20,09,2023,,*6B
$PADCP,154,20230920,230524.68,0.36
$GPGGA,230524.640,5649.78677,N,13221.84713,W,2,17,1.6,1.38,M,,,7,0135*18
$GPHDT,163.0,T*31
$GPVTG,174.5,T,,M,1.3,N,2.3,K,D*0C
$GPRMC,230524.64,A,5649.78677,N,13221.84713,W,1.3,163.0,200923,,,d*68
$GPZDA,230525.0034,20,09,2023,,*6A
$PADCP,155,20230920,230525.90,0.36
$GPGGA,230525.640,5649.78641,N,13221.84706,W,2,17,1.6,1.45,M,,,7,0135*12
$GPHDT,165.2,T*35
$GPVTG,172.6,T,,M,1.4,N,2.7,K,D*0A
$GPRMC,230525.64,A,5649.78641,N,13221.84706,W,1.4,165.2,200923,,,d*6B
$GPZDA,230526.0034,20,09,2023,,*69
$GPGGA,230526.640,5649.78599,N,13221.84691,W,2,17,1.6,1.50,M,,,4,0135*1F
$GPHDT,168.1,T*3B
$PADCP,156,20230920,230527.13,0.36
$GPVTG,167.7,T,,M,1.6,N,3.0,K,D*0B
$GPRMC,230526.64,A,5649.78599,N,13221.84691,W,1.6,168.1,200923,,,d*6D
$GPZDA,230527.0034,20,09,2023,,*68
$GPGGA,230527.641,5649.78559,N,13221.84675,W,2,17,1.6,1.44,M,,,5,0135*1D
$GPHDT,171.3,T*31
$GPVTG,169.6,T,,M,1.3,N,2.5,K,D*05
$GPRMC,230527.64,A,5649.78559,N,13221.84675,W,1.3,171.3,200923,,,d*65
$PADCP,157,20230920,230528.35,0.36
$GPZDA,230528.0034,20,09,2023,,*67
$GPGGA,230528.641,5649.78525,N,13221.84668,W,2,17,1.6,1.27,M,,,6,0135*13
$GPHDT,174.6,T*31
$GPVTG,182.2,T,,M,1.3,N,2.4,K,D*05
$GPRMC,230528.64,A,5649.78525,N,13221.84668,W,1.3,174.6,200923,,,d*6D
$GPZDA,230529.0034,20,09,2023,,*66
$PADCP,158,20230920,230529.58,0.36
$GPGGA,230529.641,5649.78492,N,13221.84676,W,2,17,1.6,1.15,M,,,7,0135*10
$GPHDT,178.2,T*39
$GPVTG,195.2,T,,M,1.2,N,2.2,K,D*04
$GPRMC,230529.64,A,5649.78492,N,13221.84676,W,1.2,178.2,200923,,,d*67
$GPZDA,230530.0034,20,09,2023,,*6E
$PADCP,159,20230920,230531.01,0.36
$GPGGA,230530.641,5649.78460,N,13221.84689,W,2,17,1.6,1.11,M,,,7,0135*11
$GPHDT,182.2,T*3C
$GPVTG,185.7,T,,M,1.2,N,2.3,K,D*01
$GPRMC,230530.64,A,5649.78460,N,13221.84689,W,1.2,182.2,200923,,,d*67
$GPZDA,230531.0034,20,09,2023,,*6F
$GPGGA,230531.641,5649.78428,N,13221.84692,W,2,17,1.6,1.29,M,,,7,0135*1D
$GPHDT,185.9,T*30
$GPVTG,187.3,T,,M,1.3,N,2.3,K,D*06
$GPRMC,230531.64,A,5649.78428,N,13221.84692,W,1.3,185.9,200923,,,d*6D
$PADCP,160,20230920,230532.23,0.36
$GPZDA,230532.0034,20,09,2023,,*6C
$GPGGA,230532.641,5649.78388,N,13221.84704,W,2,17,1.6,1.34,M,,,4,0135*12
$GPHDT,190.0,T*3D
$GPVTG,188.8,T,,M,1.6,N,2.9,K,D*0D
$GPRMC,230532.64,A,5649.78388,N,13221.84704,W,1.6,190.0,200923,,,d*65
$GPZDA,230533.0035,20,09,2023,,*6C
$PADCP,161,20230920,230533.45,0.36
$GPGGA,230533.641,5649.78349,N,13221.84711,W,2,17,1.6,1.46,M,,,5,0135*1E
$GPHDT,193.8,T*36
$GPVTG,186.2,T,,M,1.4,N,2.6,K,D*04
$GPRMC,230533.64,A,5649.78349,N,13221.84711,W,1.4,193.8,200923,,,d*64
$GPZDA,230534.0035,20,09,2023,,*6B
$PADCP,162,20230920,230534.68,0.36
$GPGGA,230534.641,5649.78311,N,13221.84723,W,2,17,1.6,1.55,M,,,6,0135*14
$GPHDT,197.6,T*3C
$GPVTG,195.2,T,,M,1.5,N,2.8,K,D*09
$GPRMC,230534.64,A,5649.78311,N,13221.84723,W,1.5,197.6,200923,,,d*64
$GPZDA,230535.0035,20,09,2023,,*6A
$PADCP,163,20230920,230535.91,0.36
$GPGGA,230535.641,5649.78269,N,13221.84745,W,2,17,1.6,1.39,M,,,7,0135*10
$GPHDT,201.6,T*30
$GPVTG,198.6,T,,M,1.6,N,3.0,K,D*0A
$GPRMC,230535.64,A,5649.78269,N,13221.84745,W,1.6,201.6,200923,,,d*64
$GPZDA,230536.0035,20,09,2023,,*69
$GPGGA,230536.641,5649.78233,N,13221.84779,W,2,17,1.6,1.31,M,,,7,0135*1B
$GPHDT,205.4,T*36
$PADCP,164,20230920,230537.13,0.36
$GPVTG,216.2,T,,M,1.4,N,2.5,K,D*0D
$GPRMC,230536.64,A,5649.78233,N,13221.84779,W,1.4,205.4,200923,,,d*63
$GPZDA,230537.0035,20,09,2023,,*68
$GPGGA,230537.641,5649.78204,N,13221.84815,W,2,17,1.6,1.19,M,,,7,0135*11
$GPHDT,209.1,T*3F
$GPVTG,208.0,T,,M,1.3,N,2.5,K,D*07
$GPRMC,230537.64,A,5649.78204,N,13221.84815,W,1.3,209.1,200923,,,d*6D
$PADCP,165,20230920,230538.36,0.36
$GPZDA,230538.0035,20,09,2023,,*67
$GPGGA,230538.641,5649.78171,N,13221.84844,W,2,16,1.6,1.32,M,,,4,0135*10
$GPHDT,213.1,T*34
$GPVTG,208.4,T,,M,1.4,N,2.5,K,D*04
$GPRMC,230538.64,A,5649.78171,N,13221.84844,W,1.4,213.1,200923,,,d*6B
$GPZDA,230539.0035,20,09,2023,,*66
$PADCP,166,20230920,230539.58,0.36
$GPGGA,230539.641,5649.78136,N,13221.84883,W,2,16,1.6,1.29,M,,,5,0135*12
$GPHDT,217.1,T*30
$GPVTG,209.5,T,,M,1.6,N,3.0,K,D*02
$GPRMC,230539.64,A,5649.78136,N,13221.84883,W,1.6,217.1,200923,,,d*64
$GPZDA,230540.0035,20,09,2023,,*68
$PADCP,167,20230920,230540.81,0.36
$GPGGA,230540.641,5649.78103,N,13221.84918,W,2,16,1.6,1.33,M,,,6,0135*11
$GPHDT,220.7,T*32
$GPVTG,213.0,T,,M,1.3,N,2.4,K,D*0C
$GPRMC,230540.64,A,5649.78103,N,13221.84918,W,1.3,220.7,200923,,,d*68
$GPZDA,230541.0035,20,09,2023,,*69
$GPGGA,230541.641,5649.78075,N,13221.84961,W,2,16,1.6,1.31,M,,,7,0135*1D
$GPHDT,224.6,T*37
$GPVTG,223.4,T,,M,1.5,N,2.7,K,D*0E
$GPRMC,230541.64,A,5649.78075,N,13221.84961,W,1.5,224.6,200923,,,d*64
$PADCP,168,20230920,230542.23,0.36
$GPZDA,230542.0035,20,09,2023,,*6A
$GPGGA,230542.641,5649.78044,N,13221.85015,W,2,16,1.6,1.19,M,,,7,0135*1D
$GPHDT,228.5,T*38
$GPVTG,225.0,T,,M,1.6,N,3.0,K,D*09
$GPRMC,230542.64,A,5649.78044,N,13221.85015,W,1.6,228.5,200923,,,d*62
$GPZDA,230543.0035,20,09,2023,,*6B
$PADCP,169,20230920,230543.66,0.36
$GPGGA,230543.641,5649.78016,N,13221.85078,W,2,16,1.6,1.19,M,,,7,0135*10
$GPHDT,232.2,T*34
$GPVTG,234.3,T,,M,1.6,N,2.9,K,D*02
$GPRMC,230543.64,A,5649.78016,N,13221.85078,W,1.6,232.2,200923,,,d*63
$GPZDA,230544.0036,20,09,2023,,*6F
$GPGGA,230544.641,5649.77992,N,13221.85139,W,2,16,1.6,1.26,M,,,4,0135*16
$PADCP,170,20230920,230545.09,0.36
$GPHDT,236.0,T*32
$GPVTG,232.4,T,,M,1.4,N,2.6,K,D*0E
$GPRMC,230544.64,A,5649.77992,N,13221.85139,W,1.4,236.0,200923,,,d*6E
$GPZDA,230545.0036,20,09,2023,,*6E
$GPGGA,230545.641,5649.77968,N,13221.85198,W,2,16,1.6,1.33,M,,,5,0135*1C
$GPHDT,239.9,T*34
$GPVTG,231.1,T,,M,1.6,N,3.0,K,D*0D
$GPRMC,230545.64,A,5649.77968,N,13221.85198,W,1.6,239.9,200923,,,d*65
$GPZDA,230546.0036,20,09,2023,,*6D
$PADCP,171,20230920,230546.52,0.36
$GPGGA,230546.641,5649.77941,N,13221.85259,W,2,16,1.6,1.38,M,,,6,0135*12
$GPHDT,243.7,T*37
$GPVTG,227.5,T,,M,1.5,N,2.7,K,D*0B
$GPRMC,230546.64,A,5649.77941,N,13221.85259,W,1.5,243.7,200923,,,d*63
$GPZDA,230547.0036,20,09,2023,,*6C
$PADCP,172,20230920,230547.94,0.36
$GPGGA,230547.641,5649.77913,N,13221.85314,W,2,16,1.6,1.37,M,,,7,0135*12
$GPHDT,247.5,T*31
$GPVTG,229.7,T,,M,1.5,N,2.8,K,D*08
$GPRMC,230547.64,A,5649.77913,N,13221.85314,W,1.5,247.5,200923,,,d*6B
$GPZDA,230548.0036,20,09,2023,,*63
$GPGGA,230548.641,5649.77896,N,13221.85380,W,2,16,1.6,1.25,M,,,7,0135*1F
$GPHDT,251.6,T*35
$GPVTG,256.5,T,,M,1.5,N,2.7,K,D*0D
$GPRMC,230548.64,A,5649.77896,N,13221.85380,W,1.5,251.6,200923,,,d*61
$PADCP,173,20230920,230549.38,0.36
$GPZDA,230549.0036,20,09,2023,,*62
$GPGGA,230549.641,5649.77884,N,13221.85453,W,2,16,1.6,1.19,M,,,7,0135*1B
$GPHDT,255.9,T*3E
$GPVTG,246.6,T,,M,1.5,N,2.8,K,D*00
$GPRMC,230549.64,A,5649.77884,N,13221.85453,W,1.5,255.9,200923,,,d*61
$GPZDA,230550.0036,20,09,2023,,*6A
$PADCP,174,20230920,230550.60,0.36
$GPGGA,230550.641,5649.77866,N,13221.85524,W,2,16,1.6,1.27,M,,,4,0135*10
$GPHDT,260.2,T*33
$GPVTG,244.4,T,,M,1.7,N,3.1,K,D*0A
$GPRMC,230550.64,A,5649.77866,N,13221.85524,W,1.7,260.2,200923,,,d*6B
$GPZDA,230551.0036,20,09,2023,,*6B
$PADCP,175,20230920,230551.83,0.36
$GPGGA,230551.641,5649.77850,N,13221.85601,W,2,16,1.6,1.27,M,,,5,0135*11
$GPHDT,264.8,T*3D
$GPVTG,252.1,T,,M,1.6,N,2.9,K,D*00
$GPRMC,230551.64,A,5649.77850,N,13221.85601,W,1.6,264.8,200923,,,d*64
$GPZDA,230552.0036,20,09,2023,,*68
$PADCP,176,20230920,230553.05,0.36
$GPGGA,230552.641,5649.77838,N,13221.85672,W,2,16,1.6,1.31,M,,,6,0135*1C
$GPHDT,269.6,T*3E
$GPVTG,250.3,T,,M,1.4,N,2.5,K,D*0E
$GPRMC,230552.64,A,5649.77838,N,13221.85672,W,1.4,269.6,200923,,,d*6C
$GPZDA,230553.0036,20,09,2023,,*69
$GPGGA,230553.641,5649.77827,N,13221.85738,W,2,16,1.6,1.32,M,,,7,0135*1E
$GPHDT,274.1,T*35
$GPVTG,257.7,T,,M,1.4,N,2.6,K,D*0E
$GPRMC,230553.64,A,5649.77827,N,13221.85738,W,1.4,274.1,200923,,,d*67
$PADCP,177,20230920,230554.28,0.36
$GPZDA,230554.0037,20,09,2023,,*6F
$GPGGA,230554.641,5649.77821,N,13221.85815,W,2,16,1.6,1.18,M,,,7,0135*17
$GPHDT,278.9,T*31
$GPVTG,265.3,T,,M,1.6,N,3.0,K,D*0E
$GPRMC,230554.64,A,5649.77821,N,13221.85815,W,1.6,278.9,200923,,,d*60
$GPZDA,230555.0037,20,09,2023,,*6E
$PADCP,178,20230920,230555.50,0.36
$GPGGA,230555.641,5649.77819,N,13221.85898,W,2,16,1.6,1.19,M,,,7,0135*19
$GPHDT,282.6,T*3B
