$GPGGA,215704.605,5649.74743,N,13221.93479,W,2,20,1.0,1.85,M,,,6,0135*18
$GPHDT,60.0,T*03
$GPVTG,45.9,T,,M,2.2,N,4.0,K,D*34
$GPRMC,215704.61,A,5649.74743,N,13221.93479,W,2.2,60.0,200923,,,d*59
$GPZDA,215705.0030,20,09,2023,,*69
$GPGGA,215705.605,5649.74783,N,13221.93399,W,2,20,1.0,1.86,M,,,7,0135*1E
$GPHDT,59.6,T*0F
$GPVTG,46.9,T,,M,2.2,N,4.0,K,D*37
$GPRMC,215705.61,A,5649.74783,N,13221.93399,W,2.2,59.6,200923,,,d*51
$GPZDA,215706.0031,20,09,2023,,*6B
$GPGGA,215706.605,5649.74823,N,13221.93317,W,2,20,1.0,1.84,M,,,7,0135*1C
$GPHDT,59.2,T*0B
$PADCP,1,20230920,215707.00,-0.60
$GPVTG,47.6,T,,M,2.2,N,4.1,K,D*38
$GPRMC,215706.61,A,5649.74823,N,13221.93317,W,2.2,59.2,200923,,,d*55
$GPZDA,215707.0031,20,09,2023,,*6A
$GPGGA,215707.605,5649.74864,N,13221.93232,W,2,20,1.0,1.85,M,,,7,0135*19
$GPHDT,58.7,T*0F
$GPVTG,48.1,T,,M,2.2,N,4.1,K,D*30
$GPRMC,215707.61,A,5649.74864,N,13221.93232,W,2.2,58.7,200923,,,d*55
$GPZDA,215708.0031,20,09,2023,,*65
$GPGGA,215708.605,5649.74904,N,13221.93146,W,2,20,1.0,1.79,M,,,4,0135*11
$GPHDT,58.6,T*0E
$GPVTG,49.2,T,,M,2.3,N,4.2,K,D*30
$GPRMC,215708.61,A,5649.74904,N,13221.93146,W,2.3,58.6,200923,,,d*5D
$GPZDA,215709.0031,20,09,2023,,*64
$GPGGA,215709.605,5649.74945,N,13221.93062,W,2,20,1.0,1.79,M,,,5,0135*13
$GPHDT,58.6,T*0E
$GPVTG,47.0,T,,M,2.3,N,4.2,K,D*3C
$GPRMC,215709.61,A,5649.74945,N,13221.93062,W,2.3,58.6,200923,,,d*5E
$GPZDA,215710.0031,20,09,2023,,*6C
$PADCP,2,20230920,215710.47,0.40
$GPGGA,215710.605,5649.74986,N,13221.92976,W,2,20,1.0,1.79,M,,,6,0135*1A
$GPHDT,58.4,T*0C
$GPVTG,48.2,T,,M,2.3,N,4.3,K,D*30
$GPRMC,215710.61,A,5649.74986,N,13221.92976,W,2.3,58.4,200923,,,d*56
$GPZDA,215711.0031,20,09,2023,,*6D
$GPGGA,215711.605,5649.75028,N,13221.92890,W,2,20,1.0,1.78,M,,,7,0135*1E
$GPHDT,59.0,T*09
$GPVTG,47.6,T,,M,2.3,N,4.3,K,D*3B
$GPRMC,215711.61,A,5649.75028,N,13221.92890,W,2.3,59.0,200923,,,d*57
$GPZDA,215712.0031,20,09,2023,,*6E
$GPGGA,215712.605,5649.75069,N,13221.92803,W,2,20,1.0,1.79,M,,,7,0135*13
$GPHDT,59.9,T*00
$GPVTG,48.3,T,,M,2.3,N,4.3,K,D*31
$GPRMC,215712.61,A,5649.75069,N,13221.92803,W,2.3,59.9,200923,,,d*52
$GPZDA,215713.0031,20,09,2023,,*6F
$PADCP,3,20230920,215713.74,0.40
$GPGGA,215713.605,5649.75110,N,13221.92715,W,2,20,1.0,1.78,M,,,7,0135*14
$GPHDT,61.2,T*00
$GPVTG,48.9,T,,M,2.4,N,4.4,K,D*3B
$GPRMC,215713.61,A,5649.75110,N,13221.92715,W,2.4,61.2,200923,,,d*53
$GPZDA,215714.0031,20,09,2023,,*68
$GPGGA,215714.605,5649.75151,N,13221.92622,W,2,20,1.0,1.78,M,,,4,0135*10
$GPHDT,63.3,T*03
$GPVTG,50.9,T,,M,2.3,N,4.3,K,D*32
$GPRMC,215714.61,A,5649.75151,N,13221.92622,W,2.3,63.3,200923,,,d*50
$GPZDA,215715.0031,20,09,2023,,*69
$GPGGA,215715.605,5649.75189,N,13221.92528,W,2,20,1.0,1.75,M,,,5,0135*11
$GPHDT,65.1,T*07
$GPVTG,53.2,T,,M,2.3,N,4.3,K,D*3A
$GPRMC,215715.61,A,5649.75189,N,13221.92528,W,2.3,65.1,200923,,,d*59
$GPZDA,215716.0031,20,09,2023,,*6A
$GPGGA,215716.605,5649.75225,N,13221.92434,W,2,20,1.0,1.75,M,,,6,0135*18
$GPHDT,67.3,T*07
$PADCP,4,20230920,215717.01,-0.60
$GPVTG,55.1,T,,M,2.3,N,4.3,K,D*3F
$GPRMC,215716.61,A,5649.75225,N,13221.92434,W,2.3,67.3,200923,,,d*53
$GPZDA,215717.0031,20,09,2023,,*6B
$GPGGA,215717.605,5649.75257,N,13221.92335,W,2,20,1.0,1.69,M,,,7,0135*16
$GPHDT,69.0,T*0A
$GPVTG,59.6,T,,M,2.4,N,4.4,K,D*34
$GPRMC,215717.61,A,5649.75257,N,13221.92335,W,2.4,69.0,200923,,,d*5B
$GPZDA,215718.0031,20,09,2023,,*64
$GPGGA,215718.605,5649.75288,N,13221.92233,W,2,20,1.0,1.65,M,,,7,0135*10
$GPHDT,69.9,T*03
$GPVTG,58.9,T,,M,2.3,N,4.3,K,D*3A
$GPRMC,215718.61,A,5649.75288,N,13221.92233,W,2.3,69.9,200923,,,d*5F
$GPZDA,215719.0031,20,09,2023,,*65
$GPGGA,215719.605,5649.75319,N,13221.92134,W,2,20,1.0,1.65,M,,,7,0135*1C
$GPHDT,69.7,T*0D
$GPVTG,59.4,T,,M,2.3,N,4.2,K,D*37
$GPRMC,215719.61,A,5649.75319,N,13221.92134,W,2.3,69.7,200923,,,d*5D
$PADCP,5,20230920,215720.28,0.40
$GPZDA,215720.0031,20,09,2023,,*6F
$GPGGA,215720.605,5649.75349,N,13221.92035,W,2,20,1.0,1.62,M,,,4,0135*17
$GPHDT,68.7,T*0C
$GPVTG,59.6,T,,M,2.2,N,4.1,K,D*37
$GPRMC,215720.61,A,5649.75349,N,13221.92035,W,2.2,68.7,200923,,,d*52
$GPZDA,215721.0031,20,09,2023,,*6E
$GPGGA,215721.605,5649.75381,N,13221.91939,W,2,20,1.0,1.65,M,,,5,0135*12
$GPHDT,67.5,T*01
$GPVTG,55.4,T,,M,2.3,N,4.2,K,D*3B
$GPRMC,215721.61,A,5649.75381,N,13221.91939,W,2.3,67.5,200923,,,d*5D
$GPZDA,215722.0031,20,09,2023,,*6D
$GPGGA,215722.605,5649.75414,N,13221.91844,W,2,20,1.0,1.65,M,,,6,0135*12
$GPHDT,67.3,T*07
$GPVTG,57.8,T,,M,2.2,N,4.1,K,D*37
$GPRMC,215722.61,A,5649.75414,N,13221.91844,W,2.2,67.3,200923,,,d*59
$GPZDA,215723.0031,20,09,2023,,*6C
$PADCP,6,20230920,215723.54,-0.60
$GPGGA,215723.605,5649.75448,N,13221.91746,W,2,20,1.0,1.62,M,,,7,0135*11
$GPHDT,68.4,T*0F
$GPVTG,55.9,T,,M,2.4,N,4.4,K,D*37
$GPRMC,215723.61,A,5649.75448,N,13221.91746,W,2.4,68.4,200923,,,d*52
$GPZDA,215724.0031,20,09,2023,,*6B
$GPGGA,215724.605,5649.75482,N,13221.91647,W,2,20,1.0,1.60,M,,,7,0135*12
$GPHDT,70.2,T*00
$GPVTG,54.8,T,,M,2.3,N,4.3,K,D*37
$GPRMC,215724.61,A,5649.75482,N,13221.91647,W,2.3,70.2,200923,,,d*5B
$GPZDA,215725.0031,20,09,2023,,*6A
$GPGGA,215725.605,5649.75517,N,13221.91549,W,2,20,1.0,1.60,M,,,7,0135*13
$GPHDT,71.2,T*01
$GPVTG,56.9,T,,M,2.3,N,4.3,K,D*34
$GPRMC,215725.61,A,5649.75517,N,13221.91549,W,2.3,71.2,200923,,,d*5B
$GPZDA,215726.0031,20,09,2023,,*69
$PADCP,7,20230920,215726.81,-0.60
$GPGGA,215726.605,5649.75550,N,13221.91451,W,2,20,1.0,1.59,M,,,4,0135*12
$GPHDT,72.0,T*00
$GPVTG,58.0,T,,M,2.2,N,4.2,K,D*33
$GPRMC,215726.61,A,5649.75550,N,13221.91451,W,2.2,72.0,200923,,,d*53
$GPZDA,215727.0031,20,09,2023,,*68
$GPGGA,215727.605,5649.75581,N,13221.91353,W,2,20,1.0,1.59,M,,,5,0135*1B
$GPHDT,72.0,T*00
$GPVTG,59.2,T,,M,2.3,N,4.2,K,D*31
$GPRMC,215727.61,A,5649.75581,N,13221.91353,W,2.3,72.0,200923,,,d*5A
$GPZDA,215728.0031,20,09,2023,,*67
$GPGGA,215728.605,5649.75612,N,13221.91254,W,2,20,1.0,1.58,M,,,6,0135*19
$GPHDT,71.6,T*05
$GPVTG,60.2,T,,M,2.2,N,4.2,K,D*3A
$GPRMC,215728.61,A,5649.75612,N,13221.91254,W,2.2,71.6,200923,,,d*5E
$GPZDA,215729.0031,20,09,2023,,*66
$GPGGA,215729.605,5649.75643,N,13221.91156,W,2,20,1.0,1.58,M,,,7,0135*1C
$GPHDT,70.6,T*04
$GPVTG,58.8,T,,M,2.2,N,4.0,K,D*39
$PADCP,8,20230920,215730.08,0.40
$GPRMC,215729.61,A,5649.75643,N,13221.91156,W,2.2,70.6,200923,,,d*5B
$GPZDA,215730.0031,20,09,2023,,*6E
$GPGGA,215730.605,5649.75673,N,13221.91061,W,2,20,1.0,1.59,M,,,7,0135*13
$GPHDT,69.0,T*0A
$GPVTG,59.6,T,,M,2.2,N,4.0,K,D*36
$GPRMC,215730.61,A,5649.75673,N,13221.91061,W,2.2,69.0,200923,,,d*5B
$GPZDA,215731.0032,20,09,2023,,*6C
$GPGGA,215731.605,5649.75703,N,13221.90965,W,2,20,1.0,1.58,M,,,7,0135*19
$GPHDT,67.2,T*06
$GPVTG,58.9,T,,M,2.1,N,4.0,K,D*3B
$GPRMC,215731.61,A,5649.75703,N,13221.90965,W,2.1,67.2,200923,,,d*5F
$GPZDA,215732.0032,20,09,2023,,*6F
$GPGGA,215732.605,5649.75734,N,13221.90872,W,2,20,1.0,1.59,M,,,4,0135*1B
$GPHDT,65.7,T*01
$GPVTG,57.3,T,,M,2.2,N,4.0,K,D*3D
$GPRMC,215732.61,A,5649.75734,N,13221.90872,W,2.2,65.7,200923,,,d*5B
$GPZDA,215733.0032,20,09,2023,,*6E
$PADCP,9,20230920,215733.34,-0.60
$GPGGA,215733.605,5649.75764,N,13221.90778,W,2,20,1.0,1.57,M,,,5,0135*15
$GPHDT,64.3,T*04
$GPVTG,57.3,T,,M,2.1,N,4.0,K,D*3E
$GPRMC,215733.61,A,5649.75764,N,13221.90778,W,2.1,64.3,200923,,,d*5C
$GPZDA,215734.0032,20,09,2023,,*69
$GPGGA,215734.605,5649.75798,N,13221.90687,W,2,20,1.0,1.56,M,,,6,0135*12
$GPHDT,63.7,T*07
$GPVTG,53.3,T,,M,2.2,N,4.0,K,D*39
$GPRMC,215734.61,A,5649.75798,N,13221.90687,W,2.2,63.7,200923,,,d*59
$GPZDA,215735.0032,20,09,2023,,*68
$GPGGA,215735.605,5649.75835,N,13221.90598,W,2,20,1.0,1.58,M,,,7,0135*19
$GPHDT,63.7,T*07
$GPVTG,52.6,T,,M,2.2,N,4.1,K,D*3C
$GPRMC,215735.61,A,5649.75835,N,13221.90598,W,2.2,63.7,200923,,,d*5D
$GPZDA,215736.0032,20,09,2023,,*6B
$PADCP,10,20230920,215736.61,-0.60
$GPGGA,215736.605,5649.75871,N,13221.90507,W,2,20,1.0,1.56,M,,,7,0135*12
$GPHDT,63.6,T*06
$GPVTG,52.4,T,,M,2.2,N,4.1,K,D*3E
$GPRMC,215736.61,A,5649.75871,N,13221.90507,W,2.2,63.6,200923,,,d*59
$GPZDA,215737.0032,20,09,2023,,*6A
$GPGGA,215737.605,5649.75909,N,13221.90418,W,2,19,1.0,1.54,M,,,7,0135*1A
$GPHDT,63.5,T*05
$GPVTG,51.5,T,,M,2.2,N,4.1,K,D*3C
$GPRMC,215737.61,A,5649.75909,N,13221.90418,W,2.2,63.5,200923,,,d*5A
$GPZDA,215738.0032,20,09,2023,,*65
$GPGGA,215738.605,5649.75946,N,13221.90330,W,2,19,1.0,1.54,M,,,4,0135*10
$GPHDT,62.9,T*08
$GPVTG,52.0,T,,M,2.1,N,4.0,K,D*38
$GPRMC,215738.61,A,5649.75946,N,13221.90330,W,2.1,62.9,200923,,,d*5D
$GPZDA,215739.0032,20,09,2023,,*64
$PADCP,11,20230920,215739.88,-0.60
$GPGGA,215739.605,5649.75984,N,13221.90244,W,2,19,1.0,1.55,M,,,5,0135*1D
$GPHDT,62.3,T*02
$GPVTG,50.2,T,,M,2.2,N,4.1,K,D*3A
$GPRMC,215739.61,A,5649.75984,N,13221.90244,W,2.2,62.3,200923,,,d*59
$GPZDA,215740.0032,20,09,2023,,*6A
$GPGGA,215740.605,5649.76022,N,13221.90156,W,2,18,1.2,1.55,M,,,6,0135*15
$GPHDT,62.1,T*00
$GPVTG,50.8,T,,M,2.2,N,4.1,K,D*30
$GPRMC,215740.61,A,5649.76022,N,13221.90156,W,2.2,62.1,200923,,,d*53
$GPZDA,215741.0032,20,09,2023,,*6B
$GPGGA,215741.605,5649.76061,N,13221.90067,W,2,18,1.3,1.52,M,,,7,0135*17
$GPHDT,62.2,T*03
$GPVTG,52.4,T,,M,2.2,N,4.1,K,D*3E
$GPRMC,215741.61,A,5649.76061,N,13221.90067,W,2.2,62.2,200923,,,d*55
$GPZDA,215742.0032,20,09,2023,,*68
$GPGGA,215742.605,5649.76099,N,13221.89978,W,2,18,1.0,1.50,M,,,7,0135*1D
$GPHDT,62.3,T*02
$GPVTG,50.0,T,,M,2.2,N,4.1,K,D*38
$GPRMC,215742.61,A,5649.76099,N,13221.89978,W,2.2,62.3,200923,,,d*5F
$PADCP,12,20230920,215743.14,-0.60
$GPZDA,215743.0032,20,09,2023,,*69
$GPGGA,215743.605,5649.76139,N,13221.89888,W,2,18,1.3,1.50,M,,,7,0135*1A
$GPHDT,62.4,T*05
$GPVTG,50.9,T,,M,2.2,N,4.1,K,D*31
$GPRMC,215743.61,A,5649.76139,N,13221.89888,W,2.2,62.4,200923,,,d*5C
$GPZDA,215744.0032,20,09,2023,,*6E
$GPGGA,215744.605,5649.76179,N,13221.89798,W,2,18,1.1,1.47,M,,,4,0135*10
$GPHDT,62.1,T*00
$GPVTG,50.3,T,,M,2.2,N,4.2,K,D*38
$GPRMC,215744.61,A,5649.76179,N,13221.89798,W,2.2,62.1,200923,,,d*54
$GPZDA,215745.0032,20,09,2023,,*6F
$GPGGA,215745.605,5649.76219,N,13221.89710,W,2,18,1.3,1.47,M,,,5,0135*17
$GPHDT,62.2,T*03
$GPVTG,48.8,T,,M,2.2,N,4.1,K,D*39
$GPRMC,215745.61,A,5649.76219,N,13221.89710,W,2.2,62.2,200923,,,d*53
$GPZDA,215746.0032,20,09,2023,,*6C
$PADCP,13,20230920,215746.41,-0.60
$GPGGA,215746.605,5649.76261,N,13221.89622,W,2,18,1.3,1.47,M,,,6,0135*18
$GPHDT,61.9,T*0B
$GPVTG,49.5,T,,M,2.3,N,4.2,K,D*37
$GPRMC,215746.61,A,5649.76261,N,13221.89622,W,2.3,61.9,200923,,,d*56
$GPZDA,215747.0032,20,09,2023,,*6D
$GPGGA,215747.605,5649.76300,N,13221.89532,W,2,18,1.3,1.44,M,,,7,0135*1F
$GPHDT,61.7,T*05
$GPVTG,50.4,T,,M,2.2,N,4.1,K,D*3C
$GPRMC,215747.61,A,5649.76300,N,13221.89532,W,2.2,61.7,200923,,,d*5C
$GPZDA,215748.0032,20,09,2023,,*62
$GPGGA,215748.605,5649.76341,N,13221.89444,W,2,18,1.3,1.45,M,,,7,0135*14
$GPHDT,61.7,T*05
$GPVTG,48.8,T,,M,2.2,N,4.1,K,D*39
$GPRMC,215748.61,A,5649.76341,N,13221.89444,W,2.2,61.7,200923,,,d*56
$GPZDA,215749.0032,20,09,2023,,*63
$PADCP,14,20230920,215749.67,-0.60
$GPGGA,215749.605,5649.76382,N,13221.89356,W,2,18,1.3,1.45,M,,,7,0135*1E
$GPHDT,61.8,T*0A
$GPVTG,49.9,T,,M,2.3,N,4.2,K,D*3B
$GPRMC,215749.61,A,5649.76382,N,13221.89356,W,2.3,61.8,200923,,,d*52
$GPZDA,215750.0032,20,09,2023,,*6B
$GPGGA,215750.605,5649.76422,N,13221.89267,W,2,18,1.1,1.41,M,,,4,0135*1D
$GPHDT,61.9,T*0B
$GPVTG,50.5,T,,M,2.2,N,4.1,K,D*3D
$GPRMC,215750.61,A,5649.76422,N,13221.89267,W,2.2,61.9,200923,,,d*54
$GPZDA,215751.0032,20,09,2023,,*6A
$GPGGA,215751.605,5649.76463,N,13221.89180,W,2,18,1.1,1.41,M,,,5,0135*12
$GPHDT,61.7,T*05
$GPVTG,49.6,T,,M,2.2,N,4.1,K,D*36
$GPRMC,215751.61,A,5649.76463,N,13221.89180,W,2.2,61.7,200923,,,d*54
$GPZDA,215752.0032,20,09,2023,,*69
$PADCP,15,20230920,215752.93,0.40
$GPGGA,215752.605,5649.76503,N,13221.89092,W,2,18,1.1,1.41,M,,,6,0135*17
$GPHDT,61.0,T*02
$GPVTG,51.9,T,,M,2.2,N,4.1,K,D*30
$GPRMC,215752.61,A,5649.76503,N,13221.89092,W,2.2,61.0,200923,,,d*55
$GPZDA,215753.0032,20,09,2023,,*68
$GPGGA,215753.605,5649.76542,N,13221.89005,W,2,18,1.1,1.38,M,,,7,0135*12
$GPHDT,60.8,T*0B
$GPVTG,49.6,T,,M,2.2,N,4.0,K,D*37
$GPRMC,215753.61,A,5649.76542,N,13221.89005,W,2.2,60.8,200923,,,d*56
$GPZDA,215754.0033,20,09,2023,,*6E
$GPGGA,215754.605,5649.76582,N,13221.88919,W,2,18,1.1,1.38,M,,,7,0135*1C
$GPHDT,60.6,T*05
$GPVTG,49.6,T,,M,2.2,N,4.1,K,D*36
$GPRMC,215754.61,A,5649.76582,N,13221.88919,W,2.2,60.6,200923,,,d*56
$GPZDA,215755.0033,20,09,2023,,*6F
$GPGGA,215755.605,5649.76623,N,13221.88833,W,2,18,1.1,1.39,M,,,7,0135*1D
$GPHDT,60.4,T*07
$GPVTG,49.3,T,,M,2.2,N,4.1,K,D*33
$GPRMC,215755.61,A,5649.76623,N,13221.88833,W,2.2,60.4,200923,,,d*54
$PADCP,16,20230920,215756.20,-0.60
$GPZDA,215756.0033,20,09,2023,,*6C
$GPGGA,215756.605,5649.76665,N,13221.88745,W,2,18,1.1,1.38,M,,,4,0135*10
$GPHDT,60.7,T*04
$GPVTG,49.4,T,,M,2.3,N,4.2,K,D*36
$GPRMC,215756.61,A,5649.76665,N,13221.88745,W,2.3,60.7,200923,,,d*59
$GPZDA,215757.0033,20,09,2023,,*6D
$GPGGA,215757.605,5649.76707,N,13221.88659,W,2,18,1.3,1.37,M,,,5,0135*14
$GPHDT,62.0,T*01
$GPVTG,48.1,T,,M,2.2,N,4.1,K,D*30
$GPRMC,215757.61,A,5649.76707,N,13221.88659,W,2.2,62.0,200923,,,d*55
$GPZDA,215758.0033,20,09,2023,,*62
$GPGGA,215758.605,5649.76748,N,13221.88577,W,2,18,1.3,1.38,M,,,6,0135*13
$GPHDT,63.6,T*06
$GPVTG,47.7,T,,M,2.1,N,3.8,K,D*34
$GPRMC,215758.61,A,5649.76748,N,13221.88577,W,2.1,63.6,200923,,,d*5A
$GPZDA,215759.0033,20,09,2023,,*63
$PADCP,17,20230920,215759.47,0.40
$GPGGA,215759.605,5649.76785,N,13221.88501,W,2,18,1.3,1.40,M,,,7,0135*1C
$GPHDT,65.1,T*07
$GPVTG,49.5,T,,M,1.9,N,3.6,K,D*3D
$GPRMC,215759.61,A,5649.76785,N,13221.88501,W,1.9,65.1,200923,,,d*51
$GPZDA,215800.0033,20,09,2023,,*60
$GPGGA,215800.605,5649.76819,N,13221.88429,W,2,18,1.3,1.39,M,,,7,0135*10
$GPHDT,66.8,T*0D
$GPVTG,50.2,T,,M,1.8,N,3.3,K,D*36
$GPRMC,215800.61,A,5649.76819,N,13221.88429,W,1.8,66.8,200923,,,d*58
$GPZDA,215801.0033,20,09,2023,,*61
$GPGGA,215801.605,5649.76849,N,13221.88361,W,2,18,1.3,1.37,M,,,7,0135*11
$GPHDT,68.5,T*0E
$GPVTG,52.2,T,,M,1.7,N,3.1,K,D*39
$GPRMC,215801.61,A,5649.76849,N,13221.88361,W,1.7,68.5,200923,,,d*5B
$GPZDA,215802.0033,20,09,2023,,*62
$PADCP,18,20230920,215802.73,-0.60
$GPGGA,215802.605,5649.76878,N,13221.88296,W,2,18,1.3,1.36,M,,,4,0135*1B
$GPHDT,70.5,T*07
$GPVTG,52.1,T,,M,1.6,N,2.9,K,D*32
$GPRMC,215802.61,A,5649.76878,N,13221.88296,W,1.6,70.5,200923,,,d*5B
$GPZDA,215803.0033,20,09,2023,,*63
$GPGGA,215803.605,5649.76903,N,13221.88233,W,2,18,1.3,1.36,M,,,5,0135*19
$GPHDT,72.3,T*03
$GPVTG,54.5,T,,M,1.5,N,2.7,K,D*3D
$GPRMC,215803.61,A,5649.76903,N,13221.88233,W,1.5,72.3,200923,,,d*5F
$GPZDA,215804.0033,20,09,2023,,*64
$GPGGA,215804.605,5649.76926,N,13221.88173,W,2,18,1.1,1.36,M,,,6,0135*1F
$GPHDT,74.2,T*04
$GPVTG,57.7,T,,M,1.4,N,2.5,K,D*3F
$GPRMC,215804.61,A,5649.76926,N,13221.88173,W,1.4,74.2,200923,,,d*5E
$GPZDA,215805.0033,20,09,2023,,*65
$GPGGA,215805.605,5649.76947,N,13221.88113,W,2,18,1.3,1.37,M,,,7,0135*1D
$PADCP,19,20230920,215806.00,0.40
$GPHDT,76.3,T*07
$GPVTG,59.2,T,,M,1.3,N,2.5,K,D*33
$GPRMC,215805.61,A,5649.76947,N,13221.88113,W,1.3,76.3,200923,,,d*5A
$GPZDA,215806.0033,20,09,2023,,*66
$GPGGA,215806.605,5649.76964,N,13221.88054,W,2,18,1.3,1.35,M,,,7,0135*1F
$GPHDT,78.9,T*03
$GPVTG,63.6,T,,M,1.3,N,2.4,K,D*3F
$GPRMC,215806.61,A,5649.76964,N,13221.88054,W,1.3,78.9,200923,,,d*5E
$GPZDA,215807.0033,20,09,2023,,*67
$GPGGA,215807.605,5649.76979,N,13221.87996,W,2,18,1.3,1.35,M,,,7,0135*1A
$GPHDT,81.6,T*0A
$GPVTG,65.2,T,,M,1.2,N,2.2,K,D*3A
$GPRMC,215807.61,A,5649.76979,N,13221.87996,W,1.2,81.6,200923,,,d*53
$GPZDA,215808.0033,20,09,2023,,*68
$GPGGA,215808.605,5649.76992,N,13221.87938,W,2,18,1.3,1.36,M,,,4,0135*14
$GPHDT,84.2,T*0B
$GPVTG,70.3,T,,M,1.2,N,2.2,K,D*3F
$GPRMC,215808.61,A,5649.76992,N,13221.87938,W,1.2,84.2,200923,,,d*5C
$PADCP,20,20230920,215809.26,-0.60
$GPZDA,215809.0033,20,09,2023,,*69
$GPGGA,215809.605,5649.77002,N,13221.87882,W,2,18,1.3,1.34,M,,,5,0135*17
$GPHDT,86.6,T*0D
$GPVTG,74.6,T,,M,1.1,N,2.0,K,D*3F
$GPRMC,215809.61,A,5649.77002,N,13221.87882,W,1.1,86.6,200923,,,d*59
$GPZDA,215810.0033,20,09,2023,,*61
$GPGGA,215810.605,5649.77009,N,13221.87827,W,2,18,1.3,1.34,M,,,6,0135*18
$GPHDT,88.7,T*02
$GPVTG,80.9,T,,M,1.1,N,2.0,K,D*3B
$GPRMC,215810.61,A,5649.77009,N,13221.87827,W,1.1,88.7,200923,,,d*5A
$GPZDA,215811.0033,20,09,2023,,*60
$GPGGA,215811.605,5649.77012,N,13221.87772,W,2,18,1.3,1.34,M,,,7,0135*1D
$GPHDT,90.6,T*0A
$GPVTG,85.6,T,,M,1.0,N,1.9,K,D*3A
$GPRMC,215811.61,A,5649.77012,N,13221.87772,W,1.0,90.6,200923,,,d*57
$GPZDA,215812.0033,20,09,2023,,*63
$PADCP,21,20230920,215812.53,-0.60
$GPGGA,215812.605,5649.77013,N,13221.87718,W,2,18,1.3,1.33,M,,,7,0135*14
$GPHDT,91.9,T*04
$GPVTG,93.9,T,,M,1.0,N,1.9,K,D*32
$GPRMC,215812.61,A,5649.77013,N,13221.87718,W,1.0,91.9,200923,,,d*57
$GPZDA,215813.0033,20,09,2023,,*62
$GPGGA,215813.605,5649.77011,N,13221.87667,W,2,18,1.3,1.33,M,,,7,0135*1E
$GPHDT,92.7,T*09
$GPVTG,95.4,T,,M,1.0,N,1.8,K,D*38
$GPRMC,215813.61,A,5649.77011,N,13221.87667,W,1.0,92.7,200923,,,d*50
$GPZDA,215814.0033,20,09,2023,,*65
$GPGGA,215814.605,5649.77008,N,13221.87617,W,2,18,1.3,1.32,M,,,4,0135*14
$GPHDT,93.3,T*0C
$GPVTG,99.4,T,,M,1.0,N,1.8,K,D*34
$GPRMC,215814.61,A,5649.77008,N,13221.87617,W,1.0,93.3,200923,,,d*5D
$GPZDA,215815.0033,20,09,2023,,*64
$PADCP,22,20230920,215815.80,-0.60
$GPGGA,215815.605,5649.77002,N,13221.87569,W,2,18,1.3,1.33,M,,,5,0135*15
$GPHDT,93.4,T*0B
$GPVTG,102.7,T,,M,1.0,N,1.8,K,D*04
$GPRMC,215815.61,A,5649.77002,N,13221.87569,W,1.0,93.4,200923,,,d*5B
$GPZDA,215816.0033,20,09,2023,,*67
$GPGGA,215816.605,5649.76995,N,13221.87522,W,2,18,1.3,1.33,M,,,6,0135*1C
$GPHDT,93.5,T*0A
$GPVTG,113.0,T,,M,0.9,N,1.7,K,D*04
$GPRMC,215816.61,A,5649.76995,N,13221.87522,W,0.9,93.5,200923,,,d*58
$GPZDA,215817.0034,20,09,2023,,*61
$GPGGA,215817.605,5649.76985,N,13221.87480,W,2,18,1.3,1.31,M,,,7,0135*16
$GPHDT,93.5,T*0A
$GPVTG,108.1,T,,M,0.9,N,1.6,K,D*0E
$GPRMC,215817.61,A,5649.76985,N,13221.87480,W,0.9,93.5,200923,,,d*51
$GPZDA,215818.0034,20,09,2023,,*6E
$GPGGA,215818.605,5649.76976,N,13221.87437,W,2,18,1.3,1.34,M,,,7,0135*1C
$GPHDT,93.0,T*0F
$GPVTG,118.5,T,,M,0.9,N,1.6,K,D*0B
$PADCP,23,20230920,215819.06,-0.60
$GPRMC,215818.61,A,5649.76976,N,13221.87437,W,0.9,93.0,200923,,,d*5B
$GPZDA,215819.0034,20,09,2023,,*6F
$GPGGA,215819.605,5649.76964,N,13221.87397,W,2,18,1.3,1.32,M,,,7,0135*15
$GPHDT,92.5,T*0B
$GPVTG,114.3,T,,M,0.9,N,1.6,K,D*01
$GPRMC,215819.61,A,5649.76964,N,13221.87397,W,0.9,92.5,200923,,,d*50
$GPZDA,215820.0034,20,09,2023,,*65
$GPGGA,215820.605,5649.76955,N,13221.87356,W,2,18,1.3,1.35,M,,,4,0135*14
$GPHDT,91.6,T*0B
$GPVTG,114.3,T,,M,0.8,N,1.6,K,D*00
$GPRMC,215820.61,A,5649.76955,N,13221.87356,W,0.8,91.6,200923,,,d*54
$GPZDA,215821.0034,20,09,2023,,*64
$GPGGA,215821.605,5649.76945,N,13221.87317,W,2,18,1.3,1.34,M,,,5,0135*11
$GPHDT,90.3,T*0F
$GPVTG,117.8,T,,M,0.9,N,1.6,K,D*09
$GPRMC,215821.61,A,5649.76945,N,13221.87317,W,0.9,90.3,200923,,,d*54
$PADCP,24,20230920,215822.33,-0.60
$GPZDA,215822.0034,20,09,2023,,*67
$GPGGA,215822.605,5649.76936,N,13221.87277,W,2,18,1.3,1.33,M,,,6,0135*15
$GPHDT,89.1,T*05
$GPVTG,108.8,T,,M,0.8,N,1.5,K,D*05
$GPRMC,215822.61,A,5649.76936,N,13221.87277,W,0.8,89.1,200923,,,d*5F
$GPZDA,215823.0034,20,09,2023,,*66
$GPGGA,215823.605,5649.76928,N,13221.87236,W,2,18,1.3,1.34,M,,,7,0135*18
$GPHDT,88.0,T*05
$GPVTG,111.9,T,,M,0.8,N,1.6,K,D*0F
$GPRMC,215823.61,A,5649.76928,N,13221.87236,W,0.8,88.0,200923,,,d*54
$GPZDA,215824.0034,20,09,2023,,*61
$GPGGA,215824.605,5649.76919,N,13221.87196,W,2,18,1.3,1.33,M,,,7,0135*13
$GPHDT,87.4,T*0E
$GPVTG,108.0,T,,M,0.8,N,1.5,K,D*0D
$GPRMC,215824.61,A,5649.76919,N,13221.87196,W,0.8,87.4,200923,,,d*53
$GPZDA,215825.0034,20,09,2023,,*60
$PADCP,25,20230920,215825.60,-0.60
$GPGGA,215825.605,5649.76912,N,13221.87154,W,2,18,1.3,1.33,M,,,7,0135*17
$GPHDT,86.9,T*02
$GPVTG,105.0,T,,M,0.8,N,1.6,K,D*03
$GPRMC,215825.61,A,5649.76912,N,13221.87154,W,0.8,86.9,200923,,,d*5B
$GPZDA,215826.0034,20,09,2023,,*63
$GPGGA,215826.605,5649.76906,N,13221.87114,W,2,18,1.3,1.36,M,,,4,0135*13
$GPHDT,86.7,T*0C
$GPVTG,103.7,T,,M,0.8,N,1.5,K,D*01
$GPRMC,215826.61,A,5649.76906,N,13221.87114,W,0.8,86.7,200923,,,d*57
$GPZDA,215827.0034,20,09,2023,,*62
$GPGGA,215827.605,5649.76899,N,13221.87072,W,2,18,1.3,1.36,M,,,5,0135*15
$GPHDT,86.7,T*0C
$GPVTG,104.8,T,,M,0.9,N,1.6,K,D*0B
$GPRMC,215827.61,A,5649.76899,N,13221.87072,W,0.9,86.7,200923,,,d*51
$GPZDA,215828.0034,20,09,2023,,*6D
$PADCP,26,20230920,215828.86,-0.60
$GPGGA,215828.606,5649.76893,N,13221.87030,W,2,18,1.3,1.35,M,,,6,0135*15
$GPHDT,86.9,T*02
$GPVTG,103.0,T,,M,0.8,N,1.5,K,D*06
$GPRMC,215828.61,A,5649.76893,N,13221.87030,W,0.8,86.9,200923,,,d*5D
$GPZDA,215829.0034,20,09,2023,,*6C
$GPGGA,215829.606,5649.76888,N,13221.86987,W,2,18,1.3,1.35,M,,,7,0135*1B
$GPHDT,87.2,T*08
$GPVTG,99.9,T,,M,0.9,N,1.6,K,D*3F
$GPRMC,215829.61,A,5649.76888,N,13221.86987,W,0.9,87.2,200923,,,d*59
$GPZDA,215830.0034,20,09,2023,,*64
$GPGGA,215830.606,5649.76883,N,13221.86942,W,2,18,1.3,1.36,M,,,7,0135*12
$GPHDT,87.7,T*0D
$GPVTG,101.4,T,,M,0.9,N,1.6,K,D*02
$GPRMC,215830.61,A,5649.76883,N,13221.86942,W,0.9,87.7,200923,,,d*56
$GPZDA,215831.0034,20,09,2023,,*65
$GPGGA,215831.606,5649.76878,N,13221.86897,W,2,18,1.3,1.36,M,,,7,0135*1E
$GPHDT,88.1,T*04
$GPVTG,98.4,T,,M,0.9,N,1.7,K,D*32
$GPRMC,215831.61,A,5649.76878,N,13221.86897,W,0.9,88.1,200923,,,d*53
$PADCP,27,20230920,215832.13,0.39
$GPZDA,215832.0034,20,09,2023,,*66
$GPGGA,215832.606,5649.76874,N,13221.86851,W,2,18,1.3,1.35,M,,,4,0135*1B
$GPHDT,88.6,T*03
$GPVTG,98.1,T,,M,0.9,N,1.6,K,D*36
$GPRMC,215832.61,A,5649.76874,N,13221.86851,W,0.9,88.6,200923,,,d*51
$GPZDA,215833.0034,20,09,2023,,*67
$GPGGA,215833.606,5649.76870,N,13221.86805,W,2,18,1.3,1.33,M,,,5,0135*18
$GPHDT,89.2,T*06
$GPVTG,98.8,T,,M,0.9,N,1.7,K,D*3E
$GPRMC,215833.61,A,5649.76870,N,13221.86805,W,0.9,89.2,200923,,,d*50
$GPZDA,215834.0034,20,09,2023,,*60
$GPGGA,215834.606,5649.76867,N,13221.86761,W,2,18,1.3,1.35,M,,,6,0135*11
$GPHDT,89.7,T*03
$GPVTG,95.9,T,,M,0.9,N,1.6,K,D*33
$GPRMC,215834.61,A,5649.76867,N,13221.86761,W,0.9,89.7,200923,,,d*59
$GPZDA,215835.0034,20,09,2023,,*61
$PADCP,28,20230920,215835.40,0.39
$GPGGA,215835.606,5649.76863,N,13221.86715,W,2,18,1.3,1.36,M,,,7,0135*15
$GPHDT,90.3,T*0F
$GPVTG,101.0,T,,M,0.9,N,1.7,K,D*07
$GPRMC,215835.61,A,5649.76863,N,13221.86715,W,0.9,90.3,200923,,,d*53
$GPZDA,215836.0034,20,09,2023,,*62
$GPGGA,215836.606,5649.76858,N,13221.86670,W,2,18,1.3,1.35,M,,,7,0135*1F
$GPHDT,91.0,T*0D
$GPVTG,98.5,T,,M,0.9,N,1.7,K,D*33
$GPRMC,215836.61,A,5649.76858,N,13221.86670,W,0.9,91.0,200923,,,d*58
$GPZDA,215837.0034,20,09,2023,,*63
$GPGGA,215837.606,5649.76854,N,13221.86625,W,2,18,1.3,1.35,M,,,7,0135*12
$GPHDT,91.5,T*08
$GPVTG,98.9,T,,M,0.9,N,1.6,K,D*3E
$GPRMC,215837.61,A,5649.76854,N,13221.86625,W,0.9,91.5,200923,,,d*50
$GPZDA,215838.0034,20,09,2023,,*6C
$PADCP,29,20230920,215838.66,0.39
$GPGGA,215838.606,5649.76850,N,13221.86579,W,2,18,1.3,1.35,M,,,4,0135*10
$GPHDT,92.1,T*0F
$GPVTG,99.6,T,,M,0.9,N,1.7,K,D*31
$GPRMC,215838.61,A,5649.76850,N,13221.86579,W,0.9,92.1,200923,,,d*56
$GPZDA,215839.0035,20,09,2023,,*6C
$GPGGA,215839.606,5649.76846,N,13221.86533,W,2,18,1.3,1.34,M,,,5,0135*18
$GPHDT,92.6,T*08
$GPVTG,99.1,T,,M,0.9,N,1.7,K,D*36
$GPRMC,215839.61,A,5649.76846,N,13221.86533,W,0.9,92.6,200923,,,d*59
$GPZDA,215840.0035,20,09,2023,,*62
$GPGGA,215840.606,5649.76843,N,13221.86486,W,2,18,1.3,1.34,M,,,6,0135*1F
$GPHDT,92.9,T*07
$GPVTG,98.7,T,,M,0.9,N,1.7,K,D*31
$GPRMC,215840.61,A,5649.76843,N,13221.86486,W,0.9,92.9,200923,,,d*52
$GPZDA,215841.0035,20,09,2023,,*63
$PADCP,30,20230920,215841.93,0.39
$GPGGA,215841.606,5649.76839,N,13221.86440,W,2,18,1.3,1.34,M,,,7,0135*18
$GPHDT,92.9,T*07
$GPVTG,101.0,T,,M,0.9,N,1.7,K,D*07
$GPRMC,215841.61,A,5649.76839,N,13221.86440,W,0.9,92.9,200923,,,d*54
$GPZDA,215842.0035,20,09,2023,,*60
$GPGGA,215842.606,5649.76835,N,13221.86394,W,2,18,1.3,1.33,M,,,7,0135*1E
$GPHDT,92.7,T*09
$GPVTG,97.9,T,,M,0.9,N,1.6,K,D*31
$GPRMC,215842.61,A,5649.76835,N,13221.86394,W,0.9,92.7,200923,,,d*5B
$GPZDA,215843.0035,20,09,2023,,*61
$GPGGA,215843.606,5649.76831,N,13221.86349,W,2,18,1.3,1.34,M,,,7,0135*1C
$GPHDT,92.4,T*0A
$GPVTG,99.7,T,,M,0.9,N,1.6,K,D*31
$GPRMC,215843.61,A,5649.76831,N,13221.86349,W,0.9,92.4,200923,,,d*5D
$GPZDA,215844.0035,20,09,2023,,*66
$GPGGA,215844.606,5649.76826,N,13221.86305,W,2,18,1.3,1.33,M,,,4,0135*11
$GPHDT,91.9,T*04
$GPVTG,101.6,T,,M,0.9,N,1.6,K,D*00
$GPRMC,215844.61,A,5649.76826,N,13221.86305,W,0.9,91.9,200923,,,d*5A
$PADCP,31,20230920,215845.19,0.39
$GPZDA,215845.0035,20,09,2023,,*67
$GPGGA,215845.606,5649.76821,N,13221.86260,W,2,18,1.3,1.32,M,,,5,0135*15
$GPHDT,91.5,T*08
$GPVTG,98.9,T,,M,0.9,N,1.6,K,D*3E
$GPRMC,215845.61,A,5649.76821,N,13221.86260,W,0.9,91.5,200923,,,d*52
$GPZDA,215846.0035,20,09,2023,,*64
$GPGGA,215846.606,5649.76817,N,13221.86216,W,2,18,1.3,1.32,M,,,6,0135*11
$GPHDT,91.0,T*0D
$GPVTG,101.8,T,,M,0.9,N,1.6,K,D*0E
$GPRMC,215846.61,A,5649.76817,N,13221.86216,W,0.9,91.0,200923,,,d*50
$GPZDA,215847.0035,20,09,2023,,*65
$GPGGA,215847.606,5649.76813,N,13221.86171,W,2,18,1.3,1.32,M,,,7,0135*17
$GPHDT,90.5,T*09
$GPVTG,97.4,T,,M,0.9,N,1.7,K,D*3D
$GPRMC,215847.61,A,5649.76813,N,13221.86171,W,0.9,90.5,200923,,,d*53
$GPZDA,215848.0035,20,09,2023,,*6A
$PADCP,32,20230920,215848.46,0.39
$GPGGA,215848.606,5649.76809,N,13221.86125,W,2,18,1.3,1.32,M,,,7,0135*12
$GPHDT,89.9,T*0D
$GPVTG,99.6,T,,M,0.9,N,1.6,K,D*30
$GPRMC,215848.61,A,5649.76809,N,13221.86125,W,0.9,89.9,200923,,,d*52
$GPZDA,215849.0035,20,09,2023,,*6B
$GPGGA,215849.606,5649.76806,N,13221.86080,W,2,18,1.3,1.31,M,,,7,0135*11
$GPHDT,89.3,T*07
$GPVTG,96.5,T,,M,0.9,N,1.7,K,D*3D
$GPRMC,215849.61,A,5649.76806,N,13221.86080,W,0.9,89.3,200923,,,d*58
$GPZDA,215850.0035,20,09,2023,,*63
$GPGGA,215850.606,5649.76804,N,13221.86036,W,2,18,1.3,1.31,M,,,4,0135*15
$GPHDT,88.6,T*03
$GPVTG,97.3,T,,M,0.9,N,1.6,K,D*3B
$GPRMC,215850.61,A,5649.76804,N,13221.86036,W,0.9,88.6,200923,,,d*5B
$GPZDA,215851.0035,20,09,2023,,*62
$PADCP,33,20230920,215851.73,0.39
$GPGGA,215851.606,5649.76801,N,13221.85991,W,2,18,1.3,1.30,M,,,5,0135*16
$GPHDT,88.1,T*04
$GPVTG,97.5,T,,M,0.9,N,1.6,K,D*3D
$GPRMC,215851.61,A,5649.76801,N,13221.85991,W,0.9,88.1,200923,,,d*5F
$GPZDA,215852.0035,20,09,2023,,*61
$GPGGA,215852.606,5649.76798,N,13221.85945,W,2,18,1.3,1.29,M,,,6,0135*18
$GPHDT,87.3,T*09
$GPVTG,98.7,T,,M,0.9,N,1.7,K,D*31
$GPRMC,215852.61,A,5649.76798,N,13221.85945,W,0.9,87.3,200923,,,d*57
$GPZDA,215853.0035,20,09,2023,,*60
$GPGGA,215853.606,5649.76794,N,13221.85900,W,2,18,1.3,1.27,M,,,7,0135*1B
$GPHDT,86.8,T*03
$GPVTG,98.9,T,,M,0.9,N,1.6,K,D*3E
$GPRMC,215853.61,A,5649.76794,N,13221.85900,W,0.9,86.8,200923,,,d*51
$GPZDA,215854.0035,20,09,2023,,*67
$GPGGA,215854.606,5649.76791,N,13221.85856,W,2,18,1.3,1.27,M,,,7,0135*1B
$GPHDT,86.2,T*09
$PADCP,34,20230920,215855.00,-0.61
$GPVTG,96.2,T,,M,0.8,N,1.6,K,D*3A
$GPRMC,215854.61,A,5649.76791,N,13221.85856,W,0.8,86.2,200923,,,d*5A
$GPZDA,215855.0035,20,09,2023,,*66
$GPGGA,215855.606,5649.76788,N,13221.85812,W,2,18,1.3,1.26,M,,,7,0135*13
$GPHDT,85.9,T*01
$GPVTG,99.0,T,,M,0.9,N,1.6,K,D*36
$GPRMC,215855.61,A,5649.76788,N,13221.85812,W,0.9,85.9,200923,,,d*5A
$GPZDA,215856.0035,20,09,2023,,*65
$GPGGA,215856.606,5649.76785,N,13221.85769,W,2,18,1.3,1.23,M,,,4,0135*18
$GPHDT,85.5,T*0D
$GPVTG,92.0,T,,M,0.8,N,1.5,K,D*3F
$GPRMC,215856.61,A,5649.76785,N,13221.85769,W,0.8,85.5,200923,,,d*5A
$GPZDA,215857.0035,20,09,2023,,*64
$GPGGA,215857.606,5649.76783,N,13221.85726,W,2,18,1.3,1.25,M,,,5,0135*13
$GPHDT,85.0,T*08
$GPVTG,91.0,T,,M,0.8,N,1.5,K,D*3C
$GPRMC,215857.61,A,5649.76783,N,13221.85726,W,0.8,85.0,200923,,,d*53
$PADCP,35,20230920,215858.26,-0.61
$GPZDA,215858.0035,20,09,2023,,*6B
$GPGGA,215858.606,5649.76781,N,13221.85683,W,2,18,1.3,1.26,M,,,6,0135*10
$GPHDT,84.6,T*0F
$GPVTG,93.5,T,,M,0.9,N,1.6,K,D*39
$GPRMC,215858.61,A,5649.76781,N,13221.85683,W,0.9,84.6,200923,,,d*56
$GPZDA,215859.0035,20,09,2023,,*6A
$GPGGA,215859.606,5649.76779,N,13221.85637,W,2,18,1.3,1.23,M,,,7,0135*1D
$GPHDT,83.8,T*06
$GPVTG,89.4,T,,M,0.9,N,1.6,K,D*33
$GPRMC,215859.61,A,5649.76779,N,13221.85637,W,0.9,83.8,200923,,,d*56
$GPZDA,215900.0036,20,09,2023,,*64
$GPGGA,215900.606,5649.76778,N,13221.85593,W,2,18,1.3,1.23,M,,,7,0135*1C
$GPHDT,83.3,T*0D
$GPVTG,88.1,T,,M,0.8,N,1.5,K,D*35
$GPRMC,215900.61,A,5649.76778,N,13221.85593,W,0.8,83.3,200923,,,d*5D
$GPZDA,215901.0036,20,09,2023,,*65
$PADCP,36,20230920,215901.53,0.39
$GPGGA,215901.606,5649.76779,N,13221.85552,W,2,18,1.3,1.23,M,,,7,0135*11
$GPHDT,82.3,T*0C
$GPVTG,83.2,T,,M,0.8,N,1.5,K,D*3D
$GPRMC,215901.61,A,5649.76779,N,13221.85552,W,0.8,82.3,200923,,,d*51
$GPZDA,215902.0036,20,09,2023,,*66
$GPGGA,215902.606,5649.76780,N,13221.85511,W,2,18,1.3,1.24,M,,,4,0135*17
$GPHDT,81.5,T*09
$GPVTG,85.9,T,,M,0.8,N,1.5,K,D*30
$GPRMC,215902.61,A,5649.76780,N,13221.85511,W,0.8,81.5,200923,,,d*56
$GPZDA,215903.0036,20,09,2023,,*67
$GPGGA,215903.606,5649.76781,N,13221.85469,W,2,18,1.3,1.23,M,,,5,0135*1F
$GPHDT,80.9,T*04
$GPVTG,87.3,T,,M,0.8,N,1.5,K,D*38
$GPRMC,215903.61,A,5649.76781,N,13221.85469,W,0.8,80.9,200923,,,d*55
$GPZDA,215904.0036,20,09,2023,,*60
$PADCP,37,20230920,215904.80,-0.61
$GPGGA,215904.606,5649.76782,N,13221.85428,W,2,18,1.3,1.23,M,,,6,0135*1D
$GPHDT,80.9,T*04
$GPVTG,85.8,T,,M,0.8,N,1.5,K,D*31
$GPRMC,215904.61,A,5649.76782,N,13221.85428,W,0.8,80.9,200923,,,d*54
$GPZDA,215905.0036,20,09,2023,,*61
$GPGGA,215905.606,5649.76783,N,13221.85387,W,2,18,1.3,1.23,M,,,7,0135*1E
$GPHDT,81.0,T*0C
$GPVTG,89.8,T,,M,0.8,N,1.5,K,D*3D
$GPRMC,215905.61,A,5649.76783,N,13221.85387,W,0.8,81.0,200923,,,d*5E
$GPZDA,215906.0036,20,09,2023,,*62
$GPGGA,215906.606,5649.76783,N,13221.85346,W,2,18,1.3,1.21,M,,,7,0135*12
$GPHDT,81.1,T*0D
$GPVTG,86.9,T,,M,0.8,N,1.5,K,D*33
$GPRMC,215906.61,A,5649.76783,N,13221.85346,W,0.8,81.1,200923,,,d*51
$GPZDA,215907.0036,20,09,2023,,*63
$GPGGA,215907.606,5649.76784,N,13221.85305,W,2,18,1.3,1.20,M,,,7,0135*12
$GPHDT,81.4,T*08
$GPVTG,88.5,T,,M,0.8,N,1.5,K,D*31
$PADCP,38,20230920,215908.06,0.39
$GPRMC,215907.61,A,5649.76784,N,13221.85305,W,0.8,81.4,200923,,,d*55
$GPZDA,215908.0036,20,09,2023,,*6C
$GPGGA,215908.606,5649.76785,N,13221.85264,W,2,18,1.3,1.20,M,,,4,0135*19
$GPHDT,81.7,T*0B
$GPVTG,85.2,T,,M,0.8,N,1.4,K,D*3A
$GPRMC,215908.61,A,5649.76785,N,13221.85264,W,0.8,81.7,200923,,,d*5E
$GPZDA,215909.0036,20,09,2023,,*6D
$GPGGA,215909.606,5649.76786,N,13221.85225,W,2,18,1.3,1.19,M,,,5,0135*15
$GPHDT,81.4,T*08
$GPVTG,87.3,T,,M,0.8,N,1.4,K,D*39
$GPRMC,215909.61,A,5649.76786,N,13221.85225,W,0.8,81.4,200923,,,d*5A
$GPZDA,215910.0036,20,09,2023,,*65
$GPGGA,215910.606,5649.76787,N,13221.85185,W,2,18,1.3,1.16,M,,,6,0135*19
$GPHDT,81.1,T*0D
$GPVTG,86.9,T,,M,0.8,N,1.4,K,D*32
$GPRMC,215910.61,A,5649.76787,N,13221.85185,W,0.8,81.1,200923,,,d*5F
$GPZDA,215911.0036,20,09,2023,,*64
$PADCP,39,20230920,215911.33,-0.61
$GPGGA,215911.606,5649.76788,N,13221.85145,W,2,18,1.3,1.16,M,,,7,0135*1A
$GPHDT,80.8,T*05
$GPVTG,84.8,T,,M,0.8,N,1.4,K,D*31
$GPRMC,215911.61,A,5649.76788,N,13221.85145,W,0.8,80.8,200923,,,d*55
$GPZDA,215912.0036,20,09,2023,,*67
$GPGGA,215912.606,5649.76790,N,13221.85107,W,2,18,1.3,1.15,M,,,7,0135*15
$GPHDT,80.3,T*0E
$GPVTG,84.4,T,,M,0.8,N,1.4,K,D*3D
$GPRMC,215912.61,A,5649.76790,N,13221.85107,W,0.8,80.3,200923,,,d*52
$GPZDA,215913.0036,20,09,2023,,*66
$GPGGA,215913.606,5649.76791,N,13221.85068,W,2,18,1.3,1.14,M,,,7,0135*1C
$GPHDT,79.6,T*0D
$GPVTG,84.3,T,,M,0.8,N,1.4,K,D*3A
$GPRMC,215913.61,A,5649.76791,N,13221.85068,W,0.8,79.6,200923,,,d*59
$GPZDA,215914.0036,20,09,2023,,*61
$PADCP,40,20230920,215914.59,0.39
$GPGGA,215914.606,5649.76793,N,13221.85029,W,2,18,1.2,1.12,M,,,4,0135*18
$GPHDT,78.7,T*0D
$GPVTG,84.9,T,,M,0.8,N,1.5,K,D*31
$GPRMC,215914.61,A,5649.76793,N,13221.85029,W,0.8,78.7,200923,,,d*59
$GPZDA,215915.0036,20,09,2023,,*60
$GPGGA,215915.606,5649.76795,N,13221.84987,W,2,18,1.2,1.13,M,,,5,0135*13
$GPHDT,77.8,T*0D
$GPVTG,83.6,T,,M,0.8,N,1.5,K,D*39
$GPRMC,215915.61,A,5649.76795,N,13221.84987,W,0.8,77.8,200923,,,d*52
$GPZDA,215916.0036,20,09,2023,,*63
$GPGGA,215916.606,5649.76799,N,13221.84945,W,2,18,1.2,1.14,M,,,6,0135*16
$GPHDT,77.0,T*05
$GPVTG,80.4,T,,M,0.8,N,1.5,K,D*38
$GPRMC,215916.61,A,5649.76799,N,13221.84945,W,0.8,77.0,200923,,,d*5B
$GPZDA,215917.0036,20,09,2023,,*62
$PADCP,41,20230920,215917.86,0.39
$GPGGA,215917.606,5649.76804,N,13221.84903,W,2,18,1.2,1.13,M,,,7,0135*18
$GPHDT,76.0,T*04
$GPVTG,80.2,T,,M,0.8,N,1.5,K,D*3E
$GPRMC,215917.61,A,5649.76804,N,13221.84903,W,0.8,76.0,200923,,,d*52
$GPZDA,215918.0036,20,09,2023,,*6D
$GPGGA,215918.606,5649.76809,N,13221.84863,W,2,18,1.2,1.15,M,,,7,0135*1B
$GPHDT,75.1,T*06
$GPVTG,80.7,T,,M,0.8,N,1.5,K,D*3B
$GPRMC,215918.61,A,5649.76809,N,13221.84863,W,0.8,75.1,200923,,,d*55
$GPZDA,215919.0036,20,09,2023,,*6C
$GPGGA,215919.606,5649.76815,N,13221.84820,W,2,18,1.2,1.14,M,,,7,0135*11
$GPHDT,73.9,T*08
$GPVTG,78.9,T,,M,0.8,N,1.6,K,D*31
$GPRMC,215919.61,A,5649.76815,N,13221.84820,W,0.8,73.9,200923,,,d*50
$GPZDA,215920.0036,20,09,2023,,*66
$GPGGA,215920.606,5649.76821,N,13221.84778,W,2,18,1.2,1.13,M,,,4,0135*1A
$GPHDT,73.0,T*01
$GPVTG,79.6,T,,M,0.8,N,1.5,K,D*3C
$GPRMC,215920.61,A,5649.76821,N,13221.84778,W,0.8,73.0,200923,,,d*56
$PADCP,42,20230920,215921.12,-0.61
$GPZDA,215921.0037,20,09,2023,,*66
$GPGGA,215921.606,5649.76828,N,13221.84735,W,2,18,1.2,1.12,M,,,5,0135*1B
$GPHDT,72.5,T*05
$GPVTG,77.5,T,,M,0.9,N,1.6,K,D*33
$GPRMC,215921.61,A,5649.76828,N,13221.84735,W,0.9,72.5,200923,,,d*52
$GPZDA,215922.0037,20,09,2023,,*65
$GPGGA,215922.606,5649.76835,N,13221.84693,W,2,18,1.2,1.09,M,,,6,0135*10
$GPHDT,72.4,T*04
$GPVTG,74.9,T,,M,0.9,N,1.6,K,D*3C
$GPRMC,215922.61,A,5649.76835,N,13221.84693,W,0.9,72.4,200923,,,d*51
$GPZDA,215923.0037,20,09,2023,,*64
$GPGGA,215923.606,5649.76843,N,13221.84648,W,2,18,1.2,1.06,M,,,7,0135*18
$GPHDT,72.8,T*08
$GPVTG,72.4,T,,M,0.9,N,1.7,K,D*36
$GPRMC,215923.61,A,5649.76843,N,13221.84648,W,0.9,72.8,200923,,,d*5B
$GPZDA,215924.0037,20,09,2023,,*63
$PADCP,43,20230920,215924.38,0.39
$GPGGA,215924.606,5649.76852,N,13221.84605,W,2,18,1.2,1.06,M,,,7,0135*16
$GPHDT,73.2,T*03
$GPVTG,73.6,T,,M,0.9,N,1.7,K,D*35
$GPRMC,215924.61,A,5649.76852,N,13221.84605,W,0.9,73.2,200923,,,d*5E
$GPZDA,215925.0037,20,09,2023,,*62
$GPGGA,215925.606,5649.76860,N,13221.84561,W,2,18,1.2,1.02,M,,,7,0135*13
$GPHDT,73.9,T*08
$GPVTG,70.5,T,,M,0.9,N,1.6,K,D*34
$GPRMC,215925.61,A,5649.76860,N,13221.84561,W,0.9,73.9,200923,,,d*54
$GPZDA,215926.0037,20,09,2023,,*61
$GPGGA,215926.606,5649.76869,N,13221.84518,W,2,18,1.2,0.99,M,,,4,0135*17
$GPHDT,74.8,T*0E
$GPVTG,69.3,T,,M,0.9,N,1.7,K,D*3B
$GPRMC,215926.61,A,5649.76869,N,13221.84518,W,0.9,74.8,200923,,,d*56
$GPZDA,215927.0037,20,09,2023,,*60
$PADCP,44,20230920,215927.65,-0.61
$GPGGA,215927.606,5649.76880,N,13221.84472,W,2,18,1.2,0.97,M,,,5,0135*13
$GPHDT,75.7,T*00
$GPVTG,67.1,T,,M,0.9,N,1.8,K,D*38
$GPRMC,215927.61,A,5649.76880,N,13221.84472,W,0.9,75.7,200923,,,d*53
$GPZDA,215928.0037,20,09,2023,,*6F
$GPGGA,215928.606,5649.76891,N,13221.84428,W,2,18,1.2,0.93,M,,,6,0135*14
$GPHDT,76.7,T*03
$GPVTG,66.0,T,,M,1.0,N,1.8,K,D*30
$GPRMC,215928.61,A,5649.76891,N,13221.84428,W,1.0,76.7,200923,,,d*58
$GPZDA,215929.0037,20,09,2023,,*6E
$GPGGA,215929.606,5649.76902,N,13221.84384,W,2,18,1.2,0.89,M,,,7,0135*15
$GPHDT,77.4,T*01
$GPVTG,66.8,T,,M,0.9,N,1.7,K,D*3F
$GPRMC,215929.61,A,5649.76902,N,13221.84384,W,0.9,77.4,200923,,,d*59
$GPZDA,215930.0037,20,09,2023,,*66
$PADCP,45,20230920,215930.92,0.39
$GPGGA,215930.606,5649.76913,N,13221.84340,W,2,18,1.2,0.85,M,,,7,0135*19
$GPHDT,78.2,T*08
$GPVTG,64.2,T,,M,0.9,N,1.7,K,D*37
$GPRMC,215930.61,A,5649.76913,N,13221.84340,W,0.9,78.2,200923,,,d*50
$GPZDA,215931.0037,20,09,2023,,*67
$GPGGA,215931.606,5649.76925,N,13221.84297,W,2,18,1.2,0.82,M,,,7,0135*11
$GPHDT,78.5,T*0F
$GPVTG,63.0,T,,M,0.9,N,1.7,K,D*32
$GPRMC,215931.61,A,5649.76925,N,13221.84297,W,0.9,78.5,200923,,,d*58
$GPZDA,215932.0037,20,09,2023,,*64
$GPGGA,215932.606,5649.76937,N,13221.84257,W,2,17,1.2,0.79,M,,,8,0135*19
$GPHDT,78.7,T*0D
$GPVTG,60.3,T,,M,0.9,N,1.6,K,D*33
$GPRMC,215932.61,A,5649.76937,N,13221.84257,W,0.9,78.7,200923,,,d*56
$GPZDA,215933.0037,20,09,2023,,*65
$GPGGA,215933.606,5649.76949,N,13221.84218,W,2,17,1.2,0.75,M,,,9,0135*17
$GPHDT,78.7,T*0D
$GPVTG,61.5,T,,M,0.9,N,1.7,K,D*35
$GPRMC,215933.61,A,5649.76949,N,13221.84218,W,0.9,78.7,200923,,,d*55
$PADCP,46,20230920,215934.18,-0.61
$GPZDA,215934.0037,20,09,2023,,*62
$GPGGA,215934.606,5649.76961,N,13221.84178,W,2,17,1.2,0.72,M,,,10,0135*20
$GPHDT,78.8,T*02
$GPVTG,61.3,T,,M,0.9,N,1.6,K,D*32
$GPRMC,215934.61,A,5649.76961,N,13221.84178,W,0.9,78.8,200923,,,d*52
$GPZDA,215935.0037,20,09,2023,,*63
$GPGGA,215935.606,5649.76973,N,13221.84142,W,2,17,1.2,0.66,M,,,11,0135*2F
$GPHDT,78.7,T*0D
$GPVTG,60.5,T,,M,0.8,N,1.5,K,D*37
$GPRMC,215935.61,A,5649.76973,N,13221.84142,W,0.8,78.7,200923,,,d*57
$GPZDA,215936.0037,20,09,2023,,*60
$GPGGA,215936.606,5649.76985,N,13221.84105,W,2,17,1.2,0.63,M,,,12,0135*20
$GPHDT,78.8,T*02
$GPVTG,57.0,T,,M,0.9,N,1.6,K,D*34
$GPRMC,215936.61,A,5649.76985,N,13221.84105,W,0.9,78.8,200923,,,d*50
$GPZDA,215937.0037,20,09,2023,,*61
$PADCP,47,20230920,215937.45,0.39
$GPGGA,215937.606,5649.76998,N,13221.84069,W,2,17,1.2,0.59,M,,,13,0135*2E
$GPHDT,78.6,T*0C
$GPVTG,59.4,T,,M,0.8,N,1.5,K,D*3C
$GPRMC,215937.61,A,5649.76998,N,13221.84069,W,0.8,78.6,200923,,,d*59
$GPZDA,215938.0037,20,09,2023,,*6E
$GPGGA,215938.606,5649.77011,N,13221.84033,W,2,17,1.2,0.55,M,,,14,0135*2C
$GPHDT,78.5,T*0F
$GPVTG,56.1,T,,M,0.9,N,1.6,K,D*34
$GPRMC,215938.61,A,5649.77011,N,13221.84033,W,0.9,78.5,200923,,,d*52
$GPZDA,215939.0037,20,09,2023,,*6F
$GPGGA,215939.606,5649.77024,N,13221.83996,W,2,17,1.2,0.49,M,,,15,0135*26
$GPHDT,78.3,T*09
$GPVTG,58.0,T,,M,0.8,N,1.6,K,D*3A
$GPRMC,215939.61,A,5649.77024,N,13221.83996,W,0.8,78.3,200923,,,d*53
$GPZDA,215940.0037,20,09,2023,,*61
$PADCP,48,20230920,215940.72,0.39
$GPGGA,215940.606,5649.77037,N,13221.83959,W,2,17,1.2,0.44,M,,,16,0135*27
$GPHDT,78.3,T*09
$GPVTG,56.8,T,,M,0.8,N,1.6,K,D*3C
$GPRMC,215940.61,A,5649.77037,N,13221.83959,W,0.8,78.3,200923,,,d*5C
$GPZDA,215941.0038,20,09,2023,,*6F
$GPGGA,215941.606,5649.77050,N,13221.83922,W,2,17,1.2,0.41,M,,,17,0135*2F
$GPHDT,78.4,T*0E
$GPVTG,58.4,T,,M,0.9,N,1.6,K,D*3F
$GPRMC,215941.61,A,5649.77050,N,13221.83922,W,0.9,78.4,200923,,,d*56
$GPZDA,215942.0038,20,09,2023,,*6C
$GPGGA,215942.606,5649.77062,N,13221.83883,W,2,17,1.2,0.36,M,,,18,0135*28
$GPHDT,78.6,T*0C
$GPVTG,60.6,T,,M,0.9,N,1.6,K,D*36
$GPRMC,215942.61,A,5649.77062,N,13221.83883,W,0.9,78.6,200923,,,d*5C
$GPZDA,215943.0038,20,09,2023,,*6D
$PADCP,49,20230920,215943.98,-0.61
$GPGGA,215943.606,5649.77074,N,13221.83843,W,2,17,1.2,0.30,M,,,19,0135*25
$GPHDT,79.2,T*09
$GPVTG,61.8,T,,M,0.9,N,1.7,K,D*38
$GPRMC,215943.61,A,5649.77074,N,13221.83843,W,0.9,79.2,200923,,,d*53
$GPZDA,215944.0038,20,09,2023,,*6A
$GPGGA,215944.606,5649.77085,N,13221.83802,W,2,17,1.2,0.27,M,,,20,0135*25
$GPHDT,80.1,T*0C
$GPVTG,61.6,T,,M,0.9,N,1.7,K,D*36
$GPRMC,215944.61,A,5649.77085,N,13221.83802,W,0.9,80.1,200923,,,d*5A
$GPZDA,215945.0038,20,09,2023,,*6B
$GPGGA,215945.606,5649.77096,N,13221.83759,W,2,17,1.2,0.23,M,,,21,0135*22
$GPHDT,81.0,T*0C
$GPVTG,64.8,T,,M,0.9,N,1.7,K,D*3D
$GPRMC,215945.61,A,5649.77096,N,13221.83759,W,0.9,81.0,200923,,,d*58
$GPZDA,215946.0038,20,09,2023,,*68
$GPGGA,215946.606,5649.77107,N,13221.83714,W,2,17,1.2,0.19,M,,,22,0135*2B
$GPHDT,82.2,T*0D
$GPVTG,66.3,T,,M,1.0,N,1.8,K,D*33
$GPRMC,215946.61,A,5649.77107,N,13221.83714,W,1.0,82.2,200923,,,d*52
$PADCP,50,20230920,215947.25,0.39
$GPZDA,215947.0038,20,09,2023,,*69
$GPGGA,215947.606,5649.77116,N,13221.83669,W,2,17,1.2,0.14,M,,,23,0135*2D
$GPHDT,83.5,T*0B
$GPVTG,68.7,T,,M,1.0,N,1.8,K,D*39
$GPRMC,215947.61,A,5649.77116,N,13221.83669,W,1.0,83.5,200923,,,d*5E
$GPZDA,215948.0038,20,09,2023,,*66
$GPGGA,215948.606,5649.77123,N,13221.83622,W,2,17,1.2,0.09,M,,,24,0135*20
$GPHDT,85.0,T*08
$GPVTG,72.0,T,,M,1.0,N,1.8,K,D*35
$GPRMC,215948.61,A,5649.77123,N,13221.83622,W,1.0,85.0,200923,,,d*5B
$GPZDA,215949.0038,20,09,2023,,*67
$GPGGA,215949.606,5649.77130,N,13221.83573,W,2,17,1.2,0.05,M,,,25,0135*29
$GPHDT,86.7,T*0C
$GPVTG,75.0,T,,M,1.0,N,1.8,K,D*32
$GPRMC,215949.61,A,5649.77130,N,13221.83573,W,1.0,86.7,200923,,,d*5B
$GPZDA,215950.0038,20,09,2023,,*6F
$PADCP,51,20230920,215950.52,0.39
$GPGGA,215950.606,5649.77134,N,13221.83524,W,2,17,1.2,-0.01,M,,,26,0135*0D
$GPHDT,88.5,T*00
$GPVTG,78.8,T,,M,1.0,N,1.8,K,D*37
$GPRMC,215950.61,A,5649.77134,N,13221.83524,W,1.0,88.5,200923,,,d*59
$GPZDA,215951.0038,20,09,2023,,*6E
$GPGGA,215951.606,5649.77139,N,13221.83473,W,2,17,1.2,-0.05,M,,,27,0135*07
$GPHDT,90.7,T*0B
$GPVTG,77.2,T,,M,1.0,N,1.8,K,D*32
$GPRMC,215951.61,A,5649.77139,N,13221.83473,W,1.0,90.7,200923,,,d*5D
$GPZDA,215952.0038,20,09,2023,,*6D
$GPGGA,215952.606,5649.77142,N,13221.83424,W,2,17,1.2,-0.06,M,,,28,0135*06
$GPHDT,92.3,T*0D
$GPVTG,83.8,T,,M,1.0,N,1.8,K,D*33
$GPRMC,215952.61,A,5649.77142,N,13221.83424,W,1.0,92.3,200923,,,d*56
$GPZDA,215953.0038,20,09,2023,,*6C
$PADCP,52,20230920,215953.78,-0.61
$GPGGA,215953.606,5649.77143,N,13221.83374,W,2,17,1.2,-0.12,M,,,29,0135*00
$GPHDT,94.1,T*09
$GPVTG,87.9,T,,M,0.9,N,1.7,K,D*31
$GPRMC,215953.61,A,5649.77143,N,13221.83374,W,0.9,94.1,200923,,,d*58
$GPZDA,215954.0038,20,09,2023,,*6B
$GPGGA,215954.606,5649.77142,N,13221.83326,W,2,17,1.2,-0.18,M,,,30,0135*03
$GPHDT,94.9,T*01
$GPVTG,91.9,T,,M,0.9,N,1.7,K,D*36
$GPRMC,215954.61,A,5649.77142,N,13221.83326,W,0.9,94.9,200923,,,d*51
$GPZDA,215955.0038,20,09,2023,,*6A
$GPGGA,215955.606,5649.77139,N,13221.83280,W,2,17,1.2,-0.22,M,,,31,0135*0B
$GPHDT,95.2,T*0B
$GPVTG,94.3,T,,M,0.9,N,1.6,K,D*38
$GPRMC,215955.61,A,5649.77139,N,13221.83280,W,0.9,95.2,200923,,,d*5B
$GPZDA,215956.0038,20,09,2023,,*69
$GPGGA,215956.606,5649.77135,N,13221.83235,W,2,17,1.2,-0.25,M,,,32,0135*0E
$GPHDT,95.1,T*08
$GPVTG,100.9,T,,M,0.8,N,1.6,K,D*0F
$PADCP,53,20230920,215957.05,0.39
$GPRMC,215956.61,A,5649.77135,N,13221.83235,W,0.8,95.1,200923,,,d*58
$GPZDA,215957.0038,20,09,2023,,*68
$GPGGA,215957.606,5649.77130,N,13221.83191,W,2,17,1.2,-0.29,M,,,33,0135*0A
$GPHDT,94.4,T*0C
$GPVTG,98.9,T,,M,0.8,N,1.5,K,D*3C
$GPRMC,215957.61,A,5649.77130,N,13221.83191,W,0.8,94.4,200923,,,d*55
$GPZDA,215958.0038,20,09,2023,,*67
$GPGGA,215958.606,5649.77125,N,13221.83149,W,2,17,1.2,-0.32,M,,,34,0135*09
$GPHDT,93.3,T*0C
$GPVTG,103.2,T,,M,0.8,N,1.5,K,D*04
$GPRMC,215958.61,A,5649.77125,N,13221.83149,W,0.8,93.3,200923,,,d*5B
$GPZDA,215959.0038,20,09,2023,,*66
$GPGGA,215959.606,5649.77118,N,13221.83107,W,2,17,1.2,-0.36,M,,,35,0135*09
$GPHDT,92.0,T*0E
$GPVTG,103.1,T,,M,0.8,N,1.5,K,D*07
$GPRMC,215959.61,A,5649.77118,N,13221.83107,W,0.8,92.0,200923,,,d*5C
$PADCP,54,20230920,220000.32,0.39
$GPZDA,220000.0039,20,09,2023,,*64
$GPGGA,220000.606,5649.77112,N,13221.83067,W,2,17,1.2,-0.39,M,,,36,0135*0B
$GPHDT,90.4,T*08
$GPVTG,101.6,T,,M,0.8,N,1.5,K,D*02
$GPRMC,220000.61,A,5649.77112,N,13221.83067,W,0.8,90.4,200923,,,d*54
$GPZDA,220001.0039,20,09,2023,,*65
$GPGGA,220001.606,5649.77107,N,13221.83026,W,2,17,1.2,-0.42,M,,,37,0135*06
$GPHDT,88.5,T*00
$GPVTG,100.6,T,,M,0.8,N,1.4,K,D*02
$GPRMC,220001.61,A,5649.77107,N,13221.83026,W,0.8,88.5,200923,,,d*5C
$GPZDA,220002.0039,20,09,2023,,*66
$GPGGA,220002.606,5649.77101,N,13221.82984,W,2,17,1.2,-0.45,M,,,38,0135*0B
$GPHDT,86.1,T*0A
$GPVTG,103.8,T,,M,0.8,N,1.4,K,D*0F
$GPRMC,220002.61,A,5649.77101,N,13221.82984,W,0.8,86.1,200923,,,d*53
$GPZDA,220003.0039,20,09,2023,,*67
$PADCP,55,20230920,220003.58,0.39
$GPGGA,220003.606,5649.77095,N,13221.82943,W,2,17,1.2,-0.50,M,,,39,0135*08
$GPHDT,84.0,T*09
$GPVTG,97.2,T,,M,0.8,N,1.4,K,D*39
$GPRMC,220003.61,A,5649.77095,N,13221.82943,W,0.8,84.0,200923,,,d*56
$GPZDA,220004.0039,20,09,2023,,*60
$GPGGA,220004.606,5649.77093,N,13221.82905,W,2,17,1.2,-0.51,M,,,40,0135*04
$GPHDT,81.9,T*05
$GPVTG,95.5,T,,M,0.7,N,1.4,K,D*33
$GPRMC,220004.61,A,5649.77093,N,13221.82905,W,0.7,81.9,200923,,,d*56
$GPZDA,220005.0039,20,09,2023,,*61
$GPGGA,220005.606,5649.77090,N,13221.82868,W,2,17,1.2,-0.55,M,,,41,0135*09
$GPHDT,80.1,T*0C
$GPVTG,91.4,T,,M,0.7,N,1.4,K,D*36
$GPRMC,220005.61,A,5649.77090,N,13221.82868,W,0.7,80.1,200923,,,d*57
$GPZDA,220006.0039,20,09,2023,,*62
$PADCP,56,20230920,220006.85,0.39
$GPGGA,220006.606,5649.77089,N,13221.82831,W,2,17,1.2,-0.55,M,,,42,0135*0D
$GPHDT,78.2,T*08
$GPVTG,86.9,T,,M,0.8,N,1.4,K,D*32
$GPRMC,220006.61,A,5649.77089,N,13221.82831,W,0.8,78.2,200923,,,d*5B
$GPZDA,220007.0039,20,09,2023,,*63
$GPGGA,220007.606,5649.77091,N,13221.82793,W,2,17,1.2,-0.53,M,,,43,0135*05
$GPHDT,76.5,T*01
$GPVTG,84.3,T,,M,0.7,N,1.3,K,D*32
$GPRMC,220007.61,A,5649.77091,N,13221.82793,W,0.7,76.5,200923,,,d*52
$GPZDA,220008.0039,20,09,2023,,*6C
$GPGGA,220008.606,5649.77092,N,13221.82751,W,2,17,1.2,-0.55,M,,,44,0135*06
$GPHDT,74.9,T*0F
$GPVTG,83.3,T,,M,0.8,N,1.5,K,D*3C
$GPRMC,220008.61,A,5649.77092,N,13221.82751,W,0.8,74.9,200923,,,d*51
$GPZDA,220009.0039,20,09,2023,,*6D
$GPGGA,220009.606,5649.77095,N,13221.82709,W,2,17,1.2,-0.58,M,,,45,0135*01
$GPHDT,73.8,T*09
$GPVTG,75.2,T,,M,0.8,N,1.5,K,D*34
$PADCP,57,20230920,220010.12,0.39
$GPRMC,220009.61,A,5649.77095,N,13221.82709,W,0.8,73.8,200923,,,d*5C
$GPZDA,220010.0039,20,09,2023,,*65
$GPGGA,220010.606,5649.77101,N,13221.82670,W,2,17,1.2,-0.59,M,,,46,0135*08
$GPHDT,73.4,T*05
$GPVTG,70.3,T,,M,0.8,N,1.5,K,D*30
$GPRMC,220010.61,A,5649.77101,N,13221.82670,W,0.8,73.4,200923,,,d*5B
$GPZDA,220011.0039,20,09,2023,,*64
$GPGGA,220011.606,5649.77108,N,13221.82631,W,2,17,1.2,-0.60,M,,,47,0135*0E
$GPHDT,73.3,T*02
$GPVTG,71.2,T,,M,0.8,N,1.5,K,D*30
$GPRMC,220011.61,A,5649.77108,N,13221.82631,W,0.8,73.3,200923,,,d*51
$GPZDA,220012.0039,20,09,2023,,*67
$GPGGA,220012.606,5649.77116,N,13221.82591,W,2,17,1.2,-0.61,M,,,48,0135*05
$GPHDT,73.6,T*07
$GPVTG,68.4,T,,M,0.9,N,1.6,K,D*3C
$GPRMC,220012.61,A,5649.77116,N,13221.82591,W,0.9,73.6,200923,,,d*50
$GPZDA,220013.0039,20,09,2023,,*66
$PADCP,58,20230920,220013.38,0.39
$GPGGA,220013.606,5649.77125,N,13221.82549,W,2,17,1.2,-0.61,M,,,49,0135*00
$GPHDT,74.3,T*05
$GPVTG,65.8,T,,M,0.9,N,1.7,K,D*3C
$GPRMC,220013.61,A,5649.77125,N,13221.82549,W,0.9,74.3,200923,,,d*56
$GPZDA,220014.0039,20,09,2023,,*61
$GPGGA,220014.606,5649.77136,N,13221.82506,W,2,17,1.2,-0.61,M,,,50,0135*06
$GPHDT,75.4,T*03
$GPVTG,64.5,T,,M,0.9,N,1.6,K,D*31
$GPRMC,220014.61,A,5649.77136,N,13221.82506,W,0.9,75.4,200923,,,d*5E
$GPZDA,220015.0039,20,09,2023,,*60
$GPGGA,220015.606,5649.77146,N,13221.82464,W,2,17,1.2,-0.62,M,,,51,0135*07
$GPHDT,76.6,T*02
$GPVTG,67.7,T,,M,0.9,N,1.7,K,D*31
$GPRMC,220015.61,A,5649.77146,N,13221.82464,W,0.9,76.6,200923,,,d*5C
$GPZDA,220016.0039,20,09,2023,,*63
$PADCP,59,20230920,220016.65,0.39
$GPGGA,220016.606,5649.77156,N,13221.82420,W,2,17,1.2,-0.64,M,,,52,0135*00
$GPHDT,78.1,T*0B
$GPVTG,66.8,T,,M,0.9,N,1.7,K,D*3F
$GPRMC,220016.61,A,5649.77156,N,13221.82420,W,0.9,78.1,200923,,,d*57
$GPZDA,220017.0039,20,09,2023,,*62
$GPGGA,220017.606,5649.77165,N,13221.82378,W,2,17,1.2,-0.65,M,,,53,0135*0B
$GPHDT,80.0,T*0D
$GPVTG,66.5,T,,M,0.9,N,1.7,K,D*32
$GPRMC,220017.61,A,5649.77165,N,13221.82378,W,0.9,80.0,200923,,,d*5A
$GPZDA,220018.0039,20,09,2023,,*6D
$GPGGA,220018.606,5649.77175,N,13221.82332,W,2,17,1.2,-0.64,M,,,54,0135*0D
$GPHDT,81.9,T*05
$GPVTG,69.4,T,,M,0.9,N,1.8,K,D*33
$GPRMC,220018.61,A,5649.77175,N,13221.82332,W,0.9,81.9,200923,,,d*52
$GPZDA,220019.0039,20,09,2023,,*6C
$PADCP,60,20230920,220019.91,0.39
$GPGGA,220019.606,5649.77185,N,13221.82285,W,2,17,1.2,-0.64,M,,,55,0135*0F
$GPHDT,84.1,T*08
$GPVTG,70.8,T,,M,1.0,N,1.8,K,D*3F
$GPRMC,220019.61,A,5649.77185,N,13221.82285,W,1.0,84.1,200923,,,d*54
$GPZDA,220020.0040,20,09,2023,,*68
$GPGGA,220020.606,5649.77193,N,13221.82238,W,2,17,1.2,-0.63,M,,,56,0135*00
$GPHDT,86.5,T*0E
$GPVTG,75.5,T,,M,1.0,N,1.9,K,D*36
$GPRMC,220020.61,A,5649.77193,N,13221.82238,W,1.0,86.5,200923,,,d*59
$GPZDA,220021.0040,20,09,2023,,*69
$GPGGA,220021.606,5649.77201,N,13221.82188,W,2,17,1.2,-0.63,M,,,57,0135*00
$GPHDT,89.3,T*07
$GPVTG,75.2,T,,M,1.0,N,1.9,K,D*31
$GPRMC,220021.61,A,5649.77201,N,13221.82188,W,1.0,89.3,200923,,,d*51
$GPZDA,220022.0040,20,09,2023,,*6A
$GPGGA,220022.606,5649.77207,N,13221.82137,W,2,17,1.2,-0.62,M,,,58,0135*0F
$GPHDT,92.2,T*0C
$GPVTG,79.4,T,,M,1.0,N,1.8,K,D*3A
$GPRMC,220022.61,A,5649.77207,N,13221.82137,W,1.0,92.2,200923,,,d*5B
$PADCP,61,20230920,220023.18,0.39
$GPZDA,220023.0040,20,09,2023,,*6B
$GPGGA,220023.606,5649.77212,N,13221.82088,W,2,17,1.2,-0.64,M,,,59,0135*08
$GPHDT,95.0,T*09
$GPVTG,86.0,T,,M,1.0,N,1.9,K,D*3F
$GPRMC,220023.61,A,5649.77212,N,13221.82088,W,1.0,95.0,200923,,,d*5E
$GPZDA,220024.0040,20,09,2023,,*6C
$GPGGA,220024.606,5649.77214,N,13221.82037,W,2,17,1.2,-0.67,M,,,60,0135*04
$GPHDT,98.3,T*07
$GPVTG,84.3,T,,M,1.0,N,1.9,K,D*3E
$GPRMC,220024.61,A,5649.77214,N,13221.82037,W,1.0,98.3,200923,,,d*55
$GPZDA,220025.0040,20,09,2023,,*6D
$GPGGA,220025.606,5649.77216,N,13221.81986,W,2,17,1.2,-0.67,M,,,61,0135*06
$GPHDT,101.8,T*3D
$GPVTG,91.6,T,,M,1.0,N,1.9,K,D*3F
$GPRMC,220025.61,A,5649.77216,N,13221.81986,W,1.0,101.8,200923,,,d*6C
$GPZDA,220026.0040,20,09,2023,,*6E
$PADCP,62,20230920,220026.44,-0.61
$GPGGA,220026.606,5649.77216,N,13221.81937,W,2,17,1.2,-0.68,M,,,62,0135*03
$GPHDT,105.4,T*35
$GPVTG,94.0,T,,M,1.0,N,1.8,K,D*3D
$GPRMC,220026.61,A,5649.77216,N,13221.81937,W,1.0,105.4,200923,,,d*6D
$GPZDA,220027.0040,20,09,2023,,*6F
$GPGGA,220027.606,5649.77213,N,13221.81887,W,2,17,1.2,-0.67,M,,,63,0135*03
$GPHDT,109.0,T*3D
$GPVTG,97.4,T,,M,1.0,N,1.8,K,D*3A
$GPRMC,220027.61,A,5649.77213,N,13221.81887,W,1.0,109.0,200923,,,d*6B
$GPZDA,220028.0040,20,09,2023,,*60
$GPGGA,220028.606,5649.77209,N,13221.81838,W,2,17,1.2,-0.65,M,,,64,0135*06
$GPHDT,112.4,T*33
$GPVTG,104.5,T,,M,1.0,N,1.8,K,D*00
$GPRMC,220028.61,A,5649.77209,N,13221.81838,W,1.0,112.4,200923,,,d*65
$GPZDA,220029.0040,20,09,2023,,*61
$PADCP,63,20230920,220029.71,0.39
$GPGGA,220029.606,5649.77202,N,13221.81789,W,2,17,1.2,-0.65,M,,,65,0135*08
$GPHDT,116.0,T*33
$GPVTG,110.4,T,,M,1.0,N,1.8,K,D*04
$GPRMC,220029.61,A,5649.77202,N,13221.81789,W,1.0,116.0,200923,,,d*6A
$GPZDA,220030.0040,20,09,2023,,*69
$GPGGA,220030.606,5649.77191,N,13221.81743,W,2,17,1.2,-0.65,M,,,66,0135*0C
$GPHDT,118.8,T*35
$GPVTG,116.6,T,,M,1.0,N,1.8,K,D*00
$GPRMC,220030.61,A,5649.77191,N,13221.81743,W,1.0,118.8,200923,,,d*6B
$GPZDA,220031.0040,20,09,2023,,*68
$GPGGA,220031.606,5649.77179,N,13221.81703,W,2,17,1.2,-0.65,M,,,67,0135*0E
$GPHDT,120.3,T*35
$GPVTG,126.0,T,,M,0.9,N,1.6,K,D*03
$GPRMC,220031.61,A,5649.77179,N,13221.81703,W,0.9,120.3,200923,,,d*60
$GPZDA,220032.0040,20,09,2023,,*6B
$PADCP,64,20230920,220032.97,0.39
$GPGGA,220032.606,5649.77165,N,13221.81668,W,2,17,1.2,-0.64,M,,,68,0135*02
$GPHDT,121.2,T*35
$GPVTG,134.5,T,,M,0.9,N,1.6,K,D*05
$GPRMC,220032.61,A,5649.77165,N,13221.81668,W,0.9,121.2,200923,,,d*62
$GPZDA,220033.0040,20,09,2023,,*6A
$GPGGA,220033.606,5649.77149,N,13221.81637,W,2,17,1.2,-0.64,M,,,69,0135*06
$GPHDT,121.2,T*35
$GPVTG,136.4,T,,M,0.9,N,1.6,K,D*06
$GPRMC,220033.61,A,5649.77149,N,13221.81637,W,0.9,121.2,200923,,,d*67
$GPZDA,220034.0040,20,09,2023,,*6D
$GPGGA,220034.606,5649.77132,N,13221.81610,W,2,17,1.2,-0.63,M,,,70,0135*07
$GPHDT,120.8,T*3E
$GPVTG,142.5,T,,M,0.9,N,1.6,K,D*04
$GPRMC,220034.61,A,5649.77132,N,13221.81610,W,0.9,120.8,200923,,,d*62
$GPZDA,220035.0040,20,09,2023,,*6C
$GPGGA,220035.606,5649.77114,N,13221.81584,W,2,17,1.2,-0.62,M,,,71,0135*0C
$GPHDT,119.8,T*34
$GPVTG,142.4,T,,M,0.9,N,1.6,K,D*05
$GPRMC,220035.61,A,5649.77114,N,13221.81584,W,0.9,119.8,200923,,,d*63
$PADCP,65,20230920,220036.25,-0.61
$GPZDA,220036.0040,20,09,2023,,*6F
$GPGGA,220036.606,5649.77095,N,13221.81559,W,2,17,1.2,-0.61,M,,,72,0135*07
$GPHDT,118.3,T*3E
$GPVTG,145.6,T,,M,0.9,N,1.6,K,D*00
$GPRMC,220036.61,A,5649.77095,N,13221.81559,W,0.9,118.3,200923,,,d*62
$GPZDA,220037.0040,20,09,2023,,*6E
$GPGGA,220037.606,5649.77077,N,13221.81536,W,2,17,1.2,-0.60,M,,,73,0135*03
$GPHDT,116.4,T*37
$GPVTG,145.9,T,,M,0.8,N,1.6,K,D*0E
$GPRMC,220037.61,A,5649.77077,N,13221.81536,W,0.8,116.4,200923,,,d*6E
$GPZDA,220038.0041,20,09,2023,,*60
$GPGGA,220038.606,5649.77058,N,13221.81514,W,2,17,1.2,-0.62,M,,,74,0135*04
$GPHDT,114.1,T*30
$GPVTG,146.9,T,,M,0.9,N,1.6,K,D*0C
$GPRMC,220038.61,A,5649.77058,N,13221.81514,W,0.9,114.1,200923,,,d*6A
$GPZDA,220039.0041,20,09,2023,,*61
$PADCP,66,20230920,220039.52,0.39
$GPGGA,220039.606,5649.77040,N,13221.81491,W,2,17,1.2,-0.59,M,,,75,0135*09
$GPHDT,111.2,T*36
$GPVTG,146.0,T,,M,0.8,N,1.5,K,D*07
$GPRMC,220039.61,A,5649.77040,N,13221.81491,W,0.8,111.2,200923,,,d*69
$GPZDA,220040.0041,20,09,2023,,*6F
$GPGGA,220040.606,5649.77023,N,13221.81470,W,2,17,1.2,-0.58,M,,,76,0135*0F
$GPHDT,107.9,T*3A
$GPVTG,146.8,T,,M,0.8,N,1.5,K,D*0F
$GPRMC,220040.61,A,5649.77023,N,13221.81470,W,0.8,107.9,200923,,,d*61
$GPZDA,220041.0041,20,09,2023,,*6E
$GPGGA,220041.606,5649.77006,N,13221.81450,W,2,17,1.2,-0.58,M,,,77,0135*0A
$GPHDT,104.3,T*33
$GPVTG,147.6,T,,M,0.8,N,1.4,K,D*01
$GPRMC,220041.61,A,5649.77006,N,13221.81450,W,0.8,104.3,200923,,,d*6C
$GPZDA,220042.0041,20,09,2023,,*6D
$PADCP,67,20230920,220042.78,-0.61
$GPGGA,220042.606,5649.76990,N,13221.81430,W,2,17,1.2,-0.58,M,,,78,0135*07
$GPHDT,100.4,T*30
$GPVTG,147.4,T,,M,0.7,N,1.3,K,D*0B
$GPRMC,220042.61,A,5649.76990,N,13221.81430,W,0.7,100.4,200923,,,d*62
$GPZDA,220043.0041,20,09,2023,,*6C
$GPGGA,220043.606,5649.76975,N,13221.81412,W,2,17,1.2,-0.57,M,,,79,0135*03
$GPHDT,96.2,T*08
$GPVTG,145.8,T,,M,0.7,N,1.3,K,D*05
$GPRMC,220043.61,A,5649.76975,N,13221.81412,W,0.7,96.2,200923,,,d*50
$GPZDA,220044.0041,20,09,2023,,*6B
$GPGGA,220044.606,5649.76960,N,13221.81393,W,2,17,1.2,-0.56,M,,,80,0135*09
$GPHDT,91.8,T*05
$GPVTG,144.5,T,,M,0.7,N,1.3,K,D*09
$GPRMC,220044.61,A,5649.76960,N,13221.81393,W,0.7,91.8,200923,,,d*50
$GPZDA,220045.0041,20,09,2023,,*6A
$GPGGA,220045.606,5649.76947,N,13221.81374,W,2,17,1.2,-0.55,M,,,81,0135*06
$GPHDT,87.2,T*08
$GPVTG,144.3,T,,M,0.6,N,1.1,K,D*0C
$PADCP,68,20230920,220046.05,0.39
$GPRMC,220045.61,A,5649.76947,N,13221.81374,W,0.6,87.2,200923,,,d*51
$GPZDA,220046.0041,20,09,2023,,*69
$GPGGA,220046.606,5649.76936,N,13221.81355,W,2,17,1.2,-0.54,M,,,82,0135*02
$GPHDT,82.0,T*0F
$GPVTG,134.0,T,,M,0.6,N,1.1,K,D*08
$GPRMC,220046.61,A,5649.76936,N,13221.81355,W,0.6,82.0,200923,,,d*50
$GPZDA,220047.0041,20,09,2023,,*68
$GPGGA,220047.606,5649.76927,N,13221.81336,W,2,17,1.2,-0.54,M,,,83,0135*07
$GPHDT,77.3,T*06
$GPVTG,135.1,T,,M,0.5,N,0.9,K,D*02
$GPRMC,220047.61,A,5649.76927,N,13221.81336,W,0.5,77.3,200923,,,d*5E
$GPZDA,220048.0041,20,09,2023,,*67
$GPGGA,220048.606,5649.76920,N,13221.81318,W,2,17,1.2,-0.52,M,,,84,0135*02
$GPHDT,72.4,T*04
$GPVTG,126.3,T,,M,0.5,N,0.9,K,D*02
$GPRMC,220048.61,A,5649.76920,N,13221.81318,W,0.5,72.4,200923,,,d*58
$PADCP,69,20230920,220049.32,0.39
$GPZDA,220049.0041,20,09,2023,,*66
$GPGGA,220049.606,5649.76914,N,13221.81300,W,2,17,1.2,-0.53,M,,,85,0135*0D
$GPHDT,67.5,T*01
$GPVTG,115.6,T,,M,0.4,N,0.7,K,D*08
$GPRMC,220049.61,A,5649.76914,N,13221.81300,W,0.4,67.5,200923,,,d*53
$GPZDA,220050.0041,20,09,2023,,*6E
$GPGGA,220050.606,5649.76913,N,13221.81284,W,2,17,1.2,-0.51,M,,,86,0135*0E
$GPHDT,62.7,T*06
$GPVTG,102.6,T,,M,0.3,N,0.6,K,D*08
$GPRMC,220050.61,A,5649.76913,N,13221.81284,W,0.3,62.7,200923,,,d*51
$GPZDA,220051.0041,20,09,2023,,*6F
$GPGGA,220051.606,5649.76914,N,13221.81268,W,2,17,1.2,-0.50,M,,,87,0135*0A
$GPHDT,58.0,T*08
$GPVTG,80.7,T,,M,0.3,N,0.5,K,D*31
$GPRMC,220051.61,A,5649.76914,N,13221.81268,W,0.3,58.0,200923,,,d*5B
$GPZDA,220052.0041,20,09,2023,,*6C
$PADCP,70,20230920,220052.58,0.39
$GPGGA,220052.606,5649.76916,N,13221.81254,W,2,17,1.2,-0.49,M,,,88,0135*03
$GPHDT,53.3,T*00
$GPVTG,62.7,T,,M,0.3,N,0.5,K,D*3D
$GPRMC,220052.61,A,5649.76916,N,13221.81254,W,0.3,53.3,200923,,,d*5D
$GPZDA,220053.0041,20,09,2023,,*6D
$GPGGA,220053.606,5649.76922,N,13221.81242,W,2,17,1.2,-0.48,M,,,89,0135*02
$GPHDT,48.7,T*0E
$GPVTG,33.9,T,,M,0.3,N,0.6,K,D*34
$GPRMC,220053.61,A,5649.76922,N,13221.81242,W,0.3,48.7,200923,,,d*52
$GPZDA,220054.0041,20,09,2023,,*6A
$GPGGA,220054.606,5649.76931,N,13221.81234,W,2,17,1.2,-0.44,M,,,90,0135*02
$GPHDT,44.3,T*06
$GPVTG,21.2,T,,M,0.4,N,0.7,K,D*3A
$GPRMC,220054.61,A,5649.76931,N,13221.81234,W,0.4,44.3,200923,,,d*59
$GPZDA,220055.0041,20,09,2023,,*6B
$PADCP,71,20230920,220055.85,0.39
$GPGGA,220055.606,5649.76942,N,13221.81227,W,2,17,1.2,-0.44,M,,,91,0135*04
$GPHDT,40.6,T*07
$GPVTG,8.3,T,,M,0.4,N,0.8,K,D*0F
$GPRMC,220055.61,A,5649.76942,N,13221.81227,W,0.4,40.6,200923,,,d*5F
$GPZDA,220056.0041,20,09,2023,,*68
$GPGGA,220056.606,5649.76957,N,13221.81224,W,2,17,1.2,-0.42,M,,,92,0135*05
$GPHDT,37.8,T*09
$GPVTG,5.1,T,,M,0.6,N,1.1,K,D*0A
$GPRMC,220056.61,A,5649.76957,N,13221.81224,W,0.6,37.8,200923,,,d*57
$GPZDA,220057.0042,20,09,2023,,*6A
$GPGGA,220057.606,5649.76975,N,13221.81222,W,2,17,1.2,-0.42,M,,,93,0135*03
$GPHDT,36.0,T*00
$GPVTG,357.6,T,,M,0.7,N,1.2,K,D*0B
$GPRMC,220057.61,A,5649.76975,N,13221.81222,W,0.7,36.0,200923,,,d*58
$GPZDA,220058.0042,20,09,2023,,*65
$GPGGA,220058.606,5649.76995,N,13221.81223,W,2,17,1.2,-0.42,M,,,94,0135*04
$GPHDT,35.2,T*01
$GPVTG,353.8,T,,M,0.8,N,1.4,K,D*08
$GPRMC,220058.61,A,5649.76995,N,13221.81223,W,0.8,35.2,200923,,,d*56
$PADCP,72,20230920,220059.11,0.39
$GPZDA,220059.0042,20,09,2023,,*64
$GPGGA,220059.606,5649.77018,N,13221.81226,W,2,17,1.2,-0.39,M,,,95,0135*00
$GPHDT,35.1,T*02
$GPVTG,355.6,T,,M,0.8,N,1.5,K,D*01
$GPRMC,220059.61,A,5649.77018,N,13221.81226,W,0.8,35.1,200923,,,d*5C
$GPZDA,220100.0042,20,09,2023,,*69
$GPGGA,220100.606,5649.77042,N,13221.81229,W,2,17,1.2,-0.40,M,,,96,0135*00
$GPHDT,35.4,T*07
$GPVTG,353.8,T,,M,0.9,N,1.7,K,D*0A
$GPRMC,220100.61,A,5649.77042,N,13221.81229,W,0.9,35.4,200923,,,d*55
$GPZDA,220101.0042,20,09,2023,,*68
$GPGGA,220101.606,5649.77069,N,13221.81233,W,2,17,1.2,-0.38,M,,,97,0135*0D
$GPHDT,36.3,T*03
$GPVTG,353.7,T,,M,1.0,N,1.8,K,D*02
$GPRMC,220101.61,A,5649.77069,N,13221.81233,W,1.0,36.3,200923,,,d*5A
$GPZDA,220102.0042,20,09,2023,,*6B
$PADCP,73,20230920,220102.38,0.39
$GPGGA,220102.606,5649.77098,N,13221.81236,W,2,17,1.2,-0.37,M,,,98,0135*05
$GPHDT,37.8,T*09
$GPVTG,356.1,T,,M,1.0,N,1.8,K,D*01
$GPRMC,220102.61,A,5649.77098,N,13221.81236,W,1.0,37.8,200923,,,d*58
$GPZDA,220103.0042,20,09,2023,,*6A
$GPGGA,220103.606,5649.77126,N,13221.81238,W,2,17,1.2,-0.37,M,,,99,0135*0F
$GPHDT,39.2,T*0D
$GPVTG,356.7,T,,M,1.0,N,1.9,K,D*06
$GPRMC,220103.61,A,5649.77126,N,13221.81238,W,1.0,39.2,200923,,,d*57
$GPZDA,220104.0042,20,09,2023,,*6D
$GPGGA,220104.606,5649.77156,N,13221.81239,W,2,17,1.2,-0.36,M,,,100,0135*3E
$GPHDT,41.0,T*00
$GPVTG,356.5,T,,M,1.1,N,2.0,K,D*0F
$GPRMC,220104.61,A,5649.77156,N,13221.81239,W,1.1,41.0,200923,,,d*5A
$GPZDA,220105.0042,20,09,2023,,*6C
$PADCP,74,20230920,220105.65,0.39
$GPGGA,220105.606,5649.77187,N,13221.81238,W,2,17,1.2,-0.34,M,,,101,0135*31
$GPHDT,43.1,T*03
$GPVTG,1.6,T,,M,1.1,N,2.0,K,D*0D
$GPRMC,220105.61,A,5649.77187,N,13221.81238,W,1.1,43.1,200923,,,d*55
$GPZDA,220106.0042,20,09,2023,,*6F
$GPGGA,220106.606,5649.77217,N,13221.81234,W,2,17,1.2,-0.34,M,,,102,0135*37
$GPHDT,45.2,T*06
$GPVTG,3.6,T,,M,1.1,N,2.0,K,D*0F
$GPRMC,220106.61,A,5649.77217,N,13221.81234,W,1.1,45.2,200923,,,d*55
$GPZDA,220107.0042,20,09,2023,,*6E
$GPGGA,220107.606,5649.77248,N,13221.81228,W,2,17,1.2,-0.33,M,,,103,0135*37
$GPHDT,47.6,T*00
$GPVTG,6.6,T,,M,1.1,N,2.0,K,D*0A
$GPRMC,220107.61,A,5649.77248,N,13221.81228,W,1.1,47.6,200923,,,d*55
$GPZDA,220108.0042,20,09,2023,,*61
$PADCP,75,20230920,220108.91,0.39
$GPGGA,220108.606,5649.77278,N,13221.81218,W,2,17,1.2,-0.33,M,,,104,0135*3F
$GPHDT,50.1,T*01
$GPVTG,9.9,T,,M,1.1,N,1.9,K,D*00
$GPRMC,220108.61,A,5649.77278,N,13221.81218,W,1.1,50.1,200923,,,d*5B
$GPZDA,220109.0042,20,09,2023,,*60
