$GPGGA,223307.622,5649.83597,N,13221.82307,W,2,17,2.0,0.27,M,,,3,0135*19
$GPHDT,148.1,T*39
$GPVTG,155.6,T,,M,3.2,N,5.8,K,D*03
$GPRMC,223307.62,A,5649.83597,N,13221.82307,W,3.2,148.1,200923,,,d*6E
$GPZDA,223308.0049,20,09,2023,,*6B
$GPGGA,223308.622,5649.83519,N,13221.82241,W,2,17,2.0,0.27,M,,,4,0135*14
$GPHDT,147.5,T*32
$GPVTG,156.2,T,,M,3.1,N,5.8,K,D*07
$GPRMC,223308.62,A,5649.83519,N,13221.82241,W,3.1,147.5,200923,,,d*6C
$GPZDA,223309.0049,20,09,2023,,*6A
$GPGGA,223309.622,5649.83441,N,13221.82177,W,2,17,2.0,0.27,M,,,5,0135*1E
$GPHDT,147.2,T*35
$GPVTG,155.2,T,,M,3.1,N,5.8,K,D*04
$GPRMC,223309.62,A,5649.83441,N,13221.82177,W,3.1,147.2,200923,,,d*60
$GPZDA,223310.0049,20,09,2023,,*62
$PADCP,1,20230920,223311.00,0.38
$GPGGA,223310.622,5649.83363,N,13221.82112,W,2,17,2.0,0.27,M,,,6,0135*11
$GPHDT,147.2,T*35
$GPVTG,155.5,T,,M,3.2,N,5.9,K,D*01
$GPRMC,223310.62,A,5649.83363,N,13221.82112,W,3.2,147.2,200923,,,d*6F
$GPZDA,223311.0049,20,09,2023,,*63
$GPGGA,223311.622,5649.83284,N,13221.82047,W,2,17,2.0,0.29,M,,,7,0135*16
$GPHDT,147.7,T*30
$GPVTG,156.6,T,,M,3.1,N,5.8,K,D*03
$GPRMC,223311.62,A,5649.83284,N,13221.82047,W,3.1,147.7,200923,,,d*61
$GPZDA,223312.0049,20,09,2023,,*60
$GPGGA,223312.622,5649.83205,N,13221.81982,W,2,17,2.0,0.29,M,,,7,0135*1F
$GPHDT,148.0,T*38
$GPVTG,156.5,T,,M,3.2,N,5.9,K,D*02
$GPRMC,223312.62,A,5649.83205,N,13221.81982,W,3.2,148.0,200923,,,d*63
$GPZDA,223313.0049,20,09,2023,,*61
$GPGGA,223313.622,5649.83126,N,13221.81920,W,2,17,2.0,0.29,M,,,3,0135*10
$GPHDT,147.7,T*30
$GPVTG,156.2,T,,M,3.1,N,5.8,K,D*07
$GPRMC,223313.62,A,5649.83126,N,13221.81920,W,3.1,147.7,200923,,,d*63
$GPZDA,223314.0049,20,09,2023,,*66
$PADCP,2,20230920,223314.47,0.38
$GPGGA,223314.622,5649.83048,N,13221.81857,W,2,17,2.0,0.28,M,,,4,0135*19
$GPHDT,147.4,T*33
$GPVTG,156.7,T,,M,3.1,N,5.8,K,D*02
$GPRMC,223314.62,A,5649.83048,N,13221.81857,W,3.1,147.4,200923,,,d*6F
$GPZDA,223315.0050,20,09,2023,,*6F
$GPGGA,223315.622,5649.82970,N,13221.81793,W,2,17,2.0,0.30,M,,,5,0135*14
$GPHDT,146.9,T*3F
$GPVTG,157.3,T,,M,3.1,N,5.8,K,D*07
$GPRMC,223315.62,A,5649.82970,N,13221.81793,W,3.1,146.9,200923,,,d*66
$GPZDA,223316.0050,20,09,2023,,*6C
$GPGGA,223316.622,5649.82891,N,13221.81732,W,2,16,2.0,0.30,M,,,6,0135*10
$GPHDT,146.3,T*35
$GPVTG,157.0,T,,M,3.1,N,5.8,K,D*04
$GPRMC,223316.62,A,5649.82891,N,13221.81732,W,3.1,146.3,200923,,,d*6A
$GPZDA,223317.0050,20,09,2023,,*6D
$PADCP,3,20230920,223317.73,0.38
$GPGGA,223317.622,5649.82812,N,13221.81670,W,2,16,2.0,0.30,M,,,7,0135*1C
$GPHDT,145.9,T*3C
$GPVTG,156.8,T,,M,3.1,N,5.7,K,D*02
$GPRMC,223317.62,A,5649.82812,N,13221.81670,W,3.1,145.9,200923,,,d*6E
$GPZDA,223318.0050,20,09,2023,,*62
$GPGGA,223318.622,5649.82734,N,13221.81608,W,2,16,2.0,0.31,M,,,8,0135*19
$GPHDT,145.6,T*33
$GPVTG,156.4,T,,M,3.1,N,5.8,K,D*01
$GPRMC,223318.62,A,5649.82734,N,13221.81608,W,3.1,145.6,200923,,,d*6A
$GPZDA,223319.0050,20,09,2023,,*63
$GPGGA,223319.622,5649.82657,N,13221.81543,W,2,16,2.0,0.31,M,,,9,0135*11
$GPHDT,145.1,T*34
$GPVTG,156.1,T,,M,3.1,N,5.7,K,D*0B
$GPRMC,223319.62,A,5649.82657,N,13221.81543,W,3.1,145.1,200923,,,d*64
$GPZDA,223320.0050,20,09,2023,,*69
$PADCP,4,20230920,223321.00,0.38
$GPGGA,223320.622,5649.82580,N,13221.81477,W,2,16,2.0,0.31,M,,,10,0135*2C
$GPHDT,145.0,T*35
$GPVTG,155.1,T,,M,3.2,N,5.9,K,D*05
$GPRMC,223320.62,A,5649.82580,N,13221.81477,W,3.2,145.0,200923,,,d*63
$GPZDA,223321.0050,20,09,2023,,*68
$GPGGA,223321.622,5649.82503,N,13221.81409,W,2,16,2.0,0.31,M,,,11,0135*2E
$GPHDT,144.9,T*3D
$GPVTG,154.3,T,,M,3.1,N,5.8,K,D*04
$GPRMC,223321.62,A,5649.82503,N,13221.81409,W,3.1,144.9,200923,,,d*6B
$GPZDA,223322.0050,20,09,2023,,*6B
$GPGGA,223322.622,5649.82427,N,13221.81341,W,2,16,2.0,0.31,M,,,12,0135*22
$GPHDT,145.0,T*35
$GPVTG,155.2,T,,M,3.2,N,5.8,K,D*07
$GPRMC,223322.62,A,5649.82427,N,13221.81341,W,3.2,145.0,200923,,,d*6F
$GPZDA,223323.0000,20,09,2023,,*6F
$GPGGA,223323.622,5649.82349,N,13221.81274,W,2,16,2.0,0.27,M,,,13,0135*2D
$GPHDT,145.4,T*31
$GPVTG,154.4,T,,M,3.1,N,5.8,K,D*03
$GPRMC,223323.62,A,5649.82349,N,13221.81274,W,3.1,145.4,200923,,,d*61
$PADCP,5,20230920,223324.27,0.38
$GPZDA,223324.0000,20,09,2023,,*68
$GPGGA,223324.622,5649.82272,N,13221.81205,W,2,16,2.0,0.27,M,,,7,0135*10
$GPHDT,145.3,T*36
$GPVTG,154.3,T,,M,3.1,N,5.8,K,D*04
$GPRMC,223324.62,A,5649.82272,N,13221.81205,W,3.1,145.3,200923,,,d*6E
$GPZDA,223325.0000,20,09,2023,,*69
$GPGGA,223325.622,5649.82195,N,13221.81139,W,2,16,2.0,0.25,M,,,8,0135*1A
$GPHDT,145.1,T*34
$GPVTG,154.5,T,,M,3.1,N,5.8,K,D*02
$GPRMC,223325.62,A,5649.82195,N,13221.81139,W,3.1,145.1,200923,,,d*6B
$GPZDA,223326.0001,20,09,2023,,*6B
$GPGGA,223326.622,5649.82118,N,13221.81070,W,2,16,2.0,0.25,M,,,9,0135*11
$GPHDT,144.7,T*33
$GPVTG,154.5,T,,M,3.1,N,5.8,K,D*02
$GPRMC,223326.62,A,5649.82118,N,13221.81070,W,3.1,144.7,200923,,,d*66
$GPZDA,223327.0001,20,09,2023,,*6A
$PADCP,6,20230920,223327.53,0.38
$GPGGA,223327.622,5649.82042,N,13221.81000,W,2,16,2.0,0.24,M,,,10,0135*20
$GPHDT,144.2,T*36
$GPVTG,153.5,T,,M,3.1,N,5.7,K,D*0A
$GPRMC,223327.62,A,5649.82042,N,13221.81000,W,3.1,144.2,200923,,,d*6B
$GPZDA,223328.0001,20,09,2023,,*65
$GPGGA,223328.622,5649.81967,N,13221.80929,W,2,16,2.0,0.25,M,,,11,0135*21
$GPHDT,143.5,T*36
$GPVTG,152.8,T,,M,3.1,N,5.8,K,D*09
$GPRMC,223328.62,A,5649.81967,N,13221.80929,W,3.1,143.5,200923,,,d*6A
$GPZDA,223329.0001,20,09,2023,,*64
$GPGGA,223329.622,5649.81891,N,13221.80856,W,2,16,2.0,0.25,M,,,12,0135*22
$GPHDT,142.8,T*3A
$GPVTG,151.4,T,,M,3.1,N,5.8,K,D*06
$GPRMC,223329.62,A,5649.81891,N,13221.80856,W,3.1,142.8,200923,,,d*66
$GPZDA,223330.0001,20,09,2023,,*6C
$PADCP,7,20230920,223330.80,0.38
$GPGGA,223330.622,5649.81816,N,13221.80779,W,2,16,2.0,0.25,M,,,13,0135*26
$GPHDT,142.3,T*31
$GPVTG,151.0,T,,M,3.1,N,5.7,K,D*0D
$GPRMC,223330.62,A,5649.81816,N,13221.80779,W,3.1,142.3,200923,,,d*68
$GPZDA,223331.0001,20,09,2023,,*6D
$GPGGA,223331.622,5649.81742,N,13221.80699,W,2,16,2.0,0.25,M,,,14,0135*21
$GPHDT,142.0,T*32
$GPVTG,148.5,T,,M,3.1,N,5.8,K,D*0F
$GPRMC,223331.62,A,5649.81742,N,13221.80699,W,3.1,142.0,200923,,,d*6B
$GPZDA,223332.0001,20,09,2023,,*6E
$GPGGA,223332.622,5649.81668,N,13221.80617,W,2,16,2.0,0.27,M,,,15,0135*2E
$GPHDT,142.1,T*33
$GPVTG,149.8,T,,M,3.2,N,5.9,K,D*01
$GPRMC,223332.62,A,5649.81668,N,13221.80617,W,3.2,142.1,200923,,,d*65
$GPZDA,223333.0001,20,09,2023,,*6F
$GPGGA,223333.622,5649.81593,N,13221.80535,W,2,16,2.0,0.26,M,,,16,0135*29
$GPHDT,142.5,T*37
$PADCP,8,20230920,223334.07,0.38
$GPVTG,148.9,T,,M,3.2,N,5.8,K,D*00
$GPRMC,223333.62,A,5649.81593,N,13221.80535,W,3.2,142.5,200923,,,d*64
$GPZDA,223334.0001,20,09,2023,,*68
$GPGGA,223334.622,5649.81519,N,13221.80450,W,2,16,2.0,0.28,M,,,17,0135*21
$GPHDT,142.9,T*3B
$GPVTG,149.0,T,,M,3.2,N,5.9,K,D*09
$GPRMC,223334.62,A,5649.81519,N,13221.80450,W,3.2,142.9,200923,,,d*6F
$GPZDA,223335.0001,20,09,2023,,*69
$GPGGA,223335.622,5649.81444,N,13221.80368,W,2,16,2.0,0.26,M,,,18,0135*24
$GPHDT,143.4,T*37
$GPVTG,150.4,T,,M,3.2,N,5.9,K,D*05
$GPRMC,223335.62,A,5649.81444,N,13221.80368,W,3.2,143.4,200923,,,d*67
$GPZDA,223336.0001,20,09,2023,,*6A
$GPGGA,223336.622,5649.81369,N,13221.80287,W,2,16,2.0,0.24,M,,,19,0135*2C
$GPHDT,143.8,T*3B
$GPVTG,148.8,T,,M,3.1,N,5.8,K,D*02
$GPRMC,223336.62,A,5649.81369,N,13221.80287,W,3.1,143.8,200923,,,d*63
$PADCP,9,20230920,223337.33,0.38
$GPZDA,223337.0002,20,09,2023,,*68
$GPGGA,223337.622,5649.81295,N,13221.80204,W,2,16,2.0,0.28,M,,,20,0135*22
$GPHDT,143.9,T*3A
$GPVTG,150.5,T,,M,3.2,N,5.9,K,D*04
$GPRMC,223337.62,A,5649.81295,N,13221.80204,W,3.2,143.9,200923,,,d*69
$GPZDA,223338.0002,20,09,2023,,*67
$GPGGA,223338.622,5649.81218,N,13221.80126,W,2,16,2.0,0.26,M,,,21,0135*24
$GPHDT,144.3,T*37
$GPVTG,150.8,T,,M,3.2,N,5.9,K,D*09
$GPRMC,223338.62,A,5649.81218,N,13221.80126,W,3.2,144.3,200923,,,d*6D
$GPZDA,223339.0002,20,09,2023,,*66
$GPGGA,223339.622,5649.81142,N,13221.80048,W,2,16,2.0,0.26,M,,,22,0135*23
$GPHDT,144.3,T*37
$GPVTG,152.2,T,,M,3.1,N,5.8,K,D*03
$GPRMC,223339.62,A,5649.81142,N,13221.80048,W,3.1,144.3,200923,,,d*6A
$GPZDA,223340.0002,20,09,2023,,*68
$PADCP,10,20230920,223340.60,0.38
$GPGGA,223340.622,5649.81066,N,13221.79973,W,2,16,2.0,0.26,M,,,23,0135*2C
$GPHDT,143.9,T*3A
$GPVTG,150.9,T,,M,3.1,N,5.7,K,D*05
$GPRMC,223340.62,A,5649.81066,N,13221.79973,W,3.1,143.9,200923,,,d*69
$GPZDA,223341.0002,20,09,2023,,*69
$GPGGA,223341.622,5649.80990,N,13221.79899,W,2,16,2.0,0.28,M,,,24,0135*20
$GPHDT,143.2,T*31
$GPVTG,153.3,T,,M,3.1,N,5.8,K,D*03
$GPRMC,223341.62,A,5649.80990,N,13221.79899,W,3.1,143.2,200923,,,d*67
$GPZDA,223342.0002,20,09,2023,,*6A
$GPGGA,223342.622,5649.80914,N,13221.79825,W,2,16,2.0,0.26,M,,,25,0135*27
$GPHDT,143.3,T*30
$GPVTG,151.4,T,,M,3.0,N,5.6,K,D*09
$GPRMC,223342.62,A,5649.80914,N,13221.79825,W,3.0,143.3,200923,,,d*6F
$GPZDA,223343.0002,20,09,2023,,*6B
$PADCP,11,20230920,223343.86,0.38
$GPGGA,223343.622,5649.80845,N,13221.79756,W,2,16,2.0,0.29,M,,,26,0135*24
$GPHDT,144.0,T*34
$GPVTG,151.0,T,,M,2.7,N,5.1,K,D*0C
$GPRMC,223343.62,A,5649.80845,N,13221.79756,W,2.7,144.0,200923,,,d*62
$GPZDA,223344.0002,20,09,2023,,*6C
$GPGGA,223344.622,5649.80781,N,13221.79693,W,2,16,2.0,0.30,M,,,27,0135*25
$GPHDT,145.2,T*37
$GPVTG,153.9,T,,M,2.5,N,4.7,K,D*02
$GPRMC,223344.62,A,5649.80781,N,13221.79693,W,2.5,145.2,200923,,,d*6B
$GPZDA,223345.0002,20,09,2023,,*6D
$GPGGA,223345.622,5649.80720,N,13221.79639,W,2,16,2.0,0.27,M,,,28,0135*26
$GPHDT,146.4,T*32
$GPVTG,154.5,T,,M,2.3,N,4.3,K,D*0B
$GPRMC,223345.62,A,5649.80720,N,13221.79639,W,2.3,146.4,200923,,,d*62
$GPZDA,223346.0002,20,09,2023,,*6E
$GPGGA,223346.622,5649.80664,N,13221.79589,W,2,16,2.0,0.28,M,,,29,0135*22
$GPHDT,147.5,T*32
$GPVTG,155.8,T,,M,2.1,N,4.0,K,D*06
$PADCP,12,20230920,223347.13,0.38
$GPRMC,223346.62,A,5649.80664,N,13221.79589,W,2.1,147.5,200923,,,d*6A
$GPZDA,223347.0002,20,09,2023,,*6F
$GPGGA,223347.622,5649.80611,N,13221.79549,W,2,16,2.0,0.24,M,,,30,0135*29
$GPHDT,148.0,T*38
$GPVTG,158.7,T,,M,2.0,N,3.8,K,D*0A
$GPRMC,223347.62,A,5649.80611,N,13221.79549,W,2.0,148.0,200923,,,d*6E
$GPZDA,223348.0003,20,09,2023,,*61
$GPGGA,223348.622,5649.80559,N,13221.79512,W,2,16,2.0,0.22,M,,,31,0135*20
$GPHDT,149.0,T*39
$GPVTG,156.8,T,,M,1.9,N,3.6,K,D*0F
$GPRMC,223348.62,A,5649.80559,N,13221.79512,W,1.9,149.0,200923,,,d*6B
$GPZDA,223349.0003,20,09,2023,,*60
$GPGGA,223349.622,5649.80514,N,13221.79472,W,2,16,2.0,0.30,M,,,32,0135*2F
$GPHDT,149.7,T*3E
$GPVTG,153.7,T,,M,1.7,N,3.1,K,D*0C
$GPRMC,223349.62,A,5649.80514,N,13221.79472,W,1.7,149.7,200923,,,d*6D
$GPZDA,223350.0003,20,09,2023,,*68
$PADCP,13,20230920,223350.40,0.38
$GPGGA,223350.622,5649.80470,N,13221.79442,W,2,16,2.0,0.32,M,,,33,0135*24
$GPHDT,150.2,T*33
$GPVTG,162.8,T,,M,1.7,N,3.1,K,D*01
$GPRMC,223350.62,A,5649.80470,N,13221.79442,W,1.7,150.2,200923,,,d*68
$GPZDA,223351.0003,20,09,2023,,*69
$GPGGA,223351.622,5649.80428,N,13221.79416,W,2,16,2.0,0.32,M,,,34,0135*2E
$GPHDT,150.8,T*39
$GPVTG,164.5,T,,M,1.6,N,3.0,K,D*0A
$GPRMC,223351.62,A,5649.80428,N,13221.79416,W,1.6,150.8,200923,,,d*6E
$GPZDA,223352.0003,20,09,2023,,*6A
$GPGGA,223352.622,5649.80386,N,13221.79395,W,2,15,2.0,0.31,M,,,35,0135*23
$GPHDT,151.7,T*37
$GPVTG,166.1,T,,M,1.5,N,2.8,K,D*06
$GPRMC,223352.62,A,5649.80386,N,13221.79395,W,1.5,151.7,200923,,,d*6F
$GPZDA,223353.0003,20,09,2023,,*6B
$PADCP,14,20230920,223353.66,0.38
$GPGGA,223353.622,5649.80345,N,13221.79378,W,2,15,2.0,0.31,M,,,36,0135*2D
$GPHDT,152.6,T*35
$GPVTG,168.9,T,,M,1.5,N,2.8,K,D*00
$GPRMC,223353.62,A,5649.80345,N,13221.79378,W,1.5,152.6,200923,,,d*60
$GPZDA,223354.0003,20,09,2023,,*6C
$GPGGA,223354.622,5649.80306,N,13221.79365,W,2,15,2.0,0.31,M,,,37,0135*20
$GPHDT,153.2,T*30
$GPVTG,172.2,T,,M,1.4,N,2.6,K,D*0F
$GPRMC,223354.62,A,5649.80306,N,13221.79365,W,1.4,153.2,200923,,,d*68
$GPZDA,223355.0003,20,09,2023,,*6D
$GPGGA,223355.622,5649.80268,N,13221.79356,W,2,15,2.0,0.30,M,,,38,0135*26
$GPHDT,153.0,T*32
$GPVTG,171.4,T,,M,1.4,N,2.6,K,D*0A
$GPRMC,223355.62,A,5649.80268,N,13221.79356,W,1.4,153.0,200923,,,d*62
$GPZDA,223356.0003,20,09,2023,,*6E
$PADCP,15,20230920,223356.93,0.38
$GPGGA,223356.622,5649.80231,N,13221.79346,W,2,15,2.0,0.32,M,,,39,0135*2B
$GPHDT,152.8,T*3B
$GPVTG,173.3,T,,M,1.4,N,2.5,K,D*0C
$GPRMC,223356.62,A,5649.80231,N,13221.79346,W,1.4,152.8,200923,,,d*65
$GPZDA,223357.0003,20,09,2023,,*6F
$GPGGA,223357.622,5649.80194,N,13221.79339,W,2,15,2.0,0.32,M,,,40,0135*20
$GPHDT,152.6,T*35
$GPVTG,175.1,T,,M,1.3,N,2.5,K,D*0F
$GPRMC,223357.62,A,5649.80194,N,13221.79339,W,1.3,152.6,200923,,,d*69
$GPZDA,223358.0004,20,09,2023,,*67
$GPGGA,223358.622,5649.80157,N,13221.79335,W,2,15,2.0,0.31,M,,,41,0135*2E
$GPHDT,152.1,T*32
$GPVTG,177.3,T,,M,1.3,N,2.5,K,D*0F
$GPRMC,223358.62,A,5649.80157,N,13221.79335,W,1.3,152.1,200923,,,d*62
$GPZDA,223359.0004,20,09,2023,,*66
$GPGGA,223359.622,5649.80121,N,13221.79331,W,2,16,2.0,0.31,M,,,42,0135*2A
$GPHDT,151.7,T*37
$GPVTG,176.9,T,,M,1.3,N,2.3,K,D*02
$GPRMC,223359.62,A,5649.80121,N,13221.79331,W,1.3,151.7,200923,,,d*63
$PADCP,16,20230920,223400.20,0.38
$GPZDA,223400.0004,20,09,2023,,*6D
$GPGGA,223400.622,5649.80086,N,13221.79330,W,2,16,2.0,0.30,M,,,43,0135*2C
$GPHDT,151.4,T*34
$GPVTG,181.0,T,,M,1.3,N,2.4,K,D*04
$GPRMC,223400.62,A,5649.80086,N,13221.79330,W,1.3,151.4,200923,,,d*66
$GPZDA,223401.0004,20,09,2023,,*6C
$GPGGA,223401.622,5649.80051,N,13221.79330,W,2,16,2.0,0.29,M,,,44,0135*28
$GPHDT,150.9,T*38
$GPVTG,178.0,T,,M,1.2,N,2.2,K,D*05
$GPRMC,223401.62,A,5649.80051,N,13221.79330,W,1.2,150.9,200923,,,d*60
$GPZDA,223402.0004,20,09,2023,,*6F
$GPGGA,223402.622,5649.80017,N,13221.79328,W,2,15,2.0,0.30,M,,,45,0135*2A
$GPHDT,150.2,T*33
$GPVTG,179.3,T,,M,1.2,N,2.3,K,D*06
$GPRMC,223402.62,A,5649.80017,N,13221.79328,W,1.2,150.2,200923,,,d*63
$GPZDA,223403.0004,20,09,2023,,*6E
$PADCP,17,20230920,223403.46,0.38
$GPGGA,223403.623,5649.79984,N,13221.79326,W,2,13,2.0,0.29,M,,,46,0135*2C
$GPHDT,149.6,T*3F
$GPVTG,178.9,T,,M,1.2,N,2.2,K,D*0C
$GPRMC,223403.62,A,5649.79984,N,13221.79326,W,1.2,149.6,200923,,,d*65
$GPZDA,223404.0004,20,09,2023,,*69
$GPGGA,223404.623,5649.79951,N,13221.79324,W,2,13,2.0,0.30,M,,,47,0135*28
$GPHDT,149.0,T*39
$GPVTG,178.0,T,,M,1.2,N,2.2,K,D*05
$GPRMC,223404.62,A,5649.79951,N,13221.79324,W,1.2,149.0,200923,,,d*6E
$GPZDA,223405.0004,20,09,2023,,*68
$GPGGA,223405.623,5649.79918,N,13221.79321,W,2,13,2.0,0.30,M,,,48,0135*2E
$GPHDT,148.1,T*39
$GPVTG,177.5,T,,M,1.2,N,2.2,K,D*0F
$GPRMC,223405.62,A,5649.79918,N,13221.79321,W,1.2,148.1,200923,,,d*67
$GPZDA,223406.0004,20,09,2023,,*6B
$PADCP,18,20230920,223406.73,0.38
$GPGGA,223406.623,5649.79886,N,13221.79320,W,2,13,2.0,0.31,M,,,49,0135*2A
$GPHDT,147.0,T*37
$GPVTG,178.1,T,,M,1.2,N,2.2,K,D*04
$GPRMC,223406.62,A,5649.79886,N,13221.79320,W,1.2,147.0,200923,,,d*6D
$GPZDA,223407.0004,20,09,2023,,*6A
$GPGGA,223407.623,5649.79854,N,13221.79318,W,2,15,2.0,0.30,M,,,50,0135*20
$GPHDT,145.8,T*3D
$GPVTG,177.6,T,,M,1.2,N,2.2,K,D*0C
$GPRMC,223407.62,A,5649.79854,N,13221.79318,W,1.2,145.8,200923,,,d*62
$GPZDA,223408.0004,20,09,2023,,*65
$GPGGA,223408.623,5649.79822,N,13221.79314,W,2,15,2.0,0.31,M,,,51,0135*22
$GPHDT,144.6,T*32
$GPVTG,175.4,T,,M,1.2,N,2.2,K,D*0C
$GPRMC,223408.62,A,5649.79822,N,13221.79314,W,1.2,144.6,200923,,,d*6F
$GPZDA,223409.0005,20,09,2023,,*65
$PADCP,19,20230920,223410.00,0.38
$GPGGA,223409.623,5649.79789,N,13221.79309,W,2,15,2.0,0.30,M,,,52,0135*23
$GPHDT,143.5,T*36
$GPVTG,175.3,T,,M,1.2,N,2.1,K,D*08
$GPRMC,223409.62,A,5649.79789,N,13221.79309,W,1.2,143.5,200923,,,d*68
$GPZDA,223410.0005,20,09,2023,,*6D
$GPGGA,223410.623,5649.79757,N,13221.79302,W,2,14,2.0,0.30,M,,,53,0135*23
$GPHDT,142.7,T*35
$GPVTG,172.6,T,,M,1.2,N,2.1,K,D*0A
$GPRMC,223410.62,A,5649.79757,N,13221.79302,W,1.2,142.7,200923,,,d*6B
$GPZDA,223411.0005,20,09,2023,,*6C
$GPGGA,223411.623,5649.79725,N,13221.79293,W,2,14,2.0,0.30,M,,,54,0135*29
$GPHDT,142.2,T*30
$GPVTG,172.9,T,,M,1.2,N,2.2,K,D*06
$GPRMC,223411.62,A,5649.79725,N,13221.79293,W,1.2,142.2,200923,,,d*63
$GPZDA,223412.0005,20,09,2023,,*6F
$GPGGA,223412.623,5649.79692,N,13221.79285,W,2,14,2.0,0.29,M,,,55,0135*29
$GPHDT,141.5,T*34
$GPVTG,171.0,T,,M,1.1,N,2.1,K,D*0C
$GPRMC,223412.62,A,5649.79692,N,13221.79285,W,1.1,141.5,200923,,,d*6D
$PADCP,20,20230920,223413.26,0.38
$GPZDA,223413.0005,20,09,2023,,*6E
$GPGGA,223413.623,5649.79661,N,13221.79275,W,2,14,2.0,0.29,M,,,56,0135*28
$GPHDT,140.9,T*39
$GPVTG,170.7,T,,M,1.1,N,2.1,K,D*0A
$GPRMC,223413.62,A,5649.79661,N,13221.79275,W,1.1,140.9,200923,,,d*62
$GPZDA,223414.0005,20,09,2023,,*69
$GPGGA,223414.623,5649.79630,N,13221.79264,W,2,14,2.0,0.29,M,,,57,0135*2A
$GPHDT,140.2,T*32
$GPVTG,168.7,T,,M,1.1,N,2.1,K,D*03
$GPRMC,223414.62,A,5649.79630,N,13221.79264,W,1.1,140.2,200923,,,d*6A
$GPZDA,223415.0005,20,09,2023,,*68
$GPGGA,223415.623,5649.79599,N,13221.79250,W,2,14,2.0,0.28,M,,,58,0135*22
$GPHDT,139.3,T*3D
$GPVTG,166.9,T,,M,1.1,N,2.1,K,D*03
$GPRMC,223415.62,A,5649.79599,N,13221.79250,W,1.1,139.3,200923,,,d*63
$GPZDA,223416.0005,20,09,2023,,*6B
$PADCP,21,20230920,223416.53,0.38
$GPGGA,223416.623,5649.79568,N,13221.79236,W,2,14,2.0,0.28,M,,,59,0135*2E
$GPHDT,138.5,T*3A
$GPVTG,165.9,T,,M,1.1,N,2.1,K,D*00
$GPRMC,223416.62,A,5649.79568,N,13221.79236,W,1.1,138.5,200923,,,d*69
$GPZDA,223417.0005,20,09,2023,,*6A
$GPGGA,223417.623,5649.79538,N,13221.79221,W,2,15,2.0,0.28,M,,,60,0135*27
$GPHDT,137.6,T*36
$GPVTG,166.2,T,,M,1.1,N,2.1,K,D*08
$GPRMC,223417.62,A,5649.79538,N,13221.79221,W,1.1,137.6,200923,,,d*67
$GPZDA,223418.0005,20,09,2023,,*65
$GPGGA,223418.623,5649.79507,N,13221.79207,W,2,15,2.0,0.29,M,,,61,0135*20
$GPHDT,136.9,T*38
$GPVTG,166.0,T,,M,1.1,N,2.1,K,D*0A
$GPRMC,223418.62,A,5649.79507,N,13221.79207,W,1.1,136.9,200923,,,d*6E
$GPZDA,223419.0005,20,09,2023,,*64
$PADCP,22,20230920,223419.80,0.38
$GPGGA,223419.623,5649.79477,N,13221.79192,W,2,15,2.0,0.28,M,,,62,0135*2A
$GPHDT,136.3,T*32
$GPVTG,165.7,T,,M,1.1,N,2.1,K,D*0E
$GPRMC,223419.62,A,5649.79477,N,13221.79192,W,1.1,136.3,200923,,,d*6C
$GPZDA,223420.0006,20,09,2023,,*6D
$GPGGA,223420.623,5649.79448,N,13221.79174,W,2,15,2.0,0.29,M,,,63,0135*24
$GPHDT,135.9,T*3B
$GPVTG,159.5,T,,M,1.0,N,1.9,K,D*09
$GPRMC,223420.62,A,5649.79448,N,13221.79174,W,1.0,135.9,200923,,,d*6A
$GPZDA,223421.0006,20,09,2023,,*6C
$GPGGA,223421.623,5649.79419,N,13221.79157,W,2,15,2.0,0.29,M,,,64,0135*27
$GPHDT,135.4,T*36
$GPVTG,164.3,T,,M,1.1,N,2.0,K,D*0A
$GPRMC,223421.62,A,5649.79419,N,13221.79157,W,1.1,135.4,200923,,,d*62
$GPZDA,223422.0006,20,09,2023,,*6F
$GPGGA,223422.623,5649.79390,N,13221.79140,W,2,15,2.0,0.26,M,,,65,0135*2A
$GPHDT,135.0,T*32
$PADCP,23,20230920,223423.06,0.38
$GPVTG,159.9,T,,M,1.1,N,1.9,K,D*04
$GPRMC,223422.62,A,5649.79390,N,13221.79140,W,1.1,135.0,200923,,,d*65
$GPZDA,223423.0006,20,09,2023,,*6E
$GPGGA,223423.623,5649.79363,N,13221.79120,W,2,15,2.0,0.27,M,,,66,0135*23
$GPHDT,134.7,T*34
$GPVTG,158.8,T,,M,1.1,N,2.0,K,D*0E
$GPRMC,223423.62,A,5649.79363,N,13221.79120,W,1.1,134.7,200923,,,d*68
$GPZDA,223424.0006,20,09,2023,,*69
$GPGGA,223424.623,5649.79337,N,13221.79098,W,2,15,2.0,0.29,M,,,67,0135*28
$GPHDT,134.2,T*31
$GPVTG,154.2,T,,M,1.1,N,2.0,K,D*08
$GPRMC,223424.62,A,5649.79337,N,13221.79098,W,1.1,134.2,200923,,,d*69
$GPZDA,223425.0006,20,09,2023,,*68
$GPGGA,223425.623,5649.79309,N,13221.79076,W,2,15,2.0,0.29,M,,,68,0135*2B
$GPHDT,133.7,T*33
$GPVTG,158.0,T,,M,1.1,N,2.0,K,D*06
$GPRMC,223425.62,A,5649.79309,N,13221.79076,W,1.1,133.7,200923,,,d*67
$PADCP,24,20230920,223426.33,0.38
$GPZDA,223426.0006,20,09,2023,,*6B
$GPGGA,223426.623,5649.79282,N,13221.79052,W,2,15,2.0,0.29,M,,,69,0135*2D
$GPHDT,133.4,T*30
$GPVTG,154.9,T,,M,1.1,N,2.0,K,D*03
$GPRMC,223426.62,A,5649.79282,N,13221.79052,W,1.1,133.4,200923,,,d*63
$GPZDA,223427.0006,20,09,2023,,*6A
$GPGGA,223427.623,5649.79254,N,13221.79027,W,2,15,2.0,0.27,M,,,70,0135*23
$GPHDT,133.1,T*35
$GPVTG,153.7,T,,M,1.1,N,2.0,K,D*0A
$GPRMC,223427.62,A,5649.79254,N,13221.79027,W,1.1,133.1,200923,,,d*6E
$GPZDA,223428.0006,20,09,2023,,*65
$GPGGA,223428.623,5649.79228,N,13221.79000,W,2,15,2.0,0.29,M,,,71,0135*2D
$GPHDT,132.9,T*3C
$GPVTG,150.2,T,,M,1.0,N,1.9,K,D*07
$GPRMC,223428.62,A,5649.79228,N,13221.79000,W,1.0,132.9,200923,,,d*67
$GPZDA,223429.0006,20,09,2023,,*64
$PADCP,25,20230920,223429.60,0.38
$GPGGA,223429.623,5649.79202,N,13221.78972,W,2,15,2.0,0.29,M,,,72,0135*2A
$GPHDT,132.7,T*32
$GPVTG,148.4,T,,M,1.1,N,2.0,K,D*03
$GPRMC,223429.62,A,5649.79202,N,13221.78972,W,1.1,132.7,200923,,,d*6C
$GPZDA,223430.0007,20,09,2023,,*6D
$GPGGA,223430.623,5649.79175,N,13221.78942,W,2,15,2.0,0.28,M,,,73,0135*22
$GPHDT,132.6,T*33
$GPVTG,147.1,T,,M,1.1,N,2.0,K,D*09
$GPRMC,223430.62,A,5649.79175,N,13221.78942,W,1.1,132.6,200923,,,d*65
$GPZDA,223431.0007,20,09,2023,,*6C
$GPGGA,223431.623,5649.79150,N,13221.78910,W,2,15,2.0,0.31,M,,,74,0135*2C
$GPHDT,132.6,T*33
$GPVTG,146.2,T,,M,1.1,N,2.1,K,D*0A
$GPRMC,223431.62,A,5649.79150,N,13221.78910,W,1.1,132.6,200923,,,d*64
$GPZDA,223432.0007,20,09,2023,,*6F
$PADCP,26,20230920,223432.86,0.38
$GPGGA,223432.623,5649.79123,N,13221.78879,W,2,15,2.0,0.30,M,,,75,0135*25
$GPHDT,132.9,T*3C
$GPVTG,147.7,T,,M,1.1,N,2.0,K,D*0F
$GPRMC,223432.62,A,5649.79123,N,13221.78879,W,1.1,132.9,200923,,,d*62
$GPZDA,223433.0007,20,09,2023,,*6E
$GPGGA,223433.623,5649.79097,N,13221.78846,W,2,15,2.0,0.32,M,,,76,0135*27
$GPHDT,133.3,T*37
$GPVTG,145.0,T,,M,1.1,N,2.0,K,D*0A
$GPRMC,223433.62,A,5649.79097,N,13221.78846,W,1.1,133.3,200923,,,d*6A
$GPZDA,223434.0007,20,09,2023,,*69
$GPGGA,223434.623,5649.79071,N,13221.78814,W,2,15,2.0,0.32,M,,,77,0135*2E
$GPHDT,133.7,T*33
$GPVTG,147.8,T,,M,1.2,N,2.1,K,D*02
$GPRMC,223434.62,A,5649.79071,N,13221.78814,W,1.2,133.7,200923,,,d*65
$GPZDA,223435.0007,20,09,2023,,*68
$GPGGA,223435.623,5649.79044,N,13221.78779,W,2,15,2.0,0.32,M,,,78,0135*22
$GPHDT,134.7,T*34
$GPVTG,144.5,T,,M,1.2,N,2.1,K,D*0C
$PADCP,27,20230920,223436.14,0.38
$GPRMC,223435.62,A,5649.79044,N,13221.78779,W,1.2,134.7,200923,,,d*61
$GPZDA,223436.0007,20,09,2023,,*6B
$GPGGA,223436.623,5649.79017,N,13221.78744,W,2,15,2.0,0.32,M,,,79,0135*28
$GPHDT,136.0,T*31
$GPVTG,145.6,T,,M,1.2,N,2.2,K,D*0D
$GPRMC,223436.62,A,5649.79017,N,13221.78744,W,1.2,136.0,200923,,,d*6F
$GPZDA,223437.0007,20,09,2023,,*6A
$GPGGA,223437.623,5649.78990,N,13221.78709,W,2,15,2.0,0.32,M,,,80,0135*21
$GPHDT,137.2,T*32
$GPVTG,147.7,T,,M,1.2,N,2.2,K,D*0E
$GPRMC,223437.62,A,5649.78990,N,13221.78709,W,1.2,137.2,200923,,,d*63
$GPZDA,223438.0007,20,09,2023,,*65
$GPGGA,223438.623,5649.78962,N,13221.78675,W,2,15,2.0,0.31,M,,,81,0135*2B
$GPHDT,138.7,T*38
$GPVTG,148.2,T,,M,1.2,N,2.2,K,D*04
$GPRMC,223438.62,A,5649.78962,N,13221.78675,W,1.2,138.7,200923,,,d*61
$GPZDA,223439.0007,20,09,2023,,*64
$PADCP,28,20230920,223439.40,0.38
$GPGGA,223439.623,5649.78934,N,13221.78643,W,2,15,2.0,0.31,M,,,82,0135*2F
$GPHDT,140.0,T*30
$GPVTG,150.6,T,,M,1.2,N,2.2,K,D*09
$GPRMC,223439.62,A,5649.78934,N,13221.78643,W,1.2,140.0,200923,,,d*6E
$GPZDA,223440.0007,20,09,2023,,*6A
$GPGGA,223440.623,5649.78906,N,13221.78611,W,2,15,2.0,0.31,M,,,83,0135*26
$GPHDT,141.0,T*31
$GPVTG,149.5,T,,M,1.2,N,2.1,K,D*01
$GPRMC,223440.62,A,5649.78906,N,13221.78611,W,1.2,141.0,200923,,,d*67
$GPZDA,223441.0008,20,09,2023,,*64
$GPGGA,223441.623,5649.78877,N,13221.78583,W,2,15,2.0,0.32,M,,,84,0135*2C
$GPHDT,141.5,T*34
$GPVTG,154.6,T,,M,1.1,N,2.1,K,D*0D
$GPRMC,223441.62,A,5649.78877,N,13221.78583,W,1.1,141.5,200923,,,d*6F
$GPZDA,223442.0008,20,09,2023,,*67
$PADCP,29,20230920,223442.67,0.38
$GPGGA,223442.623,5649.78848,N,13221.78557,W,2,15,2.0,0.33,M,,,85,0135*2A
$GPHDT,141.6,T*37
$GPVTG,156.0,T,,M,1.1,N,2.1,K,D*09
$GPRMC,223442.62,A,5649.78848,N,13221.78557,W,1.1,141.6,200923,,,d*6A
$GPZDA,223443.0008,20,09,2023,,*66
$GPGGA,223443.623,5649.78819,N,13221.78534,W,2,15,2.0,0.31,M,,,86,0135*2B
$GPHDT,141.5,T*34
$GPVTG,159.0,T,,M,1.2,N,2.2,K,D*06
$GPRMC,223443.62,A,5649.78819,N,13221.78534,W,1.2,141.5,200923,,,d*6A
$GPZDA,223444.0008,20,09,2023,,*61
$GPGGA,223444.623,5649.78790,N,13221.78511,W,2,15,2.0,0.31,M,,,87,0135*24
$GPHDT,141.3,T*32
$GPVTG,156.4,T,,M,1.1,N,2.1,K,D*0D
$GPRMC,223444.62,A,5649.78790,N,13221.78511,W,1.1,141.3,200923,,,d*61
$GPZDA,223445.0008,20,09,2023,,*60
$PADCP,30,20230920,223445.94,0.38
$GPGGA,223445.623,5649.78762,N,13221.78489,W,2,15,2.0,0.32,M,,,88,0135*24
$GPHDT,141.0,T*31
$GPVTG,159.7,T,,M,1.1,N,2.1,K,D*01
$GPRMC,223445.62,A,5649.78762,N,13221.78489,W,1.1,141.0,200923,,,d*6E
$GPZDA,223446.0008,20,09,2023,,*63
$GPGGA,223446.623,5649.78733,N,13221.78468,W,2,15,2.0,0.32,M,,,89,0135*2D
$GPHDT,140.5,T*35
$GPVTG,160.3,T,,M,1.1,N,2.1,K,D*0F
$GPRMC,223446.62,A,5649.78733,N,13221.78468,W,1.1,140.5,200923,,,d*62
$GPZDA,223447.0008,20,09,2023,,*62
$GPGGA,223447.623,5649.78704,N,13221.78449,W,2,15,2.0,0.32,M,,,90,0135*23
$GPHDT,140.1,T*31
$GPVTG,160.8,T,,M,1.1,N,2.1,K,D*04
$GPRMC,223447.62,A,5649.78704,N,13221.78449,W,1.1,140.1,200923,,,d*60
$GPZDA,223448.0008,20,09,2023,,*6D
$GPGGA,223448.623,5649.78676,N,13221.78429,W,2,15,2.0,0.33,M,,,91,0135*2E
$GPHDT,139.5,T*3B
$GPVTG,161.4,T,,M,1.1,N,2.1,K,D*09
$GPRMC,223448.62,A,5649.78676,N,13221.78429,W,1.1,139.5,200923,,,d*67
$PADCP,31,20230920,223449.20,0.38
$GPZDA,223449.0008,20,09,2023,,*6C
$GPGGA,223449.623,5649.78648,N,13221.78411,W,2,15,2.0,0.35,M,,,92,0135*2C
$GPHDT,138.9,T*36
$GPVTG,159.6,T,,M,1.0,N,1.9,K,D*0A
$GPRMC,223449.62,A,5649.78648,N,13221.78411,W,1.0,138.9,200923,,,d*6C
$GPZDA,223450.0008,20,09,2023,,*64
$GPGGA,223450.623,5649.78619,N,13221.78393,W,2,15,2.0,0.35,M,,,93,0135*2C
$GPHDT,137.8,T*38
$GPVTG,163.8,T,,M,1.1,N,2.1,K,D*07
$GPRMC,223450.62,A,5649.78619,N,13221.78393,W,1.1,137.8,200923,,,d*62
$GPZDA,223451.0008,20,09,2023,,*65
$GPGGA,223451.623,5649.78591,N,13221.78377,W,2,15,2.0,0.34,M,,,94,0135*22
$GPHDT,136.6,T*37
$GPVTG,161.8,T,,M,1.1,N,2.0,K,D*04
$GPRMC,223451.62,A,5649.78591,N,13221.78377,W,1.1,136.6,200923,,,d*65
$GPZDA,223452.0009,20,09,2023,,*67
$PADCP,32,20230920,223452.47,0.38
$GPGGA,223452.623,5649.78563,N,13221.78359,W,2,15,2.0,0.35,M,,,95,0135*20
$GPHDT,135.2,T*30
$GPVTG,163.1,T,,M,1.1,N,2.0,K,D*0F
$GPRMC,223452.62,A,5649.78563,N,13221.78359,W,1.1,135.2,200923,,,d*60
$GPZDA,223453.0009,20,09,2023,,*66
$GPGGA,223453.623,5649.78534,N,13221.78342,W,2,15,2.0,0.32,M,,,96,0135*2D
$GPHDT,133.9,T*3D
$GPVTG,160.5,T,,M,1.1,N,2.0,K,D*08
$GPRMC,223453.62,A,5649.78534,N,13221.78342,W,1.1,133.9,200923,,,d*64
$GPZDA,223454.0009,20,09,2023,,*61
$GPGGA,223454.623,5649.78508,N,13221.78322,W,2,15,2.0,0.34,M,,,97,0135*24
$GPHDT,132.8,T*3D
$GPVTG,154.7,T,,M,1.0,N,1.9,K,D*06
$GPRMC,223454.62,A,5649.78508,N,13221.78322,W,1.0,132.8,200923,,,d*6B
$GPZDA,223455.0009,20,09,2023,,*60
$PADCP,33,20230920,223455.73,0.38
$GPGGA,223455.623,5649.78483,N,13221.78299,W,2,15,2.0,0.39,M,,,98,0135*24
$GPHDT,131.9,T*3F
$GPVTG,155.7,T,,M,1.1,N,2.0,K,D*0C
$GPRMC,223455.62,A,5649.78483,N,13221.78299,W,1.1,131.9,200923,,,d*6A
$GPZDA,223456.0009,20,09,2023,,*63
$GPGGA,223456.623,5649.78457,N,13221.78278,W,2,15,2.0,0.38,M,,,99,0135*21
$GPHDT,131.6,T*30
$GPVTG,155.8,T,,M,1.1,N,2.0,K,D*03
$GPRMC,223456.62,A,5649.78457,N,13221.78278,W,1.1,131.6,200923,,,d*60
$GPZDA,223457.0009,20,09,2023,,*62
$GPGGA,223457.623,5649.78430,N,13221.78254,W,2,15,2.0,0.37,M,,,100,0135*11
$GPHDT,132.0,T*35
$GPVTG,153.6,T,,M,1.1,N,2.0,K,D*0B
$GPRMC,223457.62,A,5649.78430,N,13221.78254,W,1.1,132.0,200923,,,d*6B
$GPZDA,223458.0009,20,09,2023,,*6D
$PADCP,34,20230920,223458.99,0.38
$GPGGA,223458.623,5649.78404,N,13221.78228,W,2,15,2.0,0.38,M,,,101,0135*1C
$GPHDT,132.6,T*33
$GPVTG,153.2,T,,M,1.1,N,2.1,K,D*0E
$GPRMC,223458.62,A,5649.78404,N,13221.78228,W,1.1,132.6,200923,,,d*6E
$GPZDA,223459.0009,20,09,2023,,*6C
$GPGGA,223459.623,5649.78378,N,13221.78203,W,2,15,2.0,0.38,M,,,102,0135*1B
$GPHDT,133.3,T*37
$GPVTG,153.5,T,,M,1.1,N,2.0,K,D*08
$GPRMC,223459.62,A,5649.78378,N,13221.78203,W,1.1,133.3,200923,,,d*6E
$GPZDA,223500.0009,20,09,2023,,*61
$GPGGA,223500.623,5649.78352,N,13221.78177,W,2,15,2.0,0.39,M,,,103,0135*1E
$GPHDT,133.9,T*3D
$GPVTG,153.4,T,,M,1.1,N,2.0,K,D*09
$GPRMC,223500.62,A,5649.78352,N,13221.78177,W,1.1,133.9,200923,,,d*61
$GPZDA,223501.0009,20,09,2023,,*60
$GPGGA,223501.623,5649.78325,N,13221.78153,W,2,15,2.0,0.38,M,,,104,0135*1F
$GPHDT,134.3,T*30
$GPVTG,154.8,T,,M,1.1,N,2.0,K,D*02
$GPRMC,223501.62,A,5649.78325,N,13221.78153,W,1.1,134.3,200923,,,d*6B
$PADCP,35,20230920,223502.26,0.38
$GPZDA,223502.0010,20,09,2023,,*6B
$GPGGA,223502.623,5649.78299,N,13221.78129,W,2,15,2.0,0.39,M,,,105,0135*17
$GPHDT,134.3,T*30
$GPVTG,155.8,T,,M,1.1,N,2.0,K,D*03
$GPRMC,223502.62,A,5649.78299,N,13221.78129,W,1.1,134.3,200923,,,d*63
$GPZDA,223503.0010,20,09,2023,,*6A
$GPGGA,223503.623,5649.78273,N,13221.78108,W,2,15,2.0,0.40,M,,,106,0135*1C
$GPHDT,134.1,T*32
$GPVTG,157.9,T,,M,1.1,N,2.0,K,D*00
$GPRMC,223503.62,A,5649.78273,N,13221.78108,W,1.1,134.1,200923,,,d*67
$GPZDA,223504.0010,20,09,2023,,*6D
$GPGGA,223504.623,5649.78247,N,13221.78087,W,2,15,2.0,0.41,M,,,107,0135*1A
$GPHDT,133.9,T*3D
$GPVTG,157.0,T,,M,1.1,N,2.0,K,D*09
$GPRMC,223504.62,A,5649.78247,N,13221.78087,W,1.1,133.9,200923,,,d*6E
$GPZDA,223505.0010,20,09,2023,,*6C
$PADCP,36,20230920,223505.53,0.38
$GPGGA,223505.623,5649.78221,N,13221.78065,W,2,15,2.0,0.43,M,,,108,0135*1A
$GPHDT,133.7,T*33
$GPVTG,158.5,T,,M,1.1,N,2.0,K,D*03
$GPRMC,223505.62,A,5649.78221,N,13221.78065,W,1.1,133.7,200923,,,d*6D
$GPZDA,223506.0010,20,09,2023,,*6F
$GPGGA,223506.623,5649.78193,N,13221.78047,W,2,15,2.0,0.39,M,,,109,0135*1F
$GPHDT,133.6,T*32
$GPVTG,161.2,T,,M,1.1,N,2.0,K,D*0E
$GPRMC,223506.62,A,5649.78193,N,13221.78047,W,1.1,133.6,200923,,,d*65
$GPZDA,223507.0010,20,09,2023,,*6E
$GPGGA,223507.623,5649.78167,N,13221.78029,W,2,15,2.0,0.40,M,,,110,0135*1B
$GPHDT,133.0,T*34
$GPVTG,158.5,T,,M,1.0,N,1.9,K,D*08
$GPRMC,223507.62,A,5649.78167,N,13221.78029,W,1.0,133.0,200923,,,d*60
$GPZDA,223508.0010,20,09,2023,,*61
$PADCP,37,20230920,223508.79,0.38
$GPGGA,223508.623,5649.78141,N,13221.78010,W,2,15,2.0,0.41,M,,,111,0135*1A
$GPHDT,132.3,T*36
$GPVTG,160.1,T,,M,1.0,N,1.9,K,D*07
$GPRMC,223508.62,A,5649.78141,N,13221.78010,W,1.0,132.3,200923,,,d*63
$GPZDA,223509.0010,20,09,2023,,*60
$GPGGA,223509.623,5649.78116,N,13221.77994,W,2,15,2.0,0.41,M,,,112,0135*10
$GPHDT,131.3,T*35
$GPVTG,159.8,T,,M,1.0,N,1.8,K,D*05
$GPRMC,223509.62,A,5649.78116,N,13221.77994,W,1.0,131.3,200923,,,d*69
$GPZDA,223510.0010,20,09,2023,,*68
$GPGGA,223510.623,5649.78092,N,13221.77977,W,2,15,2.0,0.43,M,,,113,0135*1B
$GPHDT,129.9,T*36
$GPVTG,161.2,T,,M,0.9,N,1.7,K,D*03
$GPRMC,223510.62,A,5649.78092,N,13221.77977,W,0.9,129.9,200923,,,d*6A
$GPZDA,223511.0010,20,09,2023,,*69
$GPGGA,223511.623,5649.78069,N,13221.77962,W,2,15,2.0,0.41,M,,,114,0135*1F
$GPHDT,128.2,T*3C
$PADCP,38,20230920,223512.06,0.38
$GPVTG,159.9,T,,M,0.9,N,1.7,K,D*03
$GPRMC,223511.62,A,5649.78069,N,13221.77962,W,0.9,128.2,200923,,,d*61
$GPZDA,223512.0010,20,09,2023,,*6A
$GPGGA,223512.623,5649.78047,N,13221.77945,W,2,15,2.0,0.43,M,,,115,0135*16
$GPHDT,126.3,T*33
$GPVTG,156.0,T,,M,0.9,N,1.6,K,D*04
$GPRMC,223512.62,A,5649.78047,N,13221.77945,W,0.9,126.3,200923,,,d*64
$GPZDA,223513.0011,20,09,2023,,*6A
$GPGGA,223513.623,5649.78025,N,13221.77928,W,2,15,2.0,0.44,M,,,116,0135*1C
$GPHDT,124.6,T*34
$GPVTG,156.6,T,,M,0.9,N,1.6,K,D*02
$GPRMC,223513.62,A,5649.78025,N,13221.77928,W,0.9,124.6,200923,,,d*6D
$GPZDA,223514.0011,20,09,2023,,*6D
$GPGGA,223514.623,5649.78004,N,13221.77911,W,2,15,2.0,0.43,M,,,117,0135*14
$GPHDT,122.4,T*30
$GPVTG,154.5,T,,M,0.9,N,1.6,K,D*03
$GPRMC,223514.62,A,5649.78004,N,13221.77911,W,0.9,122.4,200923,,,d*67
$PADCP,39,20230920,223515.33,0.38
$GPZDA,223515.0011,20,09,2023,,*6C
$GPGGA,223515.623,5649.77984,N,13221.77890,W,2,15,2.0,0.44,M,,,118,0135*1B
$GPHDT,120.2,T*34
$GPVTG,150.0,T,,M,0.8,N,1.6,K,D*03
$GPRMC,223515.62,A,5649.77984,N,13221.77890,W,0.8,120.2,200923,,,d*65
$GPZDA,223516.0011,20,09,2023,,*6F
$GPGGA,223516.623,5649.77965,N,13221.77869,W,2,15,2.0,0.44,M,,,119,0135*10
$GPHDT,118.0,T*3D
$GPVTG,148.6,T,,M,0.8,N,1.6,K,D*0C
$GPRMC,223516.62,A,5649.77965,N,13221.77869,W,0.8,118.0,200923,,,d*66
$GPZDA,223517.0011,20,09,2023,,*6E
$GPGGA,223517.623,5649.77946,N,13221.77846,W,2,15,2.0,0.44,M,,,120,0135*17
$GPHDT,116.0,T*33
$GPVTG,146.2,T,,M,0.8,N,1.5,K,D*05
$GPRMC,223517.62,A,5649.77946,N,13221.77846,W,0.8,116.0,200923,,,d*65
$GPZDA,223518.0011,20,09,2023,,*61
$PADCP,40,20230920,223518.59,0.38
$GPGGA,223518.623,5649.77930,N,13221.77822,W,2,15,2.0,0.45,M,,,121,0135*1B
$GPHDT,114.0,T*31
$GPVTG,136.7,T,,M,0.8,N,1.4,K,D*06
$GPRMC,223518.62,A,5649.77930,N,13221.77822,W,0.8,114.0,200923,,,d*6B
$GPZDA,223519.0011,20,09,2023,,*60
$GPGGA,223519.623,5649.77914,N,13221.77795,W,2,15,2.0,0.49,M,,,122,0135*10
$GPHDT,111.7,T*33
$GPVTG,138.0,T,,M,0.8,N,1.5,K,D*0E
$GPRMC,223519.62,A,5649.77914,N,13221.77795,W,0.8,111.7,200923,,,d*6D
$GPZDA,223520.0011,20,09,2023,,*6A
$GPGGA,223520.623,5649.77898,N,13221.77767,W,2,15,2.0,0.48,M,,,123,0135*12
$GPHDT,109.7,T*3A
$GPVTG,135.6,T,,M,0.8,N,1.5,K,D*05
$GPRMC,223520.62,A,5649.77898,N,13221.77767,W,0.8,109.7,200923,,,d*66
$GPZDA,223521.0011,20,09,2023,,*6B
$PADCP,41,20230920,223521.86,0.38
$GPGGA,223521.623,5649.77884,N,13221.77738,W,2,15,2.0,0.49,M,,,124,0135*12
$GPHDT,107.9,T*3A
$GPVTG,132.5,T,,M,0.7,N,1.4,K,D*0F
$GPRMC,223521.62,A,5649.77884,N,13221.77738,W,0.7,107.9,200923,,,d*6F
$GPZDA,223522.0011,20,09,2023,,*68
$GPGGA,223522.623,5649.77871,N,13221.77712,W,2,15,2.0,0.48,M,,,125,0135*13
$GPHDT,106.5,T*37
$GPVTG,131.9,T,,M,0.7,N,1.3,K,D*07
$GPRMC,223522.62,A,5649.77871,N,13221.77712,W,0.7,106.5,200923,,,d*63
$GPZDA,223523.0011,20,09,2023,,*69
$GPGGA,223523.623,5649.77861,N,13221.77689,W,2,15,2.0,0.50,M,,,126,0135*1A
$GPHDT,105.1,T*30
$GPVTG,129.7,T,,M,0.6,N,1.0,K,D*02
$GPRMC,223523.62,A,5649.77861,N,13221.77689,W,0.6,105.1,200923,,,d*66
$GPZDA,223524.0012,20,09,2023,,*6D
$GPGGA,223524.623,5649.77854,N,13221.77668,W,2,15,2.1,0.56,M,,,127,0135*12
$GPHDT,103.8,T*3F
$GPVTG,125.2,T,,M,0.5,N,0.8,K,D*01
$PADCP,42,20230920,223525.13,0.38
$GPRMC,223524.62,A,5649.77854,N,13221.77668,W,0.5,103.8,200923,,,d*64
$GPZDA,223525.0012,20,09,2023,,*6C
$GPGGA,223525.623,5649.77846,N,13221.77652,W,2,15,2.1,0.56,M,,,128,0135*16
$GPHDT,102.0,T*36
$GPVTG,144.3,T,,M,0.5,N,0.9,K,D*06
$GPRMC,223525.62,A,5649.77846,N,13221.77652,W,0.5,102.0,200923,,,d*66
$GPZDA,223526.0012,20,09,2023,,*6F
$GPGGA,223526.623,5649.77838,N,13221.77637,W,2,15,2.1,0.54,M,,,129,0135*1C
$GPHDT,100.5,T*31
$GPVTG,130.7,T,,M,0.3,N,0.6,K,D*08
$GPRMC,223526.62,A,5649.77838,N,13221.77637,W,0.3,100.5,200923,,,d*6E
$GPZDA,223527.0012,20,09,2023,,*6E
$GPGGA,223527.623,5649.77833,N,13221.77624,W,2,15,2.1,0.57,M,,,130,0135*1F
$GPHDT,98.8,T*0C
$GPVTG,130.2,T,,M,0.3,N,0.6,K,D*0D
$GPRMC,223527.62,A,5649.77833,N,13221.77624,W,0.3,98.8,200923,,,d*5B
$GPZDA,223528.0012,20,09,2023,,*61
$PADCP,43,20230920,223528.39,0.38
$GPGGA,223528.623,5649.77827,N,13221.77614,W,2,15,2.1,0.56,M,,,131,0135*16
$GPHDT,97.3,T*08
$GPVTG,145.2,T,,M,0.3,N,0.5,K,D*0C
$GPRMC,223528.62,A,5649.77827,N,13221.77614,W,0.3,97.3,200923,,,d*56
$GPZDA,223529.0012,20,09,2023,,*60
$GPGGA,223529.623,5649.77822,N,13221.77606,W,2,15,2.1,0.55,M,,,132,0135*11
$GPHDT,95.8,T*01
$GPVTG,145.3,T,,M,0.2,N,0.3,K,D*0A
$GPRMC,223529.62,A,5649.77822,N,13221.77606,W,0.2,95.8,200923,,,d*59
$GPZDA,223530.0012,20,09,2023,,*68
$GPGGA,223530.623,5649.77818,N,13221.77601,W,2,15,2.1,0.57,M,,,133,0135*14
$GPHDT,94.1,T*09
$GPVTG,149.7,T,,M,0.2,N,0.4,K,D*05
$GPRMC,223530.62,A,5649.77818,N,13221.77601,W,0.2,94.1,200923,,,d*57
$GPZDA,223531.0012,20,09,2023,,*69
$PADCP,44,20230920,223531.65,0.38
$GPGGA,223531.623,5649.77814,N,13221.77596,W,2,15,2.1,0.59,M,,,134,0135*1D
$GPHDT,92.5,T*0B
$GPVTG,157.2,T,,M,0.1,N,0.3,K,D*0B
$GPRMC,223531.62,A,5649.77814,N,13221.77596,W,0.1,92.5,200923,,,d*56
$GPZDA,223532.0012,20,09,2023,,*6A
$GPGGA,223532.623,5649.77810,N,13221.77593,W,2,15,2.1,0.59,M,,,135,0135*1E
$GPHDT,91.1,T*0C
$GPVTG,173.4,T,,M,0.1,N,0.3,K,D*0B
$GPRMC,223532.62,A,5649.77810,N,13221.77593,W,0.1,91.1,200923,,,d*53
$GPZDA,223533.0012,20,09,2023,,*6B
$GPGGA,223533.623,5649.77807,N,13221.77591,W,2,15,2.1,0.60,M,,,136,0135*12
$GPHDT,89.7,T*03
$GPVTG,174.3,T,,M,0.1,N,0.3,K,D*0B
$GPRMC,223533.62,A,5649.77807,N,13221.77591,W,0.1,89.7,200923,,,d*59
$GPZDA,223534.0012,20,09,2023,,*6C
$PADCP,45,20230920,223534.92,0.38
$GPGGA,223534.623,5649.77803,N,13221.77591,W,2,15,2.1,0.59,M,,,137,0135*1A
$GPHDT,88.4,T*01
$GPVTG,199.8,T,,M,0.1,N,0.3,K,D*03
$GPRMC,223534.62,A,5649.77803,N,13221.77591,W,0.1,88.4,200923,,,d*58
$GPZDA,223535.0013,20,09,2023,,*6C
$GPGGA,223535.623,5649.77800,N,13221.77594,W,2,15,2.1,0.59,M,,,138,0135*12
$GPHDT,87.0,T*0A
$GPVTG,208.2,T,,M,0.2,N,0.3,K,D*01
$GPRMC,223535.62,A,5649.77800,N,13221.77594,W,0.2,87.0,200923,,,d*57
$GPZDA,223536.0013,20,09,2023,,*6F
$GPGGA,223536.623,5649.77797,N,13221.77597,W,2,15,2.1,0.60,M,,,139,0135*18
$GPHDT,85.5,T*0D
$GPVTG,235.0,T,,M,0.1,N,0.2,K,D*0F
$GPRMC,223536.62,A,5649.77797,N,13221.77597,W,0.1,85.5,200923,,,d*52
$GPZDA,223537.0013,20,09,2023,,*6E
$GPGGA,223537.623,5649.77795,N,13221.77601,W,2,15,2.1,0.61,M,,,140,0135*18
$GPHDT,84.0,T*09
$GPVTG,221.4,T,,M,0.2,N,0.3,K,D*0C
$GPRMC,223537.62,A,5649.77795,N,13221.77601,W,0.2,84.0,200923,,,d*5A
$PADCP,46,20230920,223538.19,0.38
$GPZDA,223538.0013,20,09,2023,,*61
$GPGGA,223538.623,5649.77791,N,13221.77606,W,2,15,2.1,0.58,M,,,141,0135*1F
$GPHDT,82.7,T*08
$GPVTG,230.0,T,,M,0.2,N,0.4,K,D*0F
$GPRMC,223538.62,A,5649.77791,N,13221.77606,W,0.2,82.7,200923,,,d*57
$GPZDA,223539.0013,20,09,2023,,*60
$GPGGA,223539.623,5649.77790,N,13221.77612,W,2,15,2.1,0.60,M,,,142,0135*12
$GPHDT,80.8,T*05
$GPVTG,265.7,T,,M,0.2,N,0.3,K,D*0F
$GPRMC,223539.62,A,5649.77790,N,13221.77612,W,0.2,80.8,200923,,,d*5F
$GPZDA,223540.0013,20,09,2023,,*6E
$GPGGA,223540.623,5649.77789,N,13221.77619,W,2,15,2.1,0.64,M,,,143,0135*1A
$GPHDT,79.0,T*0B
$GPVTG,247.5,T,,M,0.2,N,0.4,K,D*0A
$GPRMC,223540.62,A,5649.77789,N,13221.77619,W,0.2,79.0,200923,,,d*5C
$GPZDA,223541.0013,20,09,2023,,*6F
$PADCP,47,20230920,223541.45,0.38
$GPGGA,223541.623,5649.77786,N,13221.77624,W,2,15,2.1,0.63,M,,,144,0135*1A
$GPHDT,77.8,T*0D
$GPVTG,225.9,T,,M,0.2,N,0.4,K,D*02
$GPRMC,223541.62,A,5649.77786,N,13221.77624,W,0.2,77.8,200923,,,d*5A
$GPZDA,223542.0013,20,09,2023,,*6C
$GPGGA,223542.623,5649.77782,N,13221.77631,W,2,15,2.1,0.60,M,,,145,0135*1B
$GPHDT,76.0,T*04
$GPVTG,244.1,T,,M,0.2,N,0.4,K,D*0D
$GPRMC,223542.62,A,5649.77782,N,13221.77631,W,0.2,76.0,200923,,,d*50
$GPZDA,223543.0013,20,09,2023,,*6D
$GPGGA,223543.623,5649.77781,N,13221.77639,W,2,15,2.1,0.62,M,,,146,0135*10
$GPHDT,74.5,T*03
$GPVTG,242.3,T,,M,0.2,N,0.5,K,D*08
$GPRMC,223543.62,A,5649.77781,N,13221.77639,W,0.2,74.5,200923,,,d*5D
$GPZDA,223544.0013,20,09,2023,,*6A
$PADCP,48,20230920,223544.72,0.38
$GPGGA,223544.623,5649.77778,N,13221.77648,W,2,15,2.1,0.62,M,,,147,0135*16
$GPHDT,72.8,T*08
$GPVTG,245.4,T,,M,0.2,N,0.4,K,D*09
$GPRMC,223544.62,A,5649.77778,N,13221.77648,W,0.2,72.8,200923,,,d*51
$GPZDA,223545.0014,20,09,2023,,*6C
$GPGGA,223545.623,5649.77776,N,13221.77656,W,2,15,2.1,0.62,M,,,148,0135*19
$GPHDT,71.2,T*01
$GPVTG,246.8,T,,M,0.2,N,0.4,K,D*06
$GPRMC,223545.62,A,5649.77776,N,13221.77656,W,0.2,71.2,200923,,,d*58
$GPZDA,223546.0014,20,09,2023,,*6F
$GPGGA,223546.623,5649.77774,N,13221.77665,W,2,15,2.1,0.63,M,,,149,0135*18
$GPHDT,69.6,T*0C
$GPVTG,245.3,T,,M,0.3,N,0.5,K,D*0E
$GPRMC,223546.62,A,5649.77774,N,13221.77665,W,0.3,69.6,200923,,,d*55
$GPZDA,223547.0014,20,09,2023,,*6E
$PADCP,49,20230920,223547.99,0.38
$GPGGA,223547.623,5649.77771,N,13221.77674,W,2,15,2.1,0.63,M,,,150,0135*14
$GPHDT,68.0,T*0B
$GPVTG,251.6,T,,M,0.3,N,0.5,K,D*0E
$GPRMC,223547.62,A,5649.77771,N,13221.77674,W,0.3,68.0,200923,,,d*56
$GPZDA,223548.0014,20,09,2023,,*61
$GPGGA,223548.623,5649.77769,N,13221.77686,W,2,15,2.1,0.64,M,,,151,0135*19
$GPHDT,66.2,T*07
$GPVTG,253.1,T,,M,0.3,N,0.5,K,D*0B
$GPRMC,223548.62,A,5649.77769,N,13221.77686,W,0.3,66.2,200923,,,d*51
$GPZDA,223549.0014,20,09,2023,,*60
$GPGGA,223549.623,5649.77767,N,13221.77696,W,2,15,2.1,0.64,M,,,152,0135*14
$GPHDT,64.4,T*03
$GPVTG,244.2,T,,M,0.3,N,0.6,K,D*0D
$GPRMC,223549.62,A,5649.77767,N,13221.77696,W,0.3,64.4,200923,,,d*5B
$GPZDA,223550.0014,20,09,2023,,*68
$GPGGA,223550.624,5649.77764,N,13221.77708,W,2,15,2.1,0.62,M,,,153,0135*19
$GPHDT,62.2,T*03
$GPVTG,242.0,T,,M,0.3,N,0.6,K,D*09
$GPRMC,223550.62,A,5649.77764,N,13221.77708,W,0.3,62.2,200923,,,d*56
$PADCP,50,20230920,223551.25,0.38
$GPZDA,223551.0014,20,09,2023,,*69
$GPGGA,223551.624,5649.77761,N,13221.77723,W,2,15,2.1,0.60,M,,,154,0135*11
$GPHDT,59.8,T*01
$GPVTG,257.1,T,,M,0.4,N,0.8,K,D*05
$GPRMC,223551.62,A,5649.77761,N,13221.77723,W,0.4,59.8,200923,,,d*5E
$GPZDA,223552.0014,20,09,2023,,*6A
$GPGGA,223552.624,5649.77758,N,13221.77741,W,2,15,2.1,0.63,M,,,155,0135*1E
$GPHDT,57.2,T*05
$GPVTG,259.7,T,,M,0.5,N,0.8,K,D*0C
$GPRMC,223552.62,A,5649.77758,N,13221.77741,W,0.5,57.2,200923,,,d*56
$GPZDA,223553.0014,20,09,2023,,*6B
$GPGGA,223553.624,5649.77757,N,13221.77762,W,2,15,2.1,0.68,M,,,156,0135*19
$GPHDT,54.1,T*05
$GPVTG,258.6,T,,M,0.5,N,0.8,K,D*0C
$GPRMC,223553.62,A,5649.77757,N,13221.77762,W,0.5,54.1,200923,,,d*59
$GPZDA,223554.0014,20,09,2023,,*6C
$PADCP,51,20230920,223554.52,0.38
$GPGGA,223554.624,5649.77753,N,13221.77781,W,2,15,2.1,0.67,M,,,157,0135*19
$GPHDT,51.0,T*01
$GPVTG,245.0,T,,M,0.4,N,0.8,K,D*07
$GPRMC,223554.62,A,5649.77753,N,13221.77781,W,0.4,51.0,200923,,,d*52
$GPZDA,223555.0014,20,09,2023,,*6D
$GPGGA,223555.624,5649.77749,N,13221.77800,W,2,15,2.1,0.64,M,,,158,0135*19
$GPHDT,47.6,T*00
$GPVTG,252.4,T,,M,0.5,N,0.9,K,D*05
$GPRMC,223555.62,A,5649.77749,N,13221.77800,W,0.5,47.6,200923,,,d*5E
$GPZDA,223556.0015,20,09,2023,,*6F
$GPGGA,223556.624,5649.77745,N,13221.77822,W,2,15,2.1,0.67,M,,,159,0135*14
$GPHDT,44.1,T*04
$GPVTG,250.1,T,,M,0.5,N,1.0,K,D*0A
$GPRMC,223556.62,A,5649.77745,N,13221.77822,W,0.5,44.1,200923,,,d*55
$GPZDA,223557.0015,20,09,2023,,*6E
$PADCP,52,20230920,223557.78,0.38
$GPGGA,223557.624,5649.77740,N,13221.77843,W,2,15,2.1,0.66,M,,,160,0135*1C
$GPHDT,40.5,T*04
$GPVTG,248.7,T,,M,0.5,N,1.0,K,D*05
$GPRMC,223557.62,A,5649.77740,N,13221.77843,W,0.5,40.5,200923,,,d*56
$GPZDA,223558.0015,20,09,2023,,*61
$GPGGA,223558.624,5649.77734,N,13221.77865,W,2,15,2.1,0.66,M,,,161,0135*15
$GPHDT,36.9,T*09
$GPVTG,248.6,T,,M,0.5,N,1.0,K,D*04
$GPRMC,223558.62,A,5649.77734,N,13221.77865,W,0.5,36.9,200923,,,d*53
$GPZDA,223559.0015,20,09,2023,,*60
$GPGGA,223559.624,5649.77729,N,13221.77888,W,2,15,2.1,0.68,M,,,162,0135*16
$GPHDT,33.0,T*05
$GPVTG,244.1,T,,M,0.5,N,1.0,K,D*0F
$GPRMC,223559.62,A,5649.77729,N,13221.77888,W,0.5,33.0,200923,,,d*51
$GPZDA,223600.0015,20,09,2023,,*6F
$GPGGA,223600.624,5649.77722,N,13221.77910,W,2,15,2.1,0.67,M,,,163,0135*1C
$PADCP,53,20230920,223601.05,0.38
$GPHDT,29.0,T*0E
$GPVTG,242.3,T,,M,0.6,N,1.1,K,D*09
$GPRMC,223600.62,A,5649.77722,N,13221.77910,W,0.6,29.0,200923,,,d*5D
$GPZDA,223601.0015,20,09,2023,,*6E
$GPGGA,223601.624,5649.77715,N,13221.77934,W,2,15,2.1,0.66,M,,,164,0135*19
$GPHDT,24.6,T*05
$GPVTG,242.1,T,,M,0.6,N,1.1,K,D*0B
$GPRMC,223601.62,A,5649.77715,N,13221.77934,W,0.6,24.6,200923,,,d*55
$GPZDA,223602.0015,20,09,2023,,*6D
$GPGGA,223602.624,5649.77707,N,13221.77959,W,2,15,2.1,0.68,M,,,165,0135*1D
$GPHDT,19.8,T*05
$GPVTG,240.6,T,,M,0.6,N,1.1,K,D*0E
$GPRMC,223602.62,A,5649.77707,N,13221.77959,W,0.6,19.8,200923,,,d*5E
$GPZDA,223603.0015,20,09,2023,,*6C
$GPGGA,223603.624,5649.77699,N,13221.77984,W,2,15,2.1,0.68,M,,,166,0135*19
$GPHDT,15.1,T*00
$GPVTG,241.5,T,,M,0.6,N,1.2,K,D*0F
$GPRMC,223603.62,A,5649.77699,N,13221.77984,W,0.6,15.1,200923,,,d*5C
$PADCP,54,20230920,223604.31,0.38
$GPZDA,223604.0015,20,09,2023,,*6B
$GPGGA,223604.624,5649.77691,N,13221.78008,W,2,15,2.1,0.69,M,,,167,0135*14
$GPHDT,10.6,T*02
$GPVTG,241.3,T,,M,0.6,N,1.1,K,D*0A
$GPRMC,223604.62,A,5649.77691,N,13221.78008,W,0.6,10.6,200923,,,d*53
$GPZDA,223605.0015,20,09,2023,,*6A
$GPGGA,223605.624,5649.77685,N,13221.78030,W,2,16,2.1,0.68,M,,,168,0135*16
$GPHDT,6.4,T*37
$GPVTG,244.8,T,,M,0.5,N,1.0,K,D*06
$GPRMC,223605.62,A,5649.77685,N,13221.78030,W,0.5,6.4,200923,,,d*6A
$GPZDA,223606.0015,20,09,2023,,*69
$GPGGA,223606.624,5649.77679,N,13221.78051,W,2,16,2.1,0.68,M,,,169,0135*10
$GPHDT,2.8,T*3F
$GPVTG,249.9,T,,M,0.5,N,0.9,K,D*02
$GPRMC,223606.62,A,5649.77679,N,13221.78051,W,0.5,2.8,200923,,,d*65
$GPZDA,223607.0016,20,09,2023,,*6B
$PADCP,55,20230920,223607.59,0.38
$GPGGA,223607.624,5649.77675,N,13221.78073,W,2,16,2.1,0.70,M,,,170,0135*1C
$GPHDT,359.7,T*3D
$GPVTG,253.2,T,,M,0.5,N,0.9,K,D*02
$GPRMC,223607.62,A,5649.77675,N,13221.78073,W,0.5,359.7,200923,,,d*6A
$GPZDA,223608.0016,20,09,2023,,*64
$GPGGA,223608.624,5649.77673,N,13221.78096,W,2,16,2.1,0.69,M,,,171,0135*17
$GPHDT,357.1,T*35
$GPVTG,261.8,T,,M,0.5,N,1.0,K,D*01
$GPRMC,223608.62,A,5649.77673,N,13221.78096,W,0.5,357.1,200923,,,d*60
$GPZDA,223609.0016,20,09,2023,,*65
$GPGGA,223609.624,5649.77672,N,13221.78121,W,2,16,2.1,0.70,M,,,172,0135*11
$GPHDT,354.7,T*30
$GPVTG,267.3,T,,M,0.5,N,0.9,K,D*04
$GPRMC,223609.62,A,5649.77672,N,13221.78121,W,0.5,354.7,200923,,,d*68
$GPZDA,223610.0016,20,09,2023,,*6D
$PADCP,56,20230920,223610.85,0.38
$GPGGA,223610.624,5649.77673,N,13221.78145,W,2,16,2.1,0.70,M,,,173,0135*1B
$GPHDT,352.8,T*39
$GPVTG,272.4,T,,M,0.5,N,1.0,K,D*0F
$GPRMC,223610.62,A,5649.77673,N,13221.78145,W,0.5,352.8,200923,,,d*6A
$GPZDA,223611.0016,20,09,2023,,*6C
$GPGGA,223611.624,5649.77675,N,13221.78171,W,2,16,2.1,0.70,M,,,174,0135*1C
$GPHDT,351.0,T*32
$GPVTG,275.7,T,,M,0.6,N,1.0,K,D*08
$GPRMC,223611.62,A,5649.77675,N,13221.78171,W,0.6,351.0,200923,,,d*62
$GPZDA,223612.0016,20,09,2023,,*6F
$GPGGA,223612.624,5649.77677,N,13221.78199,W,2,16,2.1,0.70,M,,,175,0135*1A
$GPHDT,349.5,T*3E
$GPVTG,280.7,T,,M,0.6,N,1.1,K,D*03
$GPRMC,223612.62,A,5649.77677,N,13221.78199,W,0.6,349.5,200923,,,d*69
$GPZDA,223613.0016,20,09,2023,,*6E
$GPGGA,223613.624,5649.77680,N,13221.78226,W,2,16,2.1,0.71,M,,,176,0135*16
$GPHDT,348.0,T*3A
$GPVTG,281.2,T,,M,0.6,N,1.1,K,D*07
$PADCP,57,20230920,223614.12,0.38
$GPRMC,223613.62,A,5649.77680,N,13221.78226,W,0.6,348.0,200923,,,d*63
$GPZDA,223614.0016,20,09,2023,,*69
$GPGGA,223614.624,5649.77685,N,13221.78255,W,2,16,2.1,0.73,M,,,177,0135*13
$GPHDT,346.9,T*3D
$GPVTG,285.2,T,,M,0.6,N,1.1,K,D*03
$GPRMC,223614.62,A,5649.77685,N,13221.78255,W,0.6,346.9,200923,,,d*62
$GPZDA,223615.0016,20,09,2023,,*68
$GPGGA,223615.624,5649.77690,N,13221.78279,W,2,16,2.1,0.69,M,,,178,0135*1C
$GPHDT,345.9,T*3E
$GPVTG,294.1,T,,M,0.5,N,0.9,K,D*0A
$GPRMC,223615.62,A,5649.77690,N,13221.78279,W,0.5,345.9,200923,,,d*69
$GPZDA,223616.0016,20,09,2023,,*6B
$GPGGA,223616.624,5649.77696,N,13221.78301,W,2,16,2.1,0.66,M,,,179,0135*19
$GPHDT,344.6,T*30
$GPVTG,293.3,T,,M,0.5,N,0.9,K,D*0F
$GPRMC,223616.62,A,5649.77696,N,13221.78301,W,0.5,344.6,200923,,,d*6C
$GPZDA,223617.0017,20,09,2023,,*6B
$PADCP,58,20230920,223617.38,0.38
$GPGGA,223617.624,5649.77702,N,13221.78324,W,2,16,0.6,,M,,,0,65535*30
$GPHDT,343.6,T*37
$GPVTG,295.8,T,,M,0.5,N,1.0,K,D*0A
$GPRMC,223617.62,A,5649.77702,N,13221.78324,W,0.5,343.6,200923,,,d*61
$GPZDA,223618.0017,20,09,2023,,*64
$GPGGA,223618.624,5649.77708,N,13221.78350,W,1,06,2.1,0.67,M,,,,*2E
$GPHDT,343.1,T*30
$GPVTG,288.5,T,,M,0.6,N,1.1,K,A*0C
$GPRMC,223618.62,A,5649.77708,N,13221.78350,W,0.6,343.1,200923,,,a*66
$GPZDA,223619.0017,20,09,2023,,*65
$GPGGA,223619.624,5649.77711,N,13221.78372,W,1,06,2.1,0.75,M,,,,*24
$GPHDT,342.5,T*35
$GPVTG,295.2,T,,M,0.5,N,1.0,K,A*05
$GPRMC,223619.62,A,5649.77711,N,13221.78372,W,0.5,342.5,200923,,,a*69
$GPZDA,223620.0017,20,09,2023,,*6F
$PADCP,59,20230920,223620.65,0.38
$GPGGA,223620.624,5649.77717,N,13221.78397,W,1,06,2.1,0.81,M,,,,*28
$GPHDT,342.0,T*30
$GPVTG,295.6,T,,M,0.6,N,1.1,K,A*03
$GPRMC,223620.62,A,5649.77717,N,13221.78397,W,0.6,342.0,200923,,,a*68
$GPZDA,223621.0017,20,09,2023,,*6E
$GPGGA,223621.624,5649.77722,N,13221.78426,W,1,06,2.1,0.93,M,,,,*21
$GPHDT,342.1,T*31
$GPVTG,289.7,T,,M,0.7,N,1.3,K,A*0C
$GPRMC,223621.62,A,5649.77722,N,13221.78426,W,0.7,342.1,200923,,,a*62
$GPZDA,223622.0017,20,09,2023,,*6D
$GPGGA,223622.624,5649.77727,N,13221.78455,W,1,06,2.1,1.04,M,,,,*2C
$GPHDT,342.4,T*34
$GPVTG,298.5,T,,M,0.6,N,1.2,K,A*0E
$GPRMC,223622.62,A,5649.77727,N,13221.78455,W,0.6,342.4,200923,,,a*64
$GPZDA,223623.0017,20,09,2023,,*6C
$PADCP,60,20230920,223623.92,0.38
$GPGGA,223623.624,5649.77734,N,13221.78487,W,1,06,2.1,1.16,M,,,,*23
$GPHDT,342.8,T*38
$GPVTG,293.3,T,,M,0.7,N,1.4,K,A*04
$GPRMC,223623.62,A,5649.77734,N,13221.78487,W,0.7,342.8,200923,,,a*65
$GPZDA,223624.0017,20,09,2023,,*6B
$GPGGA,223624.624,5649.77740,N,13221.78521,W,1,06,2.1,1.29,M,,,,*26
$GPHDT,343.1,T*30
$GPVTG,295.8,T,,M,0.7,N,1.3,K,A*0E
$GPRMC,223624.62,A,5649.77740,N,13221.78521,W,0.7,343.1,200923,,,a*64
$GPZDA,223625.0017,20,09,2023,,*6A
$GPGGA,223625.624,5649.77749,N,13221.78555,W,1,06,2.1,1.36,M,,,,*23
$GPHDT,343.6,T*37
$GPVTG,300.1,T,,M,0.8,N,1.5,K,A*03
$GPRMC,223625.62,A,5649.77749,N,13221.78555,W,0.8,343.6,200923,,,a*67
$GPZDA,223626.0017,20,09,2023,,*69
$GPGGA,223626.624,5649.77760,N,13221.78590,W,1,06,2.1,1.44,M,,,,*27
$GPHDT,343.9,T*38
$GPVTG,300.2,T,,M,0.9,N,1.6,K,A*02
$GPRMC,223626.62,A,5649.77760,N,13221.78590,W,0.9,343.9,200923,,,a*68
$PADCP,61,20230920,223627.19,0.38
$GPZDA,223627.0017,20,09,2023,,*68
$GPGGA,223627.624,5649.77773,N,13221.78627,W,1,06,2.1,1.52,M,,,,*2C
$GPHDT,344.2,T*34
$GPVTG,301.0,T,,M,0.9,N,1.7,K,A*00
$GPRMC,223627.62,A,5649.77773,N,13221.78627,W,0.9,344.2,200923,,,a*68
$GPZDA,223628.0018,20,09,2023,,*68
$GPGGA,223628.624,5649.77787,N,13221.78665,W,1,06,2.1,1.60,M,,,,*2F
$GPHDT,344.7,T*31
$GPVTG,304.5,T,,M,0.9,N,1.7,K,A*00
$GPRMC,223628.62,A,5649.77787,N,13221.78665,W,0.9,344.7,200923,,,a*6F
$GPZDA,223629.0018,20,09,2023,,*69
$GPGGA,223629.624,5649.77802,N,13221.78705,W,1,06,2.1,1.67,M,,,,*2C
$GPHDT,345.0,T*37
$GPVTG,305.9,T,,M,0.9,N,1.8,K,A*02
$GPRMC,223629.62,A,5649.77802,N,13221.78705,W,0.9,345.0,200923,,,a*6D
$GPZDA,223630.0018,20,09,2023,,*61
$PADCP,62,20230920,223630.46,0.38
$GPGGA,223630.624,5649.77819,N,13221.78747,W,1,06,2.1,1.73,M,,,,*2D
$GPHDT,345.4,T*33
$GPVTG,306.0,T,,M,1.0,N,1.9,K,A*01
$GPRMC,223630.62,A,5649.77819,N,13221.78747,W,1.0,345.4,200923,,,a*65
$GPZDA,223631.0018,20,09,2023,,*60
$GPGGA,223631.624,5649.77835,N,13221.78788,W,1,06,2.1,1.77,M,,,,*25
$GPHDT,345.9,T*3E
$GPVTG,307.9,T,,M,1.0,N,1.9,K,A*09
$GPRMC,223631.62,A,5649.77835,N,13221.78788,W,1.0,345.9,200923,,,a*64
$GPZDA,223632.0018,20,09,2023,,*63
$GPGGA,223632.624,5649.77851,N,13221.78832,W,1,06,2.1,1.82,M,,,,*20
$GPHDT,346.2,T*36
$GPVTG,301.3,T,,M,1.0,N,1.9,K,A*05
$GPRMC,223632.62,A,5649.77851,N,13221.78832,W,1.0,346.2,200923,,,a*63
$GPZDA,223633.0018,20,09,2023,,*62
$PADCP,63,20230920,223633.72,0.38
$GPGGA,223633.624,5649.77865,N,13221.78876,W,1,06,2.1,1.90,M,,,,*25
$GPHDT,346.3,T*37
$GPVTG,301.9,T,,M,1.0,N,1.8,K,A*0E
$GPRMC,223633.62,A,5649.77865,N,13221.78876,W,1.0,346.3,200923,,,a*64
$GPZDA,223634.0018,20,09,2023,,*65
$GPGGA,223634.624,5649.77879,N,13221.78919,W,1,06,2.1,1.97,M,,,,*20
$GPHDT,346.5,T*31
$GPVTG,300.3,T,,M,1.0,N,1.9,K,A*04
$GPRMC,223634.62,A,5649.77879,N,13221.78919,W,1.0,346.5,200923,,,a*60
$GPZDA,223635.0018,20,09,2023,,*64
$GPGGA,223635.624,5649.77894,N,13221.78963,W,1,06,2.1,2.04,M,,,,*26
$GPHDT,346.9,T*3D
$GPVTG,302.3,T,,M,1.0,N,1.8,K,A*07
$GPRMC,223635.62,A,5649.77894,N,13221.78963,W,1.0,346.9,200923,,,a*63
$GPZDA,223636.0018,20,09,2023,,*67
$PADCP,64,20230920,223636.99,0.38
$GPGGA,223636.624,5649.77909,N,13221.79005,W,1,06,2.1,2.10,M,,,,*2D
$GPHDT,347.5,T*30
$GPVTG,302.5,T,,M,1.0,N,1.8,K,A*01
$GPRMC,223636.62,A,5649.77909,N,13221.79005,W,1.0,347.5,200923,,,a*60
$GPZDA,223637.0018,20,09,2023,,*66
$GPGGA,223637.624,5649.77923,N,13221.79047,W,1,06,2.1,2.16,M,,,,*24
$GPHDT,348.2,T*38
$GPVTG,301.0,T,,M,1.0,N,1.9,K,A*06
$GPRMC,223637.62,A,5649.77923,N,13221.79047,W,1.0,348.2,200923,,,a*67
$GPZDA,223638.0018,20,09,2023,,*69
$GPGGA,223638.624,5649.77938,N,13221.79089,W,1,06,2.1,2.23,M,,,,*25
$GPHDT,348.9,T*33
$GPVTG,303.3,T,,M,1.0,N,1.8,K,A*06
$GPRMC,223638.62,A,5649.77938,N,13221.79089,W,1.0,348.9,200923,,,a*6B
$GPZDA,223639.0019,20,09,2023,,*69
$GPGGA,223639.624,5649.77953,N,13221.79127,W,1,06,2.1,2.29,M,,,,*26
$GPHDT,349.6,T*3D
$GPVTG,307.2,T,,M,0.9,N,1.6,K,A*05
$GPRMC,223639.62,A,5649.77953,N,13221.79127,W,0.9,349.6,200923,,,a*64
$PADCP,65,20230920,223640.25,0.38
$GPZDA,223640.0019,20,09,2023,,*67
$GPGGA,223640.624,5649.77969,N,13221.79163,W,1,06,2.1,2.34,M,,,,*2D
$GPHDT,350.5,T*36
$GPVTG,305.8,T,,M,0.9,N,1.7,K,A*0C
$GPRMC,223640.62,A,5649.77969,N,13221.79163,W,0.9,350.5,200923,,,a*68
$GPZDA,223641.0019,20,09,2023,,*66
$GPGGA,223641.624,5649.77983,N,13221.79204,W,1,06,2.1,2.46,M,,,,*2F
$GPHDT,351.3,T*31
$GPVTG,308.2,T,,M,0.9,N,1.6,K,A*0A
$GPRMC,223641.62,A,5649.77983,N,13221.79204,W,0.9,351.3,200923,,,a*68
$GPZDA,223642.0019,20,09,2023,,*65
$GPGGA,223642.624,5649.77998,N,13221.79242,W,1,06,2.1,2.53,M,,,,*20
$GPHDT,352.1,T*30
$GPVTG,311.1,T,,M,0.9,N,1.6,K,A*01
$GPRMC,223642.62,A,5649.77998,N,13221.79242,W,0.9,352.1,200923,,,a*62
$GPZDA,223643.0019,20,09,2023,,*64
$PADCP,66,20230920,223643.52,0.38
$GPGGA,223643.624,5649.78013,N,13221.79275,W,1,06,2.1,2.59,M,,,,*2A
$GPHDT,353.1,T*31
$GPVTG,309.6,T,,M,0.9,N,1.6,K,A*0F
$GPRMC,223643.62,A,5649.78013,N,13221.79275,W,0.9,353.1,200923,,,a*63
$GPZDA,223644.0019,20,09,2023,,*63
$GPGGA,223644.624,5649.78026,N,13221.79309,W,1,06,2.1,2.69,M,,,,*22
$GPHDT,353.9,T*39
$GPVTG,312.1,T,,M,0.8,N,1.5,K,A*00
$GPRMC,223644.62,A,5649.78026,N,13221.79309,W,0.8,353.9,200923,,,a*61
$GPZDA,223645.0019,20,09,2023,,*62
$GPGGA,223645.624,5649.78041,N,13221.79341,W,1,06,2.1,2.72,M,,,,*24
$GPHDT,354.8,T*3F
$GPVTG,311.4,T,,M,0.8,N,1.5,K,A*06
$GPRMC,223645.62,A,5649.78041,N,13221.79341,W,0.8,354.8,200923,,,a*6B
$GPZDA,223646.0019,20,09,2023,,*61
$PADCP,67,20230920,223646.78,0.38
$GPGGA,223646.624,5649.78058,N,13221.79372,W,1,06,2.1,2.76,M,,,,*2B
$GPHDT,355.6,T*30
$GPVTG,313.3,T,,M,0.8,N,1.5,K,A*03
$GPRMC,223646.62,A,5649.78058,N,13221.79372,W,0.8,355.6,200923,,,a*6F
$GPZDA,223647.0019,20,09,2023,,*60
$GPGGA,223647.624,5649.78074,N,13221.79403,W,1,06,2.1,2.87,M,,,,*2B
$GPHDT,356.4,T*31
$GPVTG,314.2,T,,M,0.8,N,1.5,K,A*05
$GPRMC,223647.62,A,5649.78074,N,13221.79403,W,0.8,356.4,200923,,,a*60
$GPZDA,223648.0019,20,09,2023,,*6F
$GPGGA,223648.624,5649.78088,N,13221.79432,W,1,06,2.1,2.96,M,,,,*25
$GPHDT,357.2,T*36
$GPVTG,312.0,T,,M,0.8,N,1.4,K,A*00
$GPRMC,223648.62,A,5649.78088,N,13221.79432,W,0.8,357.2,200923,,,a*69
$GPZDA,223649.0020,20,09,2023,,*64
$GPGGA,223649.624,5649.78104,N,13221.79463,W,1,06,2.1,3.04,M,,,,*2F
$GPHDT,358.0,T*3B
$PADCP,68,20230920,223650.06,0.38
$GPVTG,313.2,T,,M,0.8,N,1.5,K,A*02
$GPRMC,223649.62,A,5649.78104,N,13221.79463,W,0.8,358.0,200923,,,a*64
$GPZDA,223650.0020,20,09,2023,,*6C
$GPGGA,223650.624,5649.78120,N,13221.79494,W,1,06,2.1,3.11,M,,,,*2D
$GPHDT,358.6,T*3D
$GPVTG,314.9,T,,M,0.8,N,1.4,K,A*0F
$GPRMC,223650.62,A,5649.78120,N,13221.79494,W,0.8,358.6,200923,,,a*64
$GPZDA,223651.0020,20,09,2023,,*6D
$GPGGA,223651.624,5649.78137,N,13221.79521,W,1,06,2.1,3.14,M,,,,*20
$GPHDT,359.2,T*38
$GPVTG,316.4,T,,M,0.8,N,1.4,K,A*00
$GPRMC,223651.62,A,5649.78137,N,13221.79521,W,0.8,359.2,200923,,,a*69
$GPZDA,223652.0020,20,09,2023,,*6E
$GPGGA,223652.624,5649.78157,N,13221.79548,W,1,06,2.1,3.21,M,,,,*2C
$GPHDT,359.9,T*33
$GPVTG,319.1,T,,M,0.7,N,1.4,K,A*05
$GPRMC,223652.62,A,5649.78157,N,13221.79548,W,0.7,359.9,200923,,,a*67
$PADCP,69,20230920,223653.32,0.38
$GPZDA,223653.0020,20,09,2023,,*6F
$GPGGA,223653.624,5649.78174,N,13221.79575,W,1,06,2.1,3.27,M,,,,*24
$GPHDT,0.2,T*37
$GPVTG,319.8,T,,M,0.7,N,1.4,K,A*0C
$GPRMC,223653.62,A,5649.78174,N,13221.79575,W,0.7,0.2,200923,,,a*6D
$GPZDA,223654.0020,20,09,2023,,*68
$GPGGA,223654.624,5649.78189,N,13221.79599,W,1,06,2.1,3.34,M,,,,*21
$GPHDT,1.0,T*34
$GPVTG,319.5,T,,M,0.7,N,1.4,K,A*01
$GPRMC,223654.62,A,5649.78189,N,13221.79599,W,0.7,1.0,200923,,,a*69
$GPZDA,223655.0020,20,09,2023,,*69
$GPGGA,223655.624,5649.78203,N,13221.79626,W,1,06,2.1,3.48,M,,,,*2D
$GPHDT,1.7,T*33
$GPVTG,317.9,T,,M,0.7,N,1.4,K,A*03
$GPRMC,223655.62,A,5649.78203,N,13221.79626,W,0.7,1.7,200923,,,a*69
$GPZDA,223656.0020,20,09,2023,,*6A
$PADCP,70,20230920,223656.59,0.38
$GPGGA,223656.624,5649.78220,N,13221.79658,W,1,06,2.1,3.61,M,,,,*2D
$GPHDT,2.2,T*35
$GPVTG,318.5,T,,M,0.7,N,1.3,K,A*07
$GPRMC,223656.62,A,5649.78220,N,13221.79658,W,0.7,2.2,200923,,,a*64
$GPZDA,223657.0020,20,09,2023,,*6B
$GPGGA,223657.624,5649.78235,N,13221.79683,W,1,06,2.1,3.70,M,,,,*2E
$GPHDT,2.8,T*3F
$GPVTG,320.8,T,,M,0.7,N,1.3,K,A*01
$GPRMC,223657.62,A,5649.78235,N,13221.79683,W,0.7,2.8,200923,,,a*6D
$GPZDA,223658.0020,20,09,2023,,*64
$GPGGA,223658.624,5649.78247,N,13221.79707,W,1,06,2.1,3.82,M,,,,*24
$GPHDT,3.1,T*37
$GPVTG,316.0,T,,M,0.7,N,1.3,K,A*0C
$GPRMC,223658.62,A,5649.78247,N,13221.79707,W,0.7,3.1,200923,,,a*62
$GPZDA,223659.0020,20,09,2023,,*65
$PADCP,71,20230920,223659.86,0.38
$GPGGA,223659.624,5649.78260,N,13221.79728,W,1,06,2.1,3.93,M,,,,*2D
$GPHDT,3.6,T*30
$GPVTG,323.4,T,,M,0.6,N,1.1,K,A*0D
$GPRMC,223659.62,A,5649.78260,N,13221.79728,W,0.6,3.6,200923,,,a*6D
$GPZDA,223700.0021,20,09,2023,,*69
$GPGGA,223700.624,5649.78276,N,13221.79746,W,1,06,2.1,4.00,M,,,,*22
$GPHDT,4.0,T*31
$GPVTG,324.3,T,,M,0.6,N,1.2,K,A*0E
$GPRMC,223700.62,A,5649.78276,N,13221.79746,W,0.6,4.0,200923,,,a*6E
$GPZDA,223701.0021,20,09,2023,,*68
$GPGGA,223701.624,5649.78292,N,13221.79765,W,1,06,2.1,4.07,M,,,,*2F
$GPHDT,4.3,T*32
$GPVTG,320.6,T,,M,0.6,N,1.2,K,A*0F
$GPRMC,223701.62,A,5649.78292,N,13221.79765,W,0.6,4.3,200923,,,a*67
$GPZDA,223702.0021,20,09,2023,,*6B
$GPGGA,223702.624,5649.78311,N,13221.79784,W,1,06,2.1,4.13,M,,,,*2C
$GPHDT,4.5,T*34
$GPVTG,325.3,T,,M,0.6,N,1.2,K,A*0F
$PADCP,72,20230920,223703.12,0.38
$GPRMC,223702.62,A,5649.78311,N,13221.79784,W,0.6,4.5,200923,,,a*67
$GPZDA,223703.0021,20,09,2023,,*6A
$GPGGA,223703.624,5649.78329,N,13221.79801,W,1,06,2.1,4.19,M,,,,*2E
$GPHDT,4.9,T*38
$GPVTG,324.8,T,,M,0.6,N,1.1,K,A*06
$GPRMC,223703.62,A,5649.78329,N,13221.79801,W,0.6,4.9,200923,,,a*63
$GPZDA,223704.0021,20,09,2023,,*6D
$GPGGA,223704.624,5649.78346,N,13221.79828,W,1,06,2.1,4.31,M,,,,*21
$GPHDT,5.1,T*31
$GPVTG,324.0,T,,M,0.6,N,1.2,K,A*0D
$GPRMC,223704.62,A,5649.78346,N,13221.79828,W,0.6,5.1,200923,,,a*6F
$GPZDA,223705.0021,20,09,2023,,*6C
$GPGGA,223705.624,5649.78363,N,13221.79853,W,1,06,2.1,4.41,M,,,,*2C
$GPHDT,5.4,T*34
$GPVTG,324.5,T,,M,0.6,N,1.1,K,A*0B
$GPRMC,223705.62,A,5649.78363,N,13221.79853,W,0.6,5.4,200923,,,a*60
$GPZDA,223706.0021,20,09,2023,,*6F
$PADCP,73,20230920,223706.39,0.38
$GPGGA,223706.624,5649.78379,N,13221.79873,W,1,06,2.1,4.47,M,,,,*20
$GPHDT,5.7,T*37
$GPVTG,325.2,T,,M,0.6,N,1.1,K,A*0D
$GPRMC,223706.62,A,5649.78379,N,13221.79873,W,0.6,5.7,200923,,,a*69
$GPZDA,223707.0021,20,09,2023,,*6E
$GPGGA,223707.624,5649.78393,N,13221.79895,W,1,06,2.1,4.54,M,,,,*2F
$GPHDT,5.9,T*39
$GPVTG,324.1,T,,M,0.6,N,1.1,K,A*0F
$GPRMC,223707.62,A,5649.78393,N,13221.79895,W,0.6,5.9,200923,,,a*6A
$GPZDA,223708.0021,20,09,2023,,*61
$GPGGA,223708.624,5649.78405,N,13221.79914,W,1,06,2.1,4.59,M,,,,*2D
$GPHDT,6.2,T*31
$GPVTG,323.7,T,,M,0.6,N,1.1,K,A*0E
$GPRMC,223708.62,A,5649.78405,N,13221.79914,W,0.6,6.2,200923,,,a*6D
$GPZDA,223709.0021,20,09,2023,,*60
$PADCP,74,20230920,223709.65,0.38
$GPGGA,223709.624,5649.78418,N,13221.79935,W,1,06,2.1,4.66,M,,,,*2F
$GPHDT,6.5,T*36
$GPVTG,322.8,T,,M,0.6,N,1.1,K,A*00
$GPRMC,223709.62,A,5649.78418,N,13221.79935,W,0.6,6.5,200923,,,a*64
$GPZDA,223710.0021,20,09,2023,,*68
$GPGGA,223710.624,5649.78433,N,13221.79953,W,1,06,2.1,4.73,M,,,,*2A
$GPHDT,6.6,T*35
$GPVTG,321.5,T,,M,0.6,N,1.1,K,A*0E
$GPRMC,223710.62,A,5649.78433,N,13221.79953,W,0.6,6.6,200923,,,a*66
$GPZDA,223711.0022,20,09,2023,,*6A
