$GPZDA,235049.0044,20,09,2023,,*67
$GPGGA,235049.666,5649.90440,N,13221.89774,W,2,17,1.1,0.86,M,,,7,0135*18
$GPHDT,161.0,T*33
$GPVTG,174.4,T,,M,1.5,N,2.8,K,D*00
$GPRMC,235049.67,A,5649.90440,N,13221.89774,W,1.5,161.0,200923,,,d*68
$GPZDA,235050.0044,20,09,2023,,*6F
$GPGGA,235050.666,5649.90399,N,13221.89767,W,2,17,1.1,0.85,M,,,4,0135*11
$GPHDT,160.1,T*33
$GPVTG,175.4,T,,M,1.4,N,2.6,K,D*0E
$GPRMC,235050.67,A,5649.90399,N,13221.89767,W,1.4,160.1,200923,,,d*60
$GPZDA,235051.0044,20,09,2023,,*6E
$GPGGA,235051.666,5649.90360,N,13221.89760,W,2,17,1.1,0.87,M,,,5,0135*12
$GPHDT,159.0,T*38
$GPVTG,173.3,T,,M,1.4,N,2.7,K,D*0E
$GPRMC,235051.67,A,5649.90360,N,13221.89760,W,1.4,159.0,200923,,,d*6B
$GPZDA,235052.0044,20,09,2023,,*6D
$PADCP,1,20230920,235053.01,0.33
$GPGGA,235052.667,5649.90319,N,13221.89751,W,2,17,1.1,0.90,M,,,6,0135*19
$GPHDT,157.8,T*3E
$GPVTG,172.1,T,,M,1.4,N,2.6,K,D*0C
$GPRMC,235052.67,A,5649.90319,N,13221.89751,W,1.4,157.8,200923,,,d*62
$GPZDA,235053.0044,20,09,2023,,*6C
$GPGGA,235053.667,5649.90279,N,13221.89743,W,2,17,1.1,0.89,M,,,7,0135*15
$GPHDT,156.9,T*3E
$GPVTG,173.2,T,,M,1.4,N,2.6,K,D*0E
$GPRMC,235053.67,A,5649.90279,N,13221.89743,W,1.4,156.9,200923,,,d*67
$GPZDA,235054.0044,20,09,2023,,*6B
$GPGGA,235054.667,5649.90239,N,13221.89733,W,2,17,1.1,0.90,M,,,7,0135*19
$GPHDT,156.2,T*35
$GPVTG,171.4,T,,M,1.4,N,2.7,K,D*0B
$GPRMC,235054.67,A,5649.90239,N,13221.89733,W,1.4,156.2,200923,,,d*68
$GPZDA,235055.0044,20,09,2023,,*6A
$GPGGA,235055.667,5649.90198,N,13221.89724,W,2,17,1.1,0.88,M,,,7,0135*1F
$GPHDT,155.4,T*30
$GPVTG,172.9,T,,M,1.4,N,2.7,K,D*05
$GPRMC,235055.67,A,5649.90198,N,13221.89724,W,1.4,155.4,200923,,,d*62
$GPZDA,235056.0044,20,09,2023,,*69
$PADCP,2,20230920,235056.48,0.33
$GPGGA,235056.667,5649.90158,N,13221.89710,W,2,17,1.1,0.87,M,,,4,0135*1B
$GPHDT,155.2,T*36
$GPVTG,166.2,T,,M,1.4,N,2.6,K,D*0A
$GPRMC,235056.67,A,5649.90158,N,13221.89710,W,1.4,155.2,200923,,,d*6C
$GPZDA,235057.0044,20,09,2023,,*68
$GPGGA,235057.667,5649.90119,N,13221.89696,W,2,17,1.1,0.87,M,,,5,0135*11
$GPHDT,155.1,T*35
$GPVTG,170.7,T,,M,1.4,N,2.6,K,D*08
$GPRMC,235057.67,A,5649.90119,N,13221.89696,W,1.4,155.1,200923,,,d*64
$GPZDA,235058.0045,20,09,2023,,*66
$GPGGA,235058.667,5649.90078,N,13221.89682,W,2,17,1.1,0.86,M,,,6,0135*1F
$GPHDT,155.2,T*36
$GPVTG,168.0,T,,M,1.5,N,2.8,K,D*09
$GPRMC,235058.67,A,5649.90078,N,13221.89682,W,1.5,155.2,200923,,,d*6A
$GPZDA,235059.0045,20,09,2023,,*67
$PADCP,3,20230920,235059.74,0.33
$GPGGA,235059.667,5649.90038,N,13221.89663,W,2,17,1.1,0.90,M,,,7,0135*13
$GPHDT,155.0,T*34
$GPVTG,165.9,T,,M,1.4,N,2.6,K,D*02
$GPRMC,235059.67,A,5649.90038,N,13221.89663,W,1.4,155.0,200923,,,d*63
$GPZDA,235100.0045,20,09,2023,,*6A
$GPGGA,235100.667,5649.89999,N,13221.89647,W,2,17,1.1,0.93,M,,,7,0135*11
$GPHDT,154.6,T*33
$GPVTG,167.4,T,,M,1.4,N,2.6,K,D*0D
$GPRMC,235100.67,A,5649.89999,N,13221.89647,W,1.4,154.6,200923,,,d*65
$GPZDA,235101.0045,20,09,2023,,*6B
$GPGGA,235101.667,5649.89959,N,13221.89630,W,2,17,1.1,0.94,M,,,7,0135*1B
$GPHDT,154.3,T*36
$GPVTG,166.1,T,,M,1.5,N,2.8,K,D*06
$GPRMC,235101.67,A,5649.89959,N,13221.89630,W,1.5,154.3,200923,,,d*6C
$GPZDA,235102.0045,20,09,2023,,*68
$PADCP,4,20230920,235103.01,0.33
$GPGGA,235102.667,5649.89917,N,13221.89611,W,2,17,1.1,0.92,M,,,4,0135*14
$GPHDT,154.1,T*34
$GPVTG,164.7,T,,M,1.5,N,2.7,K,D*0D
$GPRMC,235102.67,A,5649.89917,N,13221.89611,W,1.5,154.1,200923,,,d*64
$GPZDA,235103.0045,20,09,2023,,*69
$GPGGA,235103.667,5649.89878,N,13221.89590,W,2,17,1.1,0.93,M,,,5,0135*17
$GPHDT,154.1,T*34
$GPVTG,165.8,T,,M,1.4,N,2.7,K,D*02
$GPRMC,235103.67,A,5649.89878,N,13221.89590,W,1.4,154.1,200923,,,d*66
$GPZDA,235104.0045,20,09,2023,,*6E
$GPGGA,235104.667,5649.89838,N,13221.89571,W,2,17,1.1,0.90,M,,,6,0135*1B
$GPHDT,154.2,T*37
$GPVTG,163.8,T,,M,1.5,N,2.7,K,D*05
$GPRMC,235104.67,A,5649.89838,N,13221.89571,W,1.5,154.2,200923,,,d*68
$GPZDA,235105.0045,20,09,2023,,*6F
$GPGGA,235105.667,5649.89799,N,13221.89550,W,2,17,1.1,0.90,M,,,7,0135*1C
$GPHDT,154.2,T*37
$GPVTG,162.2,T,,M,1.4,N,2.7,K,D*0F
$PADCP,5,20230920,235106.28,0.33
$GPRMC,235105.67,A,5649.89799,N,13221.89550,W,1.4,154.2,200923,,,d*6F
$GPZDA,235106.0045,20,09,2023,,*6C
$GPGGA,235106.667,5649.89760,N,13221.89529,W,2,17,1.1,0.95,M,,,7,0135*12
$GPHDT,154.0,T*35
$GPVTG,162.7,T,,M,1.5,N,2.7,K,D*0B
$GPRMC,235106.67,A,5649.89760,N,13221.89529,W,1.5,154.0,200923,,,d*67
$GPZDA,235107.0045,20,09,2023,,*6D
$GPGGA,235107.667,5649.89720,N,13221.89507,W,2,17,1.1,0.99,M,,,7,0135*17
$GPHDT,154.1,T*34
$GPVTG,165.1,T,,M,1.5,N,2.8,K,D*05
$GPRMC,235107.67,A,5649.89720,N,13221.89507,W,1.5,154.1,200923,,,d*6F
$GPZDA,235108.0045,20,09,2023,,*62
$GPGGA,235108.667,5649.89679,N,13221.89490,W,2,17,1.1,0.95,M,,,4,0135*15
$GPHDT,154.1,T*34
$GPVTG,166.9,T,,M,1.5,N,2.7,K,D*01
$GPRMC,235108.67,A,5649.89679,N,13221.89490,W,1.5,154.1,200923,,,d*62
$GPZDA,235109.0046,20,09,2023,,*60
$PADCP,6,20230920,235109.55,0.33
$GPGGA,235109.667,5649.89639,N,13221.89469,W,2,17,1.1,0.95,M,,,5,0135*17
$GPHDT,154.0,T*35
$GPVTG,161.6,T,,M,1.5,N,2.7,K,D*09
$GPRMC,235109.67,A,5649.89639,N,13221.89469,W,1.5,154.0,200923,,,d*60
$GPZDA,235110.0046,20,09,2023,,*68
$GPGGA,235110.667,5649.89600,N,13221.89447,W,2,17,1.1,0.95,M,,,6,0135*1A
$GPHDT,153.6,T*34
$GPVTG,164.1,T,,M,1.5,N,2.7,K,D*0B
$GPRMC,235110.67,A,5649.89600,N,13221.89447,W,1.5,153.6,200923,,,d*6F
$GPZDA,235111.0046,20,09,2023,,*69
$GPGGA,235111.667,5649.89561,N,13221.89425,W,2,17,1.1,0.95,M,,,7,0135*1A
$GPHDT,153.3,T*31
$GPVTG,161.5,T,,M,1.5,N,2.8,K,D*05
$GPRMC,235111.67,A,5649.89561,N,13221.89425,W,1.5,153.3,200923,,,d*6B
$GPZDA,235112.0046,20,09,2023,,*6A
$PADCP,7,20230920,235112.82,0.33
$GPGGA,235112.667,5649.89522,N,13221.89402,W,2,17,1.1,0.97,M,,,7,0135*19
$GPHDT,153.3,T*31
$GPVTG,163.6,T,,M,1.5,N,2.7,K,D*0B
$GPRMC,235112.67,A,5649.89522,N,13221.89402,W,1.5,153.3,200923,,,d*6A
$GPZDA,235113.0046,20,09,2023,,*6B
$GPGGA,235113.667,5649.89482,N,13221.89381,W,2,17,1.1,0.99,M,,,7,0135*11
$GPHDT,153.4,T*36
$GPVTG,166.5,T,,M,1.5,N,2.8,K,D*02
$GPRMC,235113.67,A,5649.89482,N,13221.89381,W,1.5,153.4,200923,,,d*6B
$GPZDA,235114.0046,20,09,2023,,*6C
$GPGGA,235114.667,5649.89441,N,13221.89362,W,2,17,1.1,1.00,M,,,4,0135*16
$GPHDT,153.5,T*37
$GPVTG,166.0,T,,M,1.5,N,2.8,K,D*07
$GPRMC,235114.67,A,5649.89441,N,13221.89362,W,1.5,153.5,200923,,,d*6F
$GPZDA,235115.0046,20,09,2023,,*6D
$PADCP,8,20230920,235116.08,0.33
$GPGGA,235115.667,5649.89401,N,13221.89342,W,2,17,1.1,0.99,M,,,5,0135*11
$GPHDT,153.9,T*3B
$GPVTG,163.3,T,,M,1.5,N,2.8,K,D*01
$GPRMC,235115.67,A,5649.89401,N,13221.89342,W,1.5,153.9,200923,,,d*64
$GPZDA,235116.0046,20,09,2023,,*6E
$GPGGA,235116.667,5649.89361,N,13221.89319,W,2,17,1.1,1.00,M,,,6,0135*1F
$GPHDT,154.2,T*37
$GPVTG,163.5,T,,M,1.5,N,2.8,K,D*07
$GPRMC,235116.67,A,5649.89361,N,13221.89319,W,1.5,154.2,200923,,,d*64
$GPZDA,235117.0046,20,09,2023,,*6F
$GPGGA,235117.667,5649.89321,N,13221.89297,W,2,17,1.1,0.99,M,,,7,0135*1D
$GPHDT,154.4,T*31
$GPVTG,163.4,T,,M,1.5,N,2.8,K,D*06
$GPRMC,235117.67,A,5649.89321,N,13221.89297,W,1.5,154.4,200923,,,d*60
$GPZDA,235118.0046,20,09,2023,,*60
$GPGGA,235118.667,5649.89281,N,13221.89277,W,2,17,1.1,1.00,M,,,7,0135*16
$GPHDT,155.0,T*34
$GPVTG,167.1,T,,M,1.5,N,2.9,K,D*06
$GPRMC,235118.67,A,5649.89281,N,13221.89277,W,1.5,155.0,200923,,,d*6F
$PADCP,9,20230920,235119.35,0.33
$GPZDA,235119.0047,20,09,2023,,*60
$GPGGA,235119.667,5649.89240,N,13221.89260,W,2,17,1.1,1.03,M,,,7,0135*1F
$GPHDT,155.5,T*31
$GPVTG,168.1,T,,M,1.5,N,2.8,K,D*08
$GPRMC,235119.67,A,5649.89240,N,13221.89260,W,1.5,155.5,200923,,,d*60
$GPZDA,235120.0047,20,09,2023,,*6A
$GPGGA,235120.667,5649.89200,N,13221.89244,W,2,17,1.1,1.04,M,,,4,0135*13
$GPHDT,155.9,T*3D
$GPVTG,168.8,T,,M,1.5,N,2.9,K,D*00
$GPRMC,235120.67,A,5649.89200,N,13221.89244,W,1.5,155.9,200923,,,d*64
$GPZDA,235121.0047,20,09,2023,,*6B
$GPGGA,235121.667,5649.89158,N,13221.89230,W,2,17,1.1,1.01,M,,,5,0135*1B
$GPHDT,156.6,T*31
$GPVTG,169.4,T,,M,1.5,N,2.9,K,D*0D
$GPRMC,235121.67,A,5649.89158,N,13221.89230,W,1.5,156.6,200923,,,d*64
$GPZDA,235122.0047,20,09,2023,,*68
$PADCP,10,20230920,235122.62,0.33
$GPGGA,235122.667,5649.89117,N,13221.89215,W,2,17,1.1,0.98,M,,,6,0135*16
$GPHDT,157.0,T*36
$GPVTG,168.5,T,,M,1.5,N,2.8,K,D*0C
$GPRMC,235122.67,A,5649.89117,N,13221.89215,W,1.5,157.0,200923,,,d*6C
$GPZDA,235123.0047,20,09,2023,,*69
$GPGGA,235123.667,5649.89077,N,13221.89201,W,2,17,1.1,0.99,M,,,7,0135*15
$GPHDT,157.4,T*32
$GPVTG,170.1,T,,M,1.5,N,2.8,K,D*01
$GPRMC,235123.67,A,5649.89077,N,13221.89201,W,1.5,157.4,200923,,,d*6B
$GPZDA,235124.0047,20,09,2023,,*6E
$GPGGA,235124.667,5649.89035,N,13221.89190,W,2,17,1.1,1.02,M,,,7,0135*1C
$GPHDT,158.1,T*38
$GPVTG,173.2,T,,M,1.5,N,2.8,K,D*01
$GPRMC,235124.67,A,5649.89035,N,13221.89190,W,1.5,158.1,200923,,,d*6B
$GPZDA,235125.0047,20,09,2023,,*6F
$PADCP,11,20230920,235125.88,0.33
$GPGGA,235125.667,5649.88995,N,13221.89179,W,2,17,1.1,1.06,M,,,7,0135*1C
$GPHDT,158.6,T*3F
$GPVTG,172.9,T,,M,1.5,N,2.8,K,D*0B
$GPRMC,235125.67,A,5649.88995,N,13221.89179,W,1.5,158.6,200923,,,d*68
$GPZDA,235126.0047,20,09,2023,,*6C
$GPGGA,235126.667,5649.88953,N,13221.89171,W,2,17,1.1,1.03,M,,,4,0135*1B
$GPHDT,159.1,T*39
$GPVTG,176.0,T,,M,1.6,N,2.9,K,D*04
$GPRMC,235126.67,A,5649.88953,N,13221.89171,W,1.6,159.1,200923,,,d*6C
$GPZDA,235127.0047,20,09,2023,,*6D
$GPGGA,235127.667,5649.88912,N,13221.89166,W,2,17,1.1,1.02,M,,,5,0135*19
$GPHDT,159.5,T*3D
$GPVTG,176.7,T,,M,1.4,N,2.7,K,D*0F
$GPRMC,235127.67,A,5649.88912,N,13221.89166,W,1.4,159.5,200923,,,d*68
$GPZDA,235128.0047,20,09,2023,,*62
$GPGGA,235128.667,5649.88874,N,13221.89158,W,2,17,1.1,1.03,M,,,6,0135*18
$PADCP,12,20230920,235129.14,0.33
$GPHDT,159.1,T*39
$GPVTG,174.2,T,,M,1.4,N,2.6,K,D*09
$GPRMC,235128.67,A,5649.88874,N,13221.89158,W,1.4,159.1,200923,,,d*6F
$GPZDA,235129.0047,20,09,2023,,*63
$GPGGA,235129.667,5649.88836,N,13221.89150,W,2,17,1.1,1.04,M,,,7,0135*11
$GPHDT,158.4,T*3D
$GPVTG,173.7,T,,M,1.4,N,2.6,K,D*0B
$GPRMC,235129.67,A,5649.88836,N,13221.89150,W,1.4,158.4,200923,,,d*64
$GPZDA,235130.0048,20,09,2023,,*64
$GPGGA,235130.667,5649.88797,N,13221.89143,W,2,17,1.1,1.06,M,,,7,0135*1D
$GPHDT,157.3,T*35
$GPVTG,177.5,T,,M,1.4,N,2.7,K,D*0C
$GPRMC,235130.67,A,5649.88797,N,13221.89143,W,1.4,157.3,200923,,,d*62
$GPZDA,235131.0048,20,09,2023,,*65
$GPGGA,235131.667,5649.88758,N,13221.89139,W,2,17,1.1,1.06,M,,,7,0135*12
$GPHDT,155.4,T*30
$GPVTG,173.5,T,,M,1.4,N,2.6,K,D*09
$GPRMC,235131.67,A,5649.88758,N,13221.89139,W,1.4,155.4,200923,,,d*68
$PADCP,13,20230920,235132.41,0.33
$GPZDA,235132.0048,20,09,2023,,*66
$GPGGA,235132.667,5649.88720,N,13221.89128,W,2,17,1.1,1.09,M,,,4,0135*12
$GPHDT,153.7,T*35
$GPVTG,170.4,T,,M,1.4,N,2.6,K,D*0B
$GPRMC,235132.67,A,5649.88720,N,13221.89128,W,1.4,153.7,200923,,,d*61
$GPZDA,235133.0048,20,09,2023,,*67
$GPGGA,235133.667,5649.88683,N,13221.89114,W,2,17,1.1,1.05,M,,,5,0135*19
$GPHDT,152.5,T*36
$GPVTG,167.3,T,,M,1.4,N,2.6,K,D*0A
$GPRMC,235133.67,A,5649.88683,N,13221.89114,W,1.4,152.5,200923,,,d*64
$GPZDA,235134.0048,20,09,2023,,*60
$GPGGA,235134.667,5649.88647,N,13221.89096,W,2,17,1.1,1.06,M,,,6,0135*1D
$GPHDT,151.6,T*36
$GPVTG,163.7,T,,M,1.4,N,2.6,K,D*0A
$GPRMC,235134.67,A,5649.88647,N,13221.89096,W,1.4,151.6,200923,,,d*60
$GPZDA,235135.0048,20,09,2023,,*61
$PADCP,14,20230920,235135.68,0.33
$GPGGA,235135.667,5649.88610,N,13221.89074,W,2,17,1.1,1.07,M,,,7,0135*12
$GPHDT,151.6,T*36
$GPVTG,161.3,T,,M,1.4,N,2.7,K,D*0D
$GPRMC,235135.67,A,5649.88610,N,13221.89074,W,1.4,151.6,200923,,,d*6F
$GPZDA,235136.0048,20,09,2023,,*62
$GPGGA,235136.667,5649.88572,N,13221.89050,W,2,17,1.1,1.08,M,,,7,0135*1F
$GPHDT,152.2,T*31
$GPVTG,158.9,T,,M,1.5,N,2.8,K,D*03
$GPRMC,235136.67,A,5649.88572,N,13221.89050,W,1.5,152.2,200923,,,d*6B
$GPZDA,235137.0048,20,09,2023,,*63
$GPGGA,235137.667,5649.88535,N,13221.89021,W,2,17,1.1,1.11,M,,,7,0135*13
$GPHDT,153.8,T*3A
$GPVTG,157.1,T,,M,1.4,N,2.6,K,D*0B
$GPRMC,235137.67,A,5649.88535,N,13221.89021,W,1.4,153.8,200923,,,d*65
$GPZDA,235138.0048,20,09,2023,,*6C
$PADCP,15,20230920,235138.94,0.33
$GPGGA,235138.667,5649.88498,N,13221.88994,W,2,17,1.1,1.08,M,,,4,0135*17
$GPHDT,155.7,T*33
$GPVTG,159.6,T,,M,1.5,N,2.7,K,D*02
$GPRMC,235138.67,A,5649.88498,N,13221.88994,W,1.5,155.7,200923,,,d*62
$GPZDA,235139.0048,20,09,2023,,*6D
$GPGGA,235139.667,5649.88460,N,13221.88967,W,2,17,1.1,1.06,M,,,5,0135*12
$GPHDT,157.8,T*3E
$GPVTG,158.4,T,,M,1.5,N,2.8,K,D*0E
$GPRMC,235139.67,A,5649.88460,N,13221.88967,W,1.5,157.8,200923,,,d*65
$GPZDA,235140.0048,20,09,2023,,*63
$GPGGA,235140.667,5649.88422,N,13221.88940,W,2,17,1.1,1.10,M,,,6,0135*1B
$GPHDT,159.7,T*3F
$GPVTG,161.2,T,,M,1.5,N,2.8,K,D*02
$GPRMC,235140.67,A,5649.88422,N,13221.88940,W,1.5,159.7,200923,,,d*69
$GPZDA,235141.0049,20,09,2023,,*63
$GPGGA,235141.667,5649.88382,N,13221.88918,W,2,17,1.1,1.12,M,,,7,0135*19
$GPHDT,161.3,T*30
$GPVTG,166.0,T,,M,1.5,N,2.7,K,D*08
$PADCP,16,20230920,235142.21,0.33
$GPRMC,235141.67,A,5649.88382,N,13221.88918,W,1.5,161.3,200923,,,d*67
$GPZDA,235142.0049,20,09,2023,,*60
$GPGGA,235142.667,5649.88343,N,13221.88902,W,2,17,1.1,1.09,M,,,7,0135*16
$GPHDT,162.1,T*31
$GPVTG,167.7,T,,M,1.5,N,2.7,K,D*0E
$GPRMC,235142.67,A,5649.88343,N,13221.88902,W,1.5,162.1,200923,,,d*63
$GPZDA,235143.0049,20,09,2023,,*61
$GPGGA,235143.667,5649.88304,N,13221.88887,W,2,17,1.1,1.09,M,,,7,0135*18
$GPHDT,162.4,T*34
$GPVTG,168.0,T,,M,1.4,N,2.5,K,D*05
$GPRMC,235143.67,A,5649.88304,N,13221.88887,W,1.4,162.4,200923,,,d*69
$GPZDA,235144.0049,20,09,2023,,*66
$GPGGA,235144.667,5649.88267,N,13221.88875,W,2,17,1.1,1.12,M,,,4,0135*1F
$GPHDT,161.4,T*37
$GPVTG,171.6,T,,M,1.4,N,2.6,K,D*08
$GPRMC,235144.67,A,5649.88267,N,13221.88875,W,1.4,161.4,200923,,,d*64
$GPZDA,235145.0049,20,09,2023,,*67
$PADCP,17,20230920,235145.48,0.33
$GPGGA,235145.667,5649.88229,N,13221.88866,W,2,17,1.1,1.14,M,,,5,0135*11
$GPHDT,160.3,T*31
$GPVTG,174.6,T,,M,1.5,N,2.7,K,D*0D
$GPRMC,235145.67,A,5649.88229,N,13221.88866,W,1.5,160.3,200923,,,d*6A
$GPZDA,235146.0049,20,09,2023,,*64
$GPGGA,235146.667,5649.88188,N,13221.88857,W,2,17,1.1,1.13,M,,,6,0135*1C
$GPHDT,159.5,T*3D
$GPVTG,171.7,T,,M,1.5,N,2.8,K,D*06
$GPRMC,235146.67,A,5649.88188,N,13221.88857,W,1.5,159.5,200923,,,d*6F
$GPZDA,235147.0049,20,09,2023,,*65
$GPGGA,235147.667,5649.88149,N,13221.88844,W,2,17,1.1,1.13,M,,,7,0135*13
$GPHDT,159.2,T*3A
$GPVTG,168.8,T,,M,1.4,N,2.6,K,D*0E
$GPRMC,235147.67,A,5649.88149,N,13221.88844,W,1.4,159.2,200923,,,d*67
$GPZDA,235148.0049,20,09,2023,,*6A
$PADCP,18,20230920,235148.74,0.33
$GPGGA,235148.667,5649.88110,N,13221.88831,W,2,17,1.1,1.13,M,,,7,0135*12
$GPHDT,159.5,T*3D
$GPVTG,167.9,T,,M,1.4,N,2.7,K,D*01
$GPRMC,235148.67,A,5649.88110,N,13221.88831,W,1.4,159.5,200923,,,d*61
$GPZDA,235149.0049,20,09,2023,,*6B
$GPGGA,235149.667,5649.88071,N,13221.88815,W,2,17,1.1,1.15,M,,,7,0135*15
$GPHDT,160.0,T*32
$GPVTG,168.9,T,,M,1.5,N,2.7,K,D*0F
$GPRMC,235149.67,A,5649.88071,N,13221.88815,W,1.5,160.0,200923,,,d*6E
$GPZDA,235150.0049,20,09,2023,,*63
$GPGGA,235150.667,5649.88031,N,13221.88801,W,2,17,1.1,1.16,M,,,4,0135*1C
$GPHDT,161.0,T*33
$GPVTG,169.6,T,,M,1.5,N,2.8,K,D*0E
$GPRMC,235150.67,A,5649.88031,N,13221.88801,W,1.5,161.0,200923,,,d*66
$GPZDA,235151.0050,20,09,2023,,*6A
$PADCP,19,20230920,235152.01,0.33
$GPGGA,235151.667,5649.87990,N,13221.88788,W,2,17,1.1,1.14,M,,,5,0135*1D
$GPHDT,161.8,T*3B
$GPVTG,172.2,T,,M,1.5,N,2.7,K,D*0F
$GPRMC,235151.67,A,5649.87990,N,13221.88788,W,1.5,161.8,200923,,,d*6C
$GPZDA,235152.0050,20,09,2023,,*69
$GPGGA,235152.667,5649.87950,N,13221.88776,W,2,17,1.1,1.14,M,,,6,0135*10
$GPHDT,162.2,T*32
$GPVTG,170.0,T,,M,1.5,N,2.7,K,D*0F
$GPRMC,235152.67,A,5649.87950,N,13221.88776,W,1.5,162.2,200923,,,d*6B
$GPZDA,235153.0050,20,09,2023,,*68
$GPGGA,235153.667,5649.87910,N,13221.88764,W,2,17,1.1,1.16,M,,,7,0135*15
$GPHDT,162.2,T*32
$GPVTG,171.7,T,,M,1.4,N,2.7,K,D*08
$GPRMC,235153.67,A,5649.87910,N,13221.88764,W,1.4,162.2,200923,,,d*6C
$GPZDA,235154.0050,20,09,2023,,*6F
$GPGGA,235154.667,5649.87870,N,13221.88754,W,2,17,1.1,1.16,M,,,7,0135*16
$GPHDT,162.0,T*30
$GPVTG,172.6,T,,M,1.5,N,2.7,K,D*0B
$GPRMC,235154.67,A,5649.87870,N,13221.88754,W,1.5,162.0,200923,,,d*6C
$PADCP,20,20230920,235155.28,0.33
$GPZDA,235155.0050,20,09,2023,,*6E
$GPGGA,235155.667,5649.87831,N,13221.88744,W,2,17,1.1,1.16,M,,,7,0135*13
$GPHDT,161.6,T*35
$GPVTG,174.0,T,,M,1.5,N,2.7,K,D*0B
$GPRMC,235155.67,A,5649.87831,N,13221.88744,W,1.5,161.6,200923,,,d*6C
$GPZDA,235156.0050,20,09,2023,,*6D
$GPGGA,235156.667,5649.87790,N,13221.88737,W,2,17,1.1,1.16,M,,,4,0135*13
$GPHDT,161.5,T*36
$GPVTG,174.1,T,,M,1.5,N,2.8,K,D*05
$GPRMC,235156.67,A,5649.87790,N,13221.88737,W,1.5,161.5,200923,,,d*6C
$GPZDA,235157.0050,20,09,2023,,*6C
$GPGGA,235157.667,5649.87750,N,13221.88728,W,2,17,1.1,1.16,M,,,5,0135*11
$GPHDT,161.3,T*30
$GPVTG,172.6,T,,M,1.4,N,2.6,K,D*0B
$GPRMC,235157.67,A,5649.87750,N,13221.88728,W,1.4,161.3,200923,,,d*68
$GPZDA,235158.0050,20,09,2023,,*63
$PADCP,21,20230920,235158.55,0.33
$GPGGA,235158.667,5649.87711,N,13221.88719,W,2,17,1.1,1.18,M,,,6,0135*14
$GPHDT,161.3,T*30
$GPVTG,174.0,T,,M,1.4,N,2.7,K,D*0A
$GPRMC,235158.67,A,5649.87711,N,13221.88719,W,1.4,161.3,200923,,,d*60
$GPZDA,235159.0000,20,09,2023,,*67
$GPGGA,235159.667,5649.87671,N,13221.88711,W,2,17,1.1,1.19,M,,,7,0135*1A
$GPHDT,161.5,T*36
$GPVTG,174.0,T,,M,1.5,N,2.7,K,D*0B
$GPRMC,235159.67,A,5649.87671,N,13221.88711,W,1.5,161.5,200923,,,d*69
$GPZDA,235200.0000,20,09,2023,,*68
$GPGGA,235200.667,5649.87630,N,13221.88702,W,2,17,1.1,1.19,M,,,7,0135*12
$GPHDT,161.9,T*3A
$GPVTG,174.4,T,,M,1.4,N,2.7,K,D*0E
$GPRMC,235200.67,A,5649.87630,N,13221.88702,W,1.4,161.9,200923,,,d*6C
$GPZDA,235201.0000,20,09,2023,,*69
$PADCP,22,20230920,235201.82,0.33
$GPGGA,235201.667,5649.87589,N,13221.88695,W,2,17,1.1,1.17,M,,,7,0135*13
$GPHDT,162.7,T*37
$GPVTG,174.5,T,,M,1.5,N,2.8,K,D*01
$GPRMC,235201.67,A,5649.87589,N,13221.88695,W,1.5,162.7,200923,,,d*6F
$GPZDA,235202.0001,20,09,2023,,*6B
$GPGGA,235202.667,5649.87549,N,13221.88687,W,2,17,1.1,1.17,M,,,4,0135*1C
$GPHDT,163.2,T*33
$GPVTG,175.2,T,,M,1.4,N,2.6,K,D*08
$GPRMC,235202.67,A,5649.87549,N,13221.88687,W,1.4,163.2,200923,,,d*66
$GPZDA,235203.0001,20,09,2023,,*6A
$GPGGA,235203.667,5649.87508,N,13221.88682,W,2,17,1.1,1.17,M,,,5,0135*1C
$GPHDT,163.7,T*36
$GPVTG,177.9,T,,M,1.5,N,2.8,K,D*0E
$GPRMC,235203.67,A,5649.87508,N,13221.88682,W,1.5,163.7,200923,,,d*63
$GPZDA,235204.0001,20,09,2023,,*6D
$PADCP,23,20230920,235205.09,0.33
$GPGGA,235204.667,5649.87466,N,13221.88680,W,2,17,1.1,1.17,M,,,6,0135*13
$GPHDT,164.0,T*36
$GPVTG,179.8,T,,M,1.5,N,2.7,K,D*0E
$GPRMC,235204.67,A,5649.87466,N,13221.88680,W,1.5,164.0,200923,,,d*6F
$GPZDA,235205.0001,20,09,2023,,*6C
$GPGGA,235205.667,5649.87426,N,13221.88678,W,2,17,1.1,1.17,M,,,7,0135*10
$GPHDT,164.3,T*35
$GPVTG,178.6,T,,M,1.5,N,2.7,K,D*01
$GPRMC,235205.67,A,5649.87426,N,13221.88678,W,1.5,164.3,200923,,,d*6E
$GPZDA,235206.0001,20,09,2023,,*6F
$GPGGA,235206.667,5649.87386,N,13221.88675,W,2,17,1.1,1.15,M,,,7,0135*11
$GPHDT,164.3,T*35
$GPVTG,179.2,T,,M,1.4,N,2.6,K,D*04
$GPRMC,235206.67,A,5649.87386,N,13221.88675,W,1.4,164.3,200923,,,d*6C
$GPZDA,235207.0001,20,09,2023,,*6E
$GPGGA,235207.667,5649.87347,N,13221.88673,W,2,17,1.1,1.16,M,,,7,0135*18
$GPHDT,163.9,T*38
$GPVTG,180.5,T,,M,1.4,N,2.7,K,D*04
$GPRMC,235207.67,A,5649.87347,N,13221.88673,W,1.4,163.9,200923,,,d*6B
$PADCP,24,20230920,235208.35,0.33
$GPZDA,235208.0001,20,09,2023,,*61
$GPGGA,235208.667,5649.87307,N,13221.88673,W,2,17,1.1,1.17,M,,,4,0135*11
$GPHDT,163.2,T*33
$GPVTG,181.5,T,,M,1.4,N,2.7,K,D*05
$GPRMC,235208.67,A,5649.87307,N,13221.88673,W,1.4,163.2,200923,,,d*6B
$GPZDA,235209.0001,20,09,2023,,*60
$GPGGA,235209.667,5649.87268,N,13221.88673,W,2,17,1.1,1.19,M,,,5,0135*17
$GPHDT,161.9,T*3A
$GPVTG,179.1,T,,M,1.4,N,2.6,K,D*07
$GPRMC,235209.67,A,5649.87268,N,13221.88673,W,1.4,161.9,200923,,,d*6B
$GPZDA,235210.0001,20,09,2023,,*68
$GPGGA,235210.667,5649.87228,N,13221.88672,W,2,13,1.1,1.18,M,,,6,0135*1C
$GPHDT,160.5,T*37
$GPVTG,180.7,T,,M,1.4,N,2.6,K,D*07
$GPRMC,235210.67,A,5649.87228,N,13221.88672,W,1.4,160.5,200923,,,d*6B
$GPZDA,235211.0001,20,09,2023,,*69
$PADCP,25,20230920,235211.62,0.33
$GPGGA,235211.667,5649.87191,N,13221.88672,W,2,13,1.1,1.16,M,,,7,0135*13
$GPHDT,158.5,T*3C
$GPVTG,178.4,T,,M,1.3,N,2.4,K,D*06
$GPRMC,235211.67,A,5649.87191,N,13221.88672,W,1.3,158.5,200923,,,d*67
$GPZDA,235212.0002,20,09,2023,,*69
$GPGGA,235212.667,5649.87153,N,13221.88670,W,2,12,1.1,1.17,M,,,7,0135*1C
$GPHDT,156.1,T*36
$GPVTG,176.4,T,,M,1.4,N,2.6,K,D*0D
$GPRMC,235212.67,A,5649.87153,N,13221.88670,W,1.4,156.1,200923,,,d*65
$GPZDA,235213.0002,20,09,2023,,*68
$GPGGA,235213.667,5649.87115,N,13221.88664,W,2,12,1.1,1.16,M,,,7,0135*1B
$GPHDT,153.5,T*37
$GPVTG,172.9,T,,M,1.3,N,2.4,K,D*01
$GPRMC,235213.67,A,5649.87115,N,13221.88664,W,1.3,153.5,200923,,,d*65
$GPZDA,235214.0002,20,09,2023,,*6F
$PADCP,26,20230920,235214.88,0.33
$GPGGA,235214.667,5649.87079,N,13221.88653,W,2,12,1.1,1.16,M,,,4,0135*10
$GPHDT,151.3,T*33
$GPVTG,168.4,T,,M,1.4,N,2.5,K,D*01
$GPRMC,235214.67,A,5649.87079,N,13221.88653,W,1.4,151.3,200923,,,d*6E
$GPZDA,235215.0002,20,09,2023,,*6E
$GPGGA,235215.667,5649.87041,N,13221.88635,W,2,12,1.1,1.15,M,,,5,0135*18
$GPHDT,149.9,T*30
$GPVTG,163.3,T,,M,1.4,N,2.5,K,D*0D
$GPRMC,235215.67,A,5649.87041,N,13221.88635,W,1.4,149.9,200923,,,d*67
$GPZDA,235216.0002,20,09,2023,,*6D
$GPGGA,235216.667,5649.87005,N,13221.88611,W,2,12,1.1,1.14,M,,,6,0135*1F
$GPHDT,149.6,T*3F
$GPVTG,159.5,T,,M,1.4,N,2.5,K,D*02
$GPRMC,235216.67,A,5649.87005,N,13221.88611,W,1.4,149.6,200923,,,d*6D
$GPZDA,235217.0002,20,09,2023,,*6C
$PADCP,27,20230920,235218.15,0.33
$GPGGA,235217.667,5649.86968,N,13221.88583,W,2,17,1.1,1.13,M,,,7,0135*16
$GPHDT,150.1,T*30
$GPVTG,155.8,T,,M,1.4,N,2.6,K,D*00
$GPRMC,235217.67,A,5649.86968,N,13221.88583,W,1.4,150.1,200923,,,d*68
$GPZDA,235218.0002,20,09,2023,,*63
$GPGGA,235218.667,5649.86932,N,13221.88553,W,2,17,1.1,1.12,M,,,7,0135*1A
$GPHDT,150.8,T*39
$GPVTG,157.7,T,,M,1.5,N,2.7,K,D*0D
$GPRMC,235218.67,A,5649.86932,N,13221.88553,W,1.5,150.8,200923,,,d*6D
$GPZDA,235219.0002,20,09,2023,,*62
$GPGGA,235219.667,5649.86894,N,13221.88522,W,2,17,1.1,1.10,M,,,7,0135*12
$GPHDT,151.8,T*38
$GPVTG,154.9,T,,M,1.5,N,2.7,K,D*00
$GPRMC,235219.67,A,5649.86894,N,13221.88522,W,1.5,151.8,200923,,,d*66
$GPZDA,235220.0002,20,09,2023,,*68
$GPGGA,235220.667,5649.86855,N,13221.88492,W,2,17,1.1,1.08,M,,,4,0135*15
$GPHDT,153.3,T*31
$GPVTG,158.0,T,,M,1.5,N,2.7,K,D*05
$GPRMC,235220.67,A,5649.86855,N,13221.88492,W,1.5,153.3,200923,,,d*62
$PADCP,28,20230920,235221.42,0.33
$GPZDA,235221.0002,20,09,2023,,*69
$GPGGA,235221.667,5649.86817,N,13221.88462,W,2,17,1.1,1.05,M,,,5,0135*11
$GPHDT,154.7,T*32
$GPVTG,156.2,T,,M,1.5,N,2.8,K,D*06
$GPRMC,235221.67,A,5649.86817,N,13221.88462,W,1.5,154.7,200923,,,d*69
$GPZDA,235222.0002,20,09,2023,,*6A
$GPGGA,235222.667,5649.86778,N,13221.88430,W,2,17,1.1,1.05,M,,,6,0135*10
$GPHDT,155.7,T*33
$GPVTG,158.9,T,,M,1.5,N,2.8,K,D*03
$GPRMC,235222.67,A,5649.86778,N,13221.88430,W,1.5,155.7,200923,,,d*6A
$GPZDA,235223.0003,20,09,2023,,*6A
$GPGGA,235223.667,5649.86740,N,13221.88403,W,2,17,1.1,1.03,M,,,7,0135*1D
$GPHDT,156.2,T*35
$GPVTG,162.6,T,,M,1.5,N,2.7,K,D*0A
$GPRMC,235223.67,A,5649.86740,N,13221.88403,W,1.5,156.2,200923,,,d*66
$GPZDA,235224.0003,20,09,2023,,*6D
$PADCP,29,20230920,235224.68,0.33
$GPGGA,235224.667,5649.86701,N,13221.88380,W,2,17,1.1,1.00,M,,,7,0135*10
$GPHDT,156.3,T*34
$GPVTG,163.8,T,,M,1.4,N,2.7,K,D*04
$GPRMC,235224.67,A,5649.86701,N,13221.88380,W,1.4,156.3,200923,,,d*68
$GPZDA,235225.0003,20,09,2023,,*6C
$GPGGA,235225.667,5649.86664,N,13221.88358,W,2,17,1.1,0.96,M,,,7,0135*18
$GPHDT,155.7,T*33
$GPVTG,161.4,T,,M,1.4,N,2.6,K,D*0B
$GPRMC,235225.67,A,5649.86664,N,13221.88358,W,1.4,155.7,200923,,,d*69
$GPZDA,235226.0003,20,09,2023,,*6F
$GPGGA,235226.667,5649.86628,N,13221.88335,W,2,17,1.1,0.96,M,,,4,0135*1B
$GPHDT,154.4,T*31
$GPVTG,164.5,T,,M,1.4,N,2.6,K,D*0F
$GPRMC,235226.67,A,5649.86628,N,13221.88335,W,1.4,154.4,200923,,,d*6B
$GPZDA,235227.0003,20,09,2023,,*6E
$PADCP,30,20230920,235227.94,0.33
$GPGGA,235227.667,5649.86589,N,13221.88314,W,2,17,1.1,0.93,M,,,5,0135*15
$GPHDT,153.1,T*33
$GPVTG,162.9,T,,M,1.5,N,2.8,K,D*0A
$GPRMC,235227.67,A,5649.86589,N,13221.88314,W,1.5,153.1,200923,,,d*62
$GPZDA,235228.0003,20,09,2023,,*61
$GPGGA,235228.667,5649.86552,N,13221.88290,W,2,17,1.1,0.91,M,,,6,0135*10
$GPHDT,152.2,T*31
$GPVTG,159.3,T,,M,1.4,N,2.6,K,D*07
$GPRMC,235228.67,A,5649.86552,N,13221.88290,W,1.4,152.2,200923,,,d*65
$GPZDA,235229.0003,20,09,2023,,*60
$GPGGA,235229.667,5649.86517,N,13221.88262,W,2,17,1.1,0.88,M,,,7,0135*14
$GPHDT,151.6,T*36
$GPVTG,155.2,T,,M,1.4,N,2.7,K,D*0B
$GPRMC,235229.67,A,5649.86517,N,13221.88262,W,1.4,151.6,200923,,,d*6F
$GPZDA,235230.0003,20,09,2023,,*68
$GPGGA,235230.667,5649.86480,N,13221.88230,W,2,17,1.1,0.89,M,,,7,0135*15
$GPHDT,151.7,T*37
$GPVTG,156.7,T,,M,1.5,N,2.7,K,D*0C
$PADCP,31,20230920,235231.21,0.33
$GPRMC,235230.67,A,5649.86480,N,13221.88230,W,1.5,151.7,200923,,,d*6F
$GPZDA,235231.0003,20,09,2023,,*69
$GPGGA,235231.667,5649.86442,N,13221.88203,W,2,17,1.1,0.88,M,,,7,0135*1B
$GPHDT,152.2,T*31
$GPVTG,158.7,T,,M,1.5,N,2.8,K,D*0D
$GPRMC,235231.67,A,5649.86442,N,13221.88203,W,1.5,152.2,200923,,,d*66
$GPZDA,235232.0003,20,09,2023,,*6A
$GPGGA,235232.667,5649.86403,N,13221.88174,W,2,17,1.1,0.85,M,,,4,0135*10
$GPHDT,153.4,T*36
$GPVTG,155.5,T,,M,1.5,N,2.8,K,D*02
$GPRMC,235232.67,A,5649.86403,N,13221.88174,W,1.5,153.4,200923,,,d*64
$GPZDA,235233.0004,20,09,2023,,*6C
$GPGGA,235233.667,5649.86365,N,13221.88141,W,2,17,1.1,0.83,M,,,5,0135*17
$GPHDT,155.1,T*35
$GPVTG,154.5,T,,M,1.5,N,2.7,K,D*0C
$GPRMC,235233.67,A,5649.86365,N,13221.88141,W,1.5,155.1,200923,,,d*67
$GPZDA,235234.0004,20,09,2023,,*6B
$PADCP,32,20230920,235234.47,0.33
$GPGGA,235234.667,5649.86327,N,13221.88111,W,2,17,1.1,0.83,M,,,6,0135*10
$GPHDT,156.6,T*31
$GPVTG,157.7,T,,M,1.6,N,2.9,K,D*00
$GPRMC,235234.67,A,5649.86327,N,13221.88111,W,1.6,156.6,200923,,,d*64
$GPZDA,235235.0004,20,09,2023,,*6A
$GPGGA,235235.667,5649.86285,N,13221.88082,W,2,17,1.1,0.81,M,,,7,0135*10
$GPHDT,158.3,T*3A
$GPVTG,160.2,T,,M,1.6,N,3.0,K,D*09
$GPRMC,235235.67,A,5649.86285,N,13221.88082,W,1.6,158.3,200923,,,d*6C
$GPZDA,235236.0004,20,09,2023,,*69
$GPGGA,235236.667,5649.86245,N,13221.88058,W,2,17,1.1,0.76,M,,,7,0135*10
$GPHDT,159.9,T*31
$GPVTG,161.4,T,,M,1.5,N,2.8,K,D*04
$GPRMC,235236.67,A,5649.86245,N,13221.88058,W,1.5,159.9,200923,,,d*6C
$GPZDA,235237.0004,20,09,2023,,*68
$PADCP,33,20230920,235237.74,0.33
$GPGGA,235237.667,5649.86205,N,13221.88034,W,2,17,1.1,0.74,M,,,7,0135*1D
$GPHDT,161.2,T*31
$GPVTG,163.2,T,,M,1.6,N,2.9,K,D*02
$GPRMC,235237.67,A,5649.86205,N,13221.88034,W,1.6,161.2,200923,,,d*60
$GPZDA,235238.0004,20,09,2023,,*67
$GPGGA,235238.668,5649.86163,N,13221.88014,W,2,17,1.1,0.74,M,,,4,0135*1F
$GPHDT,162.1,T*31
$GPVTG,165.9,T,,M,1.6,N,2.9,K,D*0F
$GPRMC,235238.67,A,5649.86163,N,13221.88014,W,1.6,162.1,200923,,,d*6E
$GPZDA,235239.0004,20,09,2023,,*66
$GPGGA,235239.668,5649.86122,N,13221.87997,W,2,17,1.1,0.72,M,,,5,0135*11
$GPHDT,162.6,T*36
$GPVTG,167.2,T,,M,1.5,N,2.7,K,D*0B
$GPRMC,235239.67,A,5649.86122,N,13221.87997,W,1.5,162.6,200923,,,d*63
$GPZDA,235240.0004,20,09,2023,,*68
$PADCP,34,20230920,235241.01,0.33
$GPGGA,235240.668,5649.86082,N,13221.87981,W,2,17,1.1,0.72,M,,,6,0135*10
$GPHDT,162.7,T*37
$GPVTG,168.7,T,,M,1.5,N,2.7,K,D*01
$GPRMC,235240.67,A,5649.86082,N,13221.87981,W,1.5,162.7,200923,,,d*60
$GPZDA,235241.0004,20,09,2023,,*69
$GPGGA,235241.668,5649.86043,N,13221.87967,W,2,17,1.1,0.73,M,,,7,0135*14
$GPHDT,162.5,T*35
$GPVTG,169.5,T,,M,1.5,N,2.7,K,D*02
$GPRMC,235241.67,A,5649.86043,N,13221.87967,W,1.5,162.5,200923,,,d*66
$GPZDA,235242.0004,20,09,2023,,*6A
$GPGGA,235242.668,5649.86000,N,13221.87958,W,2,17,1.1,0.72,M,,,7,0135*1D
$GPHDT,162.1,T*31
$GPVTG,173.4,T,,M,1.7,N,3.1,K,D*0D
$GPRMC,235242.67,A,5649.86000,N,13221.87958,W,1.7,162.1,200923,,,d*68
$GPZDA,235243.0004,20,09,2023,,*6B
$GPGGA,235243.668,5649.85955,N,13221.87947,W,2,17,1.1,0.69,M,,,7,0135*12
$GPHDT,161.6,T*35
$GPVTG,169.0,T,,M,1.6,N,3.0,K,D*02
$PADCP,35,20230920,235244.27,0.33
$GPRMC,235243.67,A,5649.85955,N,13221.87947,W,1.6,161.6,200923,,,d*68
$GPZDA,235244.0005,20,09,2023,,*6D
$GPGGA,235244.668,5649.85909,N,13221.87932,W,2,17,1.1,0.70,M,,,4,0135*15
$GPHDT,161.2,T*31
$GPVTG,169.2,T,,M,1.7,N,3.2,K,D*03
$GPRMC,235244.67,A,5649.85909,N,13221.87932,W,1.7,161.2,200923,,,d*61
$GPZDA,235245.0005,20,09,2023,,*6C
$GPGGA,235245.668,5649.85861,N,13221.87917,W,2,17,1.1,0.69,M,,,5,0135*15
$GPHDT,160.2,T*30
$GPVTG,169.1,T,,M,1.9,N,3.5,K,D*09
$GPRMC,235245.67,A,5649.85861,N,13221.87917,W,1.9,160.2,200923,,,d*67
$GPZDA,235246.0005,20,09,2023,,*6F
$GPGGA,235246.668,5649.85808,N,13221.87900,W,2,17,1.1,0.68,M,,,6,0135*1D
$GPHDT,159.8,T*30
$GPVTG,168.9,T,,M,2.0,N,3.7,K,D*08
$GPRMC,235246.67,A,5649.85808,N,13221.87900,W,2.0,159.8,200923,,,d*67
$GPZDA,235247.0005,20,09,2023,,*6E
$PADCP,36,20230920,235247.54,0.33
$GPGGA,235247.668,5649.85754,N,13221.87880,W,2,17,1.1,0.65,M,,,7,0135*1F
$GPHDT,160.1,T*33
$GPVTG,166.1,T,,M,2.0,N,3.7,K,D*0E
$GPRMC,235247.67,A,5649.85754,N,13221.87880,W,2.0,160.1,200923,,,d*6A
$GPZDA,235248.0005,20,09,2023,,*61
$GPGGA,235248.668,5649.85700,N,13221.87856,W,2,17,1.1,0.65,M,,,7,0135*1A
$GPHDT,161.0,T*33
$GPVTG,165.6,T,,M,2.0,N,3.8,K,D*05
$GPRMC,235248.67,A,5649.85700,N,13221.87856,W,2.0,161.0,200923,,,d*6F
$GPZDA,235249.0005,20,09,2023,,*60
$GPGGA,235249.668,5649.85643,N,13221.87832,W,2,17,1.1,0.67,M,,,7,0135*1D
$GPHDT,161.8,T*3B
$GPVTG,167.2,T,,M,2.1,N,3.9,K,D*03
$GPRMC,235249.67,A,5649.85643,N,13221.87832,W,2.1,161.8,200923,,,d*63
$GPZDA,235250.0005,20,09,2023,,*68
$PADCP,37,20230920,235250.80,0.33
$GPGGA,235250.668,5649.85584,N,13221.87810,W,2,17,1.1,0.61,M,,,4,0135*18
$GPHDT,162.9,T*39
$GPVTG,166.1,T,,M,2.2,N,4.0,K,D*0C
$GPRMC,235250.67,A,5649.85584,N,13221.87810,W,2.2,162.9,200923,,,d*62
$GPZDA,235251.0005,20,09,2023,,*69
$GPGGA,235251.668,5649.85526,N,13221.87783,W,2,17,1.1,0.61,M,,,5,0135*15
$GPHDT,164.4,T*32
$GPVTG,165.9,T,,M,2.1,N,4.0,K,D*04
$GPRMC,235251.67,A,5649.85526,N,13221.87783,W,2.1,164.4,200923,,,d*66
$GPZDA,235252.0005,20,09,2023,,*6A
$GPGGA,235252.668,5649.85465,N,13221.87759,W,2,17,1.1,0.60,M,,,6,0135*15
$GPHDT,164.9,T*3F
$GPVTG,169.6,T,,M,2.4,N,4.4,K,D*06
$GPRMC,235252.67,A,5649.85465,N,13221.87759,W,2.4,164.9,200923,,,d*6C
$GPZDA,235253.0005,20,09,2023,,*6B
$PADCP,38,20230920,235254.07,0.33
$GPGGA,235253.668,5649.85400,N,13221.87740,W,2,17,1.1,0.58,M,,,7,0135*15
$GPHDT,164.5,T*33
$GPVTG,169.7,T,,M,2.4,N,4.5,K,D*06
$GPRMC,235253.67,A,5649.85400,N,13221.87740,W,2.4,164.5,200923,,,d*6A
$GPZDA,235254.0005,20,09,2023,,*6C
$GPGGA,235254.668,5649.85331,N,13221.87718,W,2,17,1.1,0.59,M,,,7,0135*1B
$GPHDT,163.6,T*37
$GPVTG,169.1,T,,M,2.5,N,4.7,K,D*03
$GPRMC,235254.67,A,5649.85331,N,13221.87718,W,2.5,163.6,200923,,,d*60
$GPZDA,235255.0006,20,09,2023,,*6E
$GPGGA,235255.668,5649.85263,N,13221.87696,W,2,17,1.1,0.59,M,,,7,0135*1B
$GPHDT,162.1,T*31
$GPVTG,168.4,T,,M,2.5,N,4.5,K,D*05
$GPRMC,235255.67,A,5649.85263,N,13221.87696,W,2.5,162.1,200923,,,d*66
$GPZDA,235256.0006,20,09,2023,,*6D
$GPGGA,235256.668,5649.85196,N,13221.87672,W,2,17,1.1,0.59,M,,,4,0135*18
$GPHDT,160.3,T*31
$GPVTG,168.3,T,,M,2.4,N,4.5,K,D*03
$GPRMC,235256.67,A,5649.85196,N,13221.87672,W,2.4,160.3,200923,,,d*67
$PADCP,39,20230920,235257.33,0.33
$GPZDA,235257.0006,20,09,2023,,*6C
$GPGGA,235257.668,5649.85127,N,13221.87646,W,2,17,1.1,0.59,M,,,5,0135*15
$GPHDT,158.4,T*3D
$GPVTG,167.3,T,,M,2.6,N,4.8,K,D*03
$GPRMC,235257.67,A,5649.85127,N,13221.87646,W,2.6,158.4,200923,,,d*65
$GPZDA,235258.0006,20,09,2023,,*63
$GPGGA,235258.668,5649.85057,N,13221.87616,W,2,17,1.1,0.60,M,,,6,0135*10
$GPHDT,156.5,T*32
$GPVTG,163.8,T,,M,2.6,N,4.9,K,D*0D
$GPRMC,235258.67,A,5649.85057,N,13221.87616,W,2.6,156.5,200923,,,d*66
$GPZDA,235259.0006,20,09,2023,,*62
$GPGGA,235259.668,5649.84987,N,13221.87581,W,2,17,1.1,0.56,M,,,7,0135*1D
$GPHDT,155.2,T*36
$GPVTG,162.7,T,,M,2.6,N,4.8,K,D*02
$GPRMC,235259.67,A,5649.84987,N,13221.87581,W,2.6,155.2,200923,,,d*6B
$GPZDA,235300.0006,20,09,2023,,*6F
$PADCP,40,20230920,235300.60,0.33
$GPGGA,235300.668,5649.84920,N,13221.87540,W,2,17,1.1,0.54,M,,,7,0135*12
$GPHDT,154.3,T*36
$GPVTG,159.8,T,,M,2.5,N,4.7,K,D*09
$GPRMC,235300.67,A,5649.84920,N,13221.87540,W,2.5,154.3,200923,,,d*65
$GPZDA,235301.0006,20,09,2023,,*6E
$GPGGA,235301.668,5649.84852,N,13221.87493,W,2,17,1.1,0.56,M,,,7,0135*1A
$GPHDT,153.9,T*3B
$GPVTG,159.1,T,,M,2.7,N,5.0,K,D*04
$GPRMC,235301.67,A,5649.84852,N,13221.87493,W,2.7,153.9,200923,,,d*60
$GPZDA,235302.0006,20,09,2023,,*6D
$GPGGA,235302.668,5649.84780,N,13221.87448,W,2,17,1.1,0.60,M,,,4,0135*19
$GPHDT,154.3,T*36
$GPVTG,161.1,T,,M,2.7,N,5.0,K,D*0F
$GPRMC,235302.67,A,5649.84780,N,13221.87448,W,2.7,154.3,200923,,,d*68
$GPZDA,235303.0006,20,09,2023,,*6C
$PADCP,41,20230920,235303.87,0.33
$GPGGA,235303.668,5649.84711,N,13221.87402,W,2,17,1.1,0.54,M,,,5,0135*18
$GPHDT,154.5,T*30
$GPVTG,157.8,T,,M,2.7,N,5.0,K,D*03
$GPRMC,235303.67,A,5649.84711,N,13221.87402,W,2.7,154.5,200923,,,d*69
$GPZDA,235304.0006,20,09,2023,,*6B
$GPGGA,235304.668,5649.84643,N,13221.87348,W,2,17,1.1,0.53,M,,,6,0135*14
$GPHDT,154.4,T*31
$GPVTG,156.2,T,,M,2.7,N,4.9,K,D*00
$GPRMC,235304.67,A,5649.84643,N,13221.87348,W,2.7,154.4,200923,,,d*60
$GPZDA,235305.0007,20,09,2023,,*6B
$GPGGA,235305.668,5649.84572,N,13221.87296,W,2,17,1.1,0.57,M,,,7,0135*13
$GPHDT,154.1,T*34
$GPVTG,160.9,T,,M,2.8,N,5.3,K,D*0A
$GPRMC,235305.67,A,5649.84572,N,13221.87296,W,2.8,154.1,200923,,,d*68
$GPZDA,235306.0007,20,09,2023,,*68
$PADCP,42,20230920,235307.13,0.33
$GPGGA,235306.668,5649.84498,N,13221.87251,W,2,17,1.1,0.55,M,,,7,0135*1C
$GPHDT,154.6,T*33
$GPVTG,161.1,T,,M,2.8,N,5.2,K,D*02
$GPRMC,235306.67,A,5649.84498,N,13221.87251,W,2.8,154.6,200923,,,d*62
$GPZDA,235307.0007,20,09,2023,,*69
$GPGGA,235307.668,5649.84427,N,13221.87203,W,2,17,1.1,0.49,M,,,7,0135*13
$GPHDT,155.6,T*32
$GPVTG,156.9,T,,M,2.7,N,5.0,K,D*03
$GPRMC,235307.67,A,5649.84427,N,13221.87203,W,2.7,155.6,200923,,,d*6E
$GPZDA,235308.0007,20,09,2023,,*66
$GPGGA,235308.668,5649.84358,N,13221.87149,W,2,17,1.1,0.53,M,,,4,0135*16
$GPHDT,155.8,T*3C
$GPVTG,157.7,T,,M,2.8,N,5.1,K,D*02
$GPRMC,235308.67,A,5649.84358,N,13221.87149,W,2.8,155.8,200923,,,d*62
$GPZDA,235309.0007,20,09,2023,,*67
$GPGGA,235309.668,5649.84284,N,13221.87103,W,2,17,1.1,0.59,M,,,5,0135*12
$GPHDT,156.1,T*36
$GPVTG,164.0,T,,M,2.9,N,5.3,K,D*06
$GPRMC,235309.67,A,5649.84284,N,13221.87103,W,2.9,156.1,200923,,,d*66
$PADCP,43,20230920,235310.40,0.33
$GPZDA,235310.0007,20,09,2023,,*6F
$GPGGA,235310.668,5649.84209,N,13221.87060,W,2,16,1.1,0.53,M,,,6,0135*13
$GPHDT,156.9,T*3E
$GPVTG,159.9,T,,M,2.8,N,5.2,K,D*01
$GPRMC,235310.67,A,5649.84209,N,13221.87060,W,2.8,156.9,200923,,,d*66
$GPZDA,235311.0007,20,09,2023,,*6E
$GPGGA,235311.668,5649.84138,N,13221.87010,W,2,16,1.1,0.51,M,,,7,0135*17
$GPHDT,157.1,T*37
$GPVTG,159.5,T,,M,2.7,N,5.0,K,D*00
$GPRMC,235311.67,A,5649.84138,N,13221.87010,W,2.7,157.1,200923,,,d*67
$GPZDA,235312.0007,20,09,2023,,*6D
$GPGGA,235312.668,5649.84066,N,13221.86965,W,2,16,1.1,0.55,M,,,7,0135*10
$GPHDT,156.4,T*33
$GPVTG,162.8,T,,M,2.8,N,5.2,K,D*08
$GPRMC,235312.67,A,5649.84066,N,13221.86965,W,2.8,156.4,200923,,,d*6F
$GPZDA,235313.0007,20,09,2023,,*6C
$PADCP,44,20230920,235313.66,0.33
$GPGGA,235313.668,5649.83991,N,13221.86924,W,2,16,1.1,0.55,M,,,7,0135*12
$GPHDT,155.6,T*32
$GPVTG,163.0,T,,M,2.8,N,5.2,K,D*01
$GPRMC,235313.67,A,5649.83991,N,13221.86924,W,2.8,155.6,200923,,,d*6C
$GPZDA,235314.0007,20,09,2023,,*6B
$GPGGA,235314.668,5649.83920,N,13221.86880,W,2,16,1.1,0.51,M,,,4,0135*17
$GPHDT,155.2,T*36
$GPVTG,159.6,T,,M,2.7,N,4.9,K,D*0B
$GPRMC,235314.67,A,5649.83920,N,13221.86880,W,2.7,155.2,200923,,,d*65
$GPZDA,235315.0007,20,09,2023,,*6A
$GPGGA,235315.668,5649.83851,N,13221.86830,W,2,16,1.1,0.52,M,,,5,0135*18
$GPHDT,154.1,T*34
$GPVTG,157.9,T,,M,2.7,N,5.1,K,D*03
$GPRMC,235315.67,A,5649.83851,N,13221.86830,W,2.7,154.1,200923,,,d*6A
$GPZDA,235316.0008,20,09,2023,,*66
$PADCP,45,20230920,235316.93,0.33
$GPGGA,235316.668,5649.83779,N,13221.86781,W,2,16,1.1,0.59,M,,,6,0135*13
$GPHDT,153.1,T*33
$GPVTG,161.3,T,,M,2.9,N,5.3,K,D*00
$GPRMC,235316.67,A,5649.83779,N,13221.86781,W,2.9,153.1,200923,,,d*60
$GPZDA,235317.0008,20,09,2023,,*67
$GPGGA,235317.668,5649.83705,N,13221.86733,W,2,16,1.1,0.52,M,,,7,0135*1A
$GPHDT,153.2,T*30
$GPVTG,157.2,T,,M,2.8,N,5.2,K,D*04
$GPRMC,235317.67,A,5649.83705,N,13221.86733,W,2.8,153.2,200923,,,d*61
$GPZDA,235318.0008,20,09,2023,,*68
$GPGGA,235318.668,5649.83636,N,13221.86675,W,2,16,1.1,0.50,M,,,7,0135*15
$GPHDT,153.2,T*30
$GPVTG,154.7,T,,M,2.8,N,5.1,K,D*01
$GPRMC,235318.67,A,5649.83636,N,13221.86675,W,2.8,153.2,200923,,,d*6C
$GPZDA,235319.0008,20,09,2023,,*69
$GPGGA,235319.668,5649.83566,N,13221.86617,W,2,16,1.1,0.56,M,,,7,0135*10
$GPHDT,152.7,T*34
$PADCP,46,20230920,235320.20,0.33
$GPVTG,158.5,T,,M,2.9,N,5.3,K,D*0C
$GPRMC,235319.67,A,5649.83566,N,13221.86617,W,2.9,152.7,200923,,,d*6A
$GPZDA,235320.0008,20,09,2023,,*63
$GPGGA,235320.668,5649.83491,N,13221.86564,W,2,16,1.1,0.54,M,,,4,0135*15
$GPHDT,152.6,T*35
$GPVTG,158.1,T,,M,2.9,N,5.4,K,D*0F
$GPRMC,235320.67,A,5649.83491,N,13221.86564,W,2.9,152.6,200923,,,d*6F
$GPZDA,235321.0008,20,09,2023,,*62
$GPGGA,235321.668,5649.83419,N,13221.86505,W,2,16,1.1,0.48,M,,,5,0135*1F
$GPHDT,153.1,T*33
$GPVTG,153.3,T,,M,2.8,N,5.2,K,D*01
$GPRMC,235321.67,A,5649.83419,N,13221.86505,W,2.8,153.1,200923,,,d*6E
$GPZDA,235322.0008,20,09,2023,,*61
$GPGGA,235322.668,5649.83351,N,13221.86442,W,2,16,1.1,0.54,M,,,6,0135*1B
$GPHDT,153.1,T*33
$GPVTG,154.0,T,,M,2.9,N,5.4,K,D*02
$GPRMC,235322.67,A,5649.83351,N,13221.86442,W,2.9,153.1,200923,,,d*65
$GPZDA,235323.0008,20,09,2023,,*60
$PADCP,47,20230920,235323.46,0.33
$GPGGA,235323.668,5649.83276,N,13221.86383,W,2,16,1.1,0.57,M,,,7,0135*16
$GPHDT,153.4,T*36
$GPVTG,157.6,T,,M,3.0,N,5.6,K,D*0D
$GPRMC,235323.67,A,5649.83276,N,13221.86383,W,3.0,153.4,200923,,,d*67
$GPZDA,235324.0008,20,09,2023,,*67
$GPGGA,235324.668,5649.83200,N,13221.86323,W,2,16,1.1,0.49,M,,,7,0135*15
$GPHDT,154.3,T*36
$GPVTG,155.0,T,,M,2.9,N,5.4,K,D*03
$GPRMC,235324.67,A,5649.83200,N,13221.86323,W,2.9,154.3,200923,,,d*63
$GPZDA,235325.0008,20,09,2023,,*66
$GPGGA,235325.668,5649.83131,N,13221.86260,W,2,16,1.1,0.49,M,,,7,0135*13
$GPHDT,154.7,T*32
$GPVTG,152.8,T,,M,2.8,N,5.2,K,D*0B
$GPRMC,235325.67,A,5649.83131,N,13221.86260,W,2.8,154.7,200923,,,d*60
$GPZDA,235326.0009,20,09,2023,,*64
$PADCP,48,20230920,235326.73,0.33
$GPGGA,235326.668,5649.83059,N,13221.86201,W,2,16,1.1,0.55,M,,,4,0135*16
$GPHDT,154.0,T*35
$GPVTG,159.0,T,,M,3.0,N,5.5,K,D*06
$GPRMC,235326.67,A,5649.83059,N,13221.86201,W,3.0,154.0,200923,,,d*65
$GPZDA,235327.0009,20,09,2023,,*65
$GPGGA,235327.668,5649.82982,N,13221.86148,W,2,16,1.1,0.53,M,,,5,0135*10
$GPHDT,153.6,T*34
$GPVTG,158.3,T,,M,3.0,N,5.5,K,D*04
$GPRMC,235327.67,A,5649.82982,N,13221.86148,W,3.0,153.6,200923,,,d*65
$GPZDA,235328.0009,20,09,2023,,*6A
$GPGGA,235328.668,5649.82910,N,13221.86089,W,2,16,1.1,0.48,M,,,6,0135*11
$GPHDT,153.9,T*3B
$GPVTG,153.4,T,,M,2.8,N,5.2,K,D*06
$GPRMC,235328.67,A,5649.82910,N,13221.86089,W,2.8,153.9,200923,,,d*6B
$GPZDA,235329.0009,20,09,2023,,*6B
$PADCP,49,20230920,235329.99,0.33
$GPGGA,235329.668,5649.82841,N,13221.86026,W,2,16,1.1,0.52,M,,,7,0135*1A
$GPHDT,153.7,T*35
$GPVTG,155.2,T,,M,2.9,N,5.4,K,D*01
$GPRMC,235329.67,A,5649.82841,N,13221.86026,W,2.9,153.7,200923,,,d*65
$GPZDA,235330.0009,20,09,2023,,*63
$GPGGA,235330.668,5649.82766,N,13221.85967,W,2,16,1.1,0.56,M,,,7,0135*13
$GPHDT,153.9,T*3B
$GPVTG,158.5,T,,M,3.0,N,5.6,K,D*01
$GPRMC,235330.67,A,5649.82766,N,13221.85967,W,3.0,153.9,200923,,,d*6E
$GPZDA,235331.0009,20,09,2023,,*62
$GPGGA,235331.668,5649.82692,N,13221.85909,W,2,16,1.1,0.50,M,,,7,0135*16
$GPHDT,154.6,T*33
$GPVTG,155.5,T,,M,3.0,N,5.5,K,D*0F
$GPRMC,235331.67,A,5649.82692,N,13221.85909,W,3.0,154.6,200923,,,d*65
$GPZDA,235332.0009,20,09,2023,,*61
$GPGGA,235332.668,5649.82621,N,13221.85848,W,2,16,1.1,0.51,M,,,4,0135*1B
$GPHDT,155.0,T*34
$GPVTG,154.9,T,,M,2.9,N,5.3,K,D*0C
$PADCP,50,20230920,235333.26,0.33
$GPRMC,235332.67,A,5649.82621,N,13221.85848,W,2.9,155.0,200923,,,d*65
$GPZDA,235333.0009,20,09,2023,,*60
$GPGGA,235333.668,5649.82548,N,13221.85788,W,2,16,1.1,0.55,M,,,5,0135*10
$GPHDT,154.4,T*31
$GPVTG,157.5,T,,M,3.0,N,5.5,K,D*0D
$GPRMC,235333.67,A,5649.82548,N,13221.85788,W,3.0,154.4,200923,,,d*66
$GPZDA,235334.0009,20,09,2023,,*67
$GPGGA,235334.668,5649.82472,N,13221.85731,W,2,16,1.1,0.55,M,,,6,0135*1E
$GPHDT,154.2,T*37
$GPVTG,158.4,T,,M,3.0,N,5.6,K,D*00
$GPRMC,235334.67,A,5649.82472,N,13221.85731,W,3.0,154.2,200923,,,d*6D
$GPZDA,235335.0009,20,09,2023,,*66
$GPGGA,235335.668,5649.82399,N,13221.85675,W,2,16,1.1,0.49,M,,,7,0135*10
$GPHDT,154.6,T*33
$GPVTG,155.2,T,,M,2.8,N,5.2,K,D*06
$GPRMC,235335.67,A,5649.82399,N,13221.85675,W,2.8,154.6,200923,,,d*62
$GPZDA,235336.0009,20,09,2023,,*65
$PADCP,51,20230920,235336.53,0.33
$GPGGA,235336.668,5649.82330,N,13221.85614,W,2,16,1.1,0.52,M,,,7,0135*1D
$GPHDT,154.7,T*32
$GPVTG,155.4,T,,M,2.9,N,5.4,K,D*07
$GPRMC,235336.67,A,5649.82330,N,13221.85614,W,2.9,154.7,200923,,,d*65
$GPZDA,235337.0010,20,09,2023,,*6C
$GPGGA,235337.668,5649.82255,N,13221.85555,W,2,16,1.1,0.56,M,,,7,0135*1C
$GPHDT,154.5,T*30
$GPVTG,157.2,T,,M,3.0,N,5.6,K,D*09
$GPRMC,235337.67,A,5649.82255,N,13221.85555,W,3.0,154.5,200923,,,d*6A
$GPZDA,235338.0010,20,09,2023,,*63
$GPGGA,235338.668,5649.82180,N,13221.85498,W,2,16,1.1,0.53,M,,,4,0135*1E
$GPHDT,154.6,T*33
$GPVTG,156.2,T,,M,2.9,N,5.4,K,D*02
$GPRMC,235338.67,A,5649.82180,N,13221.85498,W,2.9,154.6,200923,,,d*65
$GPZDA,235339.0010,20,09,2023,,*62
$PADCP,52,20230920,235339.79,0.33
$GPGGA,235339.668,5649.82110,N,13221.85440,W,2,16,1.1,0.52,M,,,5,0135*13
$GPHDT,154.9,T*3C
$GPVTG,155.9,T,,M,2.8,N,5.2,K,D*0D
$GPRMC,235339.67,A,5649.82110,N,13221.85440,W,2.8,154.9,200923,,,d*66
$GPZDA,235340.0010,20,09,2023,,*6C
$GPGGA,235340.668,5649.82038,N,13221.85382,W,2,16,1.1,0.57,M,,,6,0135*19
$GPHDT,154.3,T*36
$GPVTG,157.6,T,,M,3.0,N,5.5,K,D*0E
$GPRMC,235340.67,A,5649.82038,N,13221.85382,W,3.0,154.3,200923,,,d*69
$GPZDA,235341.0010,20,09,2023,,*6D
$GPGGA,235341.668,5649.81964,N,13221.85325,W,2,16,1.1,0.60,M,,,7,0135*13
$GPHDT,154.0,T*35
$GPVTG,158.2,T,,M,2.9,N,5.4,K,D*0C
$GPRMC,235341.67,A,5649.81964,N,13221.85325,W,2.9,154.0,200923,,,d*6D
$GPZDA,235342.0010,20,09,2023,,*6E
$PADCP,53,20230920,235343.06,0.33
$GPGGA,235342.668,5649.81891,N,13221.85268,W,2,16,1.1,0.54,M,,,7,0135*14
$GPHDT,154.2,T*37
$GPVTG,155.4,T,,M,2.9,N,5.3,K,D*00
$GPRMC,235342.67,A,5649.81891,N,13221.85268,W,2.9,154.2,200923,,,d*6F
$GPZDA,235343.0010,20,09,2023,,*6F
$GPGGA,235343.668,5649.81822,N,13221.85206,W,2,16,1.1,0.60,M,,,7,0135*12
$GPHDT,154.2,T*37
$GPVTG,155.3,T,,M,2.9,N,5.3,K,D*07
$GPRMC,235343.67,A,5649.81822,N,13221.85206,W,2.9,154.2,200923,,,d*6E
$GPZDA,235344.0010,20,09,2023,,*68
$GPGGA,235344.668,5649.81748,N,13221.85148,W,2,16,1.1,0.62,M,,,4,0135*1E
$GPHDT,154.1,T*34
$GPVTG,157.2,T,,M,3.0,N,5.5,K,D*0A
$GPRMC,235344.67,A,5649.81748,N,13221.85148,W,3.0,154.1,200923,,,d*68
$GPZDA,235345.0010,20,09,2023,,*69
$GPGGA,235345.668,5649.81674,N,13221.85093,W,2,16,1.1,0.57,M,,,5,0135*11
$GPHDT,155.1,T*35
$GPVTG,158.1,T,,M,2.9,N,5.4,K,D*0F
$GPRMC,235345.67,A,5649.81674,N,13221.85093,W,2.9,155.1,200923,,,d*69
$PADCP,54,20230920,235346.33,0.33
$GPZDA,235346.0010,20,09,2023,,*6A
$GPGGA,235346.668,5649.81601,N,13221.85038,W,2,16,1.1,0.48,M,,,6,0135*1C
$GPHDT,156.5,T*32
$GPVTG,157.3,T,,M,2.8,N,5.2,K,D*05
$GPRMC,235346.67,A,5649.81601,N,13221.85038,W,2.8,156.5,200923,,,d*6F
$GPZDA,235347.0011,20,09,2023,,*6A
$GPGGA,235347.668,5649.81530,N,13221.84981,W,2,16,1.1,0.54,M,,,7,0135*1A
$GPHDT,156.0,T*37
$GPVTG,157.4,T,,M,2.9,N,5.3,K,D*02
$GPRMC,235347.67,A,5649.81530,N,13221.84981,W,2.9,156.0,200923,,,d*61
$GPZDA,235348.0011,20,09,2023,,*65
$GPGGA,235348.668,5649.81457,N,13221.84927,W,2,16,1.1,0.55,M,,,7,0135*18
$GPHDT,154.9,T*3C
$GPVTG,158.1,T,,M,2.8,N,5.3,K,D*09
$GPRMC,235348.67,A,5649.81457,N,13221.84927,W,2.8,154.9,200923,,,d*68
$GPZDA,235349.0011,20,09,2023,,*64
$PADCP,55,20230920,235349.59,0.33
$GPGGA,235349.668,5649.81386,N,13221.84871,W,2,16,1.1,0.52,M,,,7,0135*17
$GPHDT,154.1,T*34
$GPVTG,155.6,T,,M,2.8,N,5.1,K,D*01
$GPRMC,235349.67,A,5649.81386,N,13221.84871,W,2.8,154.1,200923,,,d*68
$GPZDA,235350.0011,20,09,2023,,*6C
$GPGGA,235350.668,5649.81316,N,13221.84814,W,2,16,1.1,0.56,M,,,4,0135*12
$GPHDT,153.0,T*32
$GPVTG,157.4,T,,M,2.8,N,5.2,K,D*02
$GPRMC,235350.67,A,5649.81316,N,13221.84814,W,2.8,153.0,200923,,,d*6C
$GPZDA,235351.0011,20,09,2023,,*6D
$GPGGA,235351.668,5649.81244,N,13221.84757,W,2,16,1.1,0.56,M,,,5,0135*1C
$GPHDT,152.9,T*3A
$GPVTG,155.5,T,,M,2.8,N,5.2,K,D*01
$GPRMC,235351.67,A,5649.81244,N,13221.84757,W,2.8,152.9,200923,,,d*6B
$GPZDA,235352.0011,20,09,2023,,*6E
$PADCP,56,20230920,235352.86,0.33
$GPGGA,235352.668,5649.81175,N,13221.84694,W,2,16,1.1,0.56,M,,,6,0135*13
$GPHDT,153.8,T*3A
$GPVTG,153.2,T,,M,2.8,N,5.1,K,D*03
$GPRMC,235352.67,A,5649.81175,N,13221.84694,W,2.8,153.8,200923,,,d*67
$GPZDA,235353.0011,20,09,2023,,*6F
$GPGGA,235353.668,5649.81110,N,13221.84636,W,2,16,1.1,0.62,M,,,7,0135*1F
$GPHDT,155.3,T*37
$GPVTG,156.2,T,,M,2.5,N,4.7,K,D*0C
$GPRMC,235353.67,A,5649.81110,N,13221.84636,W,2.5,155.3,200923,,,d*6D
$GPZDA,235354.0011,20,09,2023,,*68
$GPGGA,235354.668,5649.81047,N,13221.84587,W,2,16,1.1,0.62,M,,,7,0135*12
$GPHDT,157.5,T*33
$GPVTG,157.3,T,,M,2.4,N,4.4,K,D*0E
$GPRMC,235354.67,A,5649.81047,N,13221.84587,W,2.4,157.5,200923,,,d*65
$GPZDA,235355.0011,20,09,2023,,*69
$PADCP,57,20230920,235356.13,0.33
$GPGGA,235355.668,5649.80992,N,13221.84543,W,2,16,1.1,0.61,M,,,7,0135*18
$GPHDT,159.8,T*30
$GPVTG,158.7,T,,M,2.0,N,3.7,K,D*05
$GPRMC,235355.67,A,5649.80992,N,13221.84543,W,2.0,159.8,200923,,,d*6B
$GPZDA,235356.0011,20,09,2023,,*6A
$GPGGA,235356.668,5649.80943,N,13221.84507,W,2,16,1.1,0.63,M,,,4,0135*16
$GPHDT,161.1,T*32
$GPVTG,159.7,T,,M,1.9,N,3.5,K,D*0C
$GPRMC,235356.67,A,5649.80943,N,13221.84507,W,1.9,161.1,200923,,,d*6C
$GPZDA,235357.0011,20,09,2023,,*6B
$GPGGA,235357.668,5649.80893,N,13221.84478,W,2,16,1.1,0.65,M,,,5,0135*15
$GPHDT,162.4,T*34
$GPVTG,164.9,T,,M,1.8,N,3.4,K,D*0C
$GPRMC,235357.67,A,5649.80893,N,13221.84478,W,1.8,162.4,200923,,,d*6F
$GPZDA,235358.0012,20,09,2023,,*67
$GPGGA,235358.668,5649.80848,N,13221.84455,W,2,16,1.1,0.61,M,,,6,0135*14
$GPHDT,163.8,T*39
$GPVTG,163.8,T,,M,1.6,N,2.9,K,D*08
$GPRMC,235358.67,A,5649.80848,N,13221.84455,W,1.6,163.8,200923,,,d*6A
$PADCP,58,20230920,235359.39,0.33
$GPZDA,235359.0012,20,09,2023,,*66
$GPGGA,235359.668,5649.80807,N,13221.84432,W,2,16,1.1,0.62,M,,,7,0135*1D
$GPHDT,165.1,T*36
$GPVTG,165.7,T,,M,1.5,N,2.8,K,D*03
$GPRMC,235359.67,A,5649.80807,N,13221.84432,W,1.5,165.1,200923,,,d*6D
$GPZDA,235400.0012,20,09,2023,,*6D
$GPGGA,235400.668,5649.80766,N,13221.84416,W,2,16,1.1,0.63,M,,,7,0135*19
$GPHDT,165.8,T*3F
$GPVTG,172.1,T,,M,1.5,N,2.8,K,D*03
$GPRMC,235400.67,A,5649.80766,N,13221.84416,W,1.5,165.8,200923,,,d*61
$GPZDA,235401.0012,20,09,2023,,*6C
$GPGGA,235401.668,5649.80728,N,13221.84406,W,2,16,1.1,0.58,M,,,7,0135*1B
$GPHDT,166.5,T*31
$GPVTG,170.5,T,,M,1.3,N,2.5,K,D*0E
$GPRMC,235401.67,A,5649.80728,N,13221.84406,W,1.3,166.5,200923,,,d*63
$GPZDA,235402.0012,20,09,2023,,*6F
$PADCP,59,20230920,235402.66,0.33
$GPGGA,235402.668,5649.80694,N,13221.84394,W,2,16,1.1,0.64,M,,,4,0135*1E
$GPHDT,166.1,T*35
$GPVTG,172.8,T,,M,1.3,N,2.4,K,D*00
$GPRMC,235402.67,A,5649.80694,N,13221.84394,W,1.3,166.1,200923,,,d*6E
$GPZDA,235403.0012,20,09,2023,,*6E
$GPGGA,235403.668,5649.80658,N,13221.84388,W,2,16,1.1,0.61,M,,,5,0135*16
$GPHDT,165.9,T*3E
$GPVTG,174.6,T,,M,1.3,N,2.4,K,D*08
$GPRMC,235403.67,A,5649.80658,N,13221.84388,W,1.3,165.9,200923,,,d*69
$GPZDA,235404.0012,20,09,2023,,*69
$GPGGA,235404.668,5649.80626,N,13221.84378,W,2,16,1.1,0.63,M,,,6,0135*16
$GPHDT,165.4,T*33
$GPVTG,169.2,T,,M,1.1,N,2.0,K,D*06
$GPRMC,235404.67,A,5649.80626,N,13221.84378,W,1.1,165.4,200923,,,d*67
$GPZDA,235405.0012,20,09,2023,,*68
$PADCP,60,20230920,235405.93,0.33
$GPGGA,235405.668,5649.80595,N,13221.84371,W,2,16,1.1,0.67,M,,,7,0135*10
$GPHDT,164.1,T*37
$GPVTG,176.2,T,,M,1.2,N,2.3,K,D*08
$GPRMC,235405.67,A,5649.80595,N,13221.84371,W,1.2,164.1,200923,,,d*63
$GPZDA,235406.0012,20,09,2023,,*6B
$GPGGA,235406.668,5649.80561,N,13221.84367,W,2,16,1.1,0.64,M,,,7,0135*1C
$GPHDT,163.0,T*31
$GPVTG,177.5,T,,M,1.2,N,2.1,K,D*0C
$GPRMC,235406.67,A,5649.80561,N,13221.84367,W,1.2,163.0,200923,,,d*6A
$GPZDA,235407.0012,20,09,2023,,*6A
$GPGGA,235407.668,5649.80531,N,13221.84362,W,2,16,1.1,0.62,M,,,7,0135*1B
$GPHDT,161.6,T*35
$GPVTG,172.9,T,,M,1.1,N,2.0,K,D*07
$GPRMC,235407.67,A,5649.80531,N,13221.84362,W,1.1,161.6,200923,,,d*6C
$GPZDA,235408.0012,20,09,2023,,*65
$GPGGA,235408.668,5649.80502,N,13221.84355,W,2,16,1.1,0.67,M,,,4,0135*16
$GPHDT,160.0,T*32
$GPVTG,174.2,T,,M,1.1,N,2.1,K,D*0B
$GPRMC,235408.67,A,5649.80502,N,13221.84355,W,1.1,160.0,200923,,,d*60
$PADCP,61,20230920,235409.30,0.33
$GPZDA,235409.0013,20,09,2023,,*65
$GPGGA,235409.668,5649.80471,N,13221.84351,W,2,16,1.1,0.64,M,,,5,0135*14
$GPHDT,158.4,T*3D
$GPVTG,173.1,T,,M,1.1,N,2.0,K,D*0E
$GPRMC,235409.67,A,5649.80471,N,13221.84351,W,1.1,158.4,200923,,,d*6F
$GPZDA,235410.0013,20,09,2023,,*6D
$GPGGA,235410.668,5649.80444,N,13221.84341,W,2,16,1.1,0.65,M,,,6,0135*19
$GPHDT,157.0,T*36
$GPVTG,165.7,T,,M,1.0,N,1.9,K,D*04
$GPRMC,235410.67,A,5649.80444,N,13221.84341,W,1.0,157.0,200923,,,d*6A
$GPZDA,235411.0013,20,09,2023,,*6C
$GPGGA,235411.668,5649.80415,N,13221.84331,W,2,16,1.1,0.67,M,,,7,0135*18
$GPHDT,155.9,T*3D
$GPVTG,173.3,T,,M,1.2,N,2.2,K,D*0D
$GPRMC,235411.67,A,5649.80415,N,13221.84331,W,1.2,155.9,200923,,,d*61
$GPZDA,235412.0013,20,09,2023,,*6F
$PADCP,62,20230920,235412.57,0.33
$GPGGA,235412.668,5649.80384,N,13221.84322,W,2,16,1.1,0.62,M,,,7,0135*13
$GPHDT,155.5,T*31
$GPVTG,166.0,T,,M,1.1,N,2.0,K,D*0B
$GPRMC,235412.67,A,5649.80384,N,13221.84322,W,1.1,155.5,200923,,,d*60
$GPZDA,235413.0013,20,09,2023,,*6E
$GPGGA,235413.668,5649.80358,N,13221.84305,W,2,16,1.1,0.65,M,,,7,0135*11
$GPHDT,155.6,T*32
$GPVTG,157.7,T,,M,1.0,N,1.8,K,D*04
$GPRMC,235413.67,A,5649.80358,N,13221.84305,W,1.0,155.6,200923,,,d*67
$GPZDA,235414.0013,20,09,2023,,*69
$GPGGA,235414.668,5649.80330,N,13221.84288,W,2,16,1.1,0.67,M,,,4,0135*1D
$GPHDT,156.2,T*35
$GPVTG,162.4,T,,M,1.2,N,2.2,K,D*0A
$GPRMC,235414.67,A,5649.80330,N,13221.84288,W,1.2,156.2,200923,,,d*6F
$GPZDA,235415.0013,20,09,2023,,*68
$PADCP,63,20230920,235415.83,0.33
$GPGGA,235415.668,5649.80301,N,13221.84270,W,2,16,1.1,0.63,M,,,5,0135*1C
$GPHDT,157.5,T*33
$GPVTG,158.2,T,,M,1.0,N,1.9,K,D*0F
$GPRMC,235415.67,A,5649.80301,N,13221.84270,W,1.0,157.5,200923,,,d*6F
$GPZDA,235416.0013,20,09,2023,,*6B
$GPGGA,235416.668,5649.80275,N,13221.84250,W,2,16,1.1,0.68,M,,,6,0135*17
$GPHDT,158.8,T*31
$GPVTG,159.5,T,,M,1.1,N,2.1,K,D*03
$GPRMC,235416.67,A,5649.80275,N,13221.84250,W,1.1,158.8,200923,,,d*6F
$GPZDA,235417.0013,20,09,2023,,*6A
$GPGGA,235417.668,5649.80245,N,13221.84231,W,2,16,1.1,0.68,M,,,7,0135*13
$GPHDT,160.8,T*3A
$GPVTG,159.3,T,,M,1.2,N,2.2,K,D*05
$GPRMC,235417.67,A,5649.80245,N,13221.84231,W,1.2,160.8,200923,,,d*62
$GPZDA,235418.0013,20,09,2023,,*65
$PADCP,64,20230920,235419.10,0.33
$GPGGA,235418.668,5649.80216,N,13221.84211,W,2,16,1.1,0.68,M,,,7,0135*18
$GPHDT,163.4,T*35
$GPVTG,158.3,T,,M,1.1,N,2.1,K,D*04
$GPRMC,235418.67,A,5649.80216,N,13221.84211,W,1.1,163.4,200923,,,d*65
$GPZDA,235419.0014,20,09,2023,,*63
$GPGGA,235419.668,5649.80187,N,13221.84192,W,2,16,1.1,0.68,M,,,7,0135*1A
$GPHDT,166.2,T*36
$GPVTG,163.6,T,,M,1.2,N,2.1,K,D*0A
$GPRMC,235419.67,A,5649.80187,N,13221.84192,W,1.2,166.2,200923,,,d*67
$GPZDA,235420.0014,20,09,2023,,*69
$GPGGA,235420.668,5649.80157,N,13221.84176,W,2,16,1.1,0.68,M,,,4,0135*14
$GPHDT,169.5,T*3E
$GPVTG,161.8,T,,M,1.2,N,2.3,K,D*04
$GPRMC,235420.67,A,5649.80157,N,13221.84176,W,1.2,169.5,200923,,,d*62
$GPZDA,235421.0014,20,09,2023,,*68
$GPGGA,235421.668,5649.80127,N,13221.84158,W,2,16,1.1,0.69,M,,,5,0135*1E
$GPHDT,173.0,T*30
$GPVTG,164.0,T,,M,1.2,N,2.2,K,D*08
$GPRMC,235421.67,A,5649.80127,N,13221.84158,W,1.2,173.0,200923,,,d*66
$PADCP,65,20230920,235422.36,0.33
$GPZDA,235422.0014,20,09,2023,,*6B
$GPGGA,235422.668,5649.80096,N,13221.84146,W,2,16,1.1,0.70,M,,,6,0135*12
$GPHDT,176.3,T*36
$GPVTG,169.9,T,,M,1.2,N,2.3,K,D*0D
$GPRMC,235422.67,A,5649.80096,N,13221.84146,W,1.2,176.3,200923,,,d*67
$GPZDA,235423.0014,20,09,2023,,*6A
$GPGGA,235423.668,5649.80063,N,13221.84138,W,2,16,1.1,0.69,M,,,7,0135*19
$GPHDT,180.3,T*3F
$GPVTG,170.8,T,,M,1.2,N,2.2,K,D*05
$GPRMC,235423.67,A,5649.80063,N,13221.84138,W,1.2,180.3,200923,,,d*6C
$GPZDA,235424.0014,20,09,2023,,*6D
$GPGGA,235424.669,5649.80032,N,13221.84130,W,2,16,1.1,0.71,M,,,7,0135*1A
$GPHDT,184.3,T*3B
$GPVTG,171.9,T,,M,1.2,N,2.2,K,D*05
$GPRMC,235424.67,A,5649.80032,N,13221.84130,W,1.2,184.3,200923,,,d*63
$GPZDA,235425.0014,20,09,2023,,*6C
$PADCP,66,20230920,235425.63,0.33
$GPGGA,235425.669,5649.79999,N,13221.84129,W,2,16,1.1,0.70,M,,,7,0135*1C
$GPHDT,188.3,T*37
$GPVTG,181.6,T,,M,1.3,N,2.3,K,D*05
$GPRMC,235425.67,A,5649.79999,N,13221.84129,W,1.3,188.3,200923,,,d*69
$GPZDA,235426.0014,20,09,2023,,*6F
$GPGGA,235426.669,5649.79967,N,13221.84135,W,2,16,1.1,0.70,M,,,4,0135*10
$GPHDT,192.6,T*39
$GPVTG,184.3,T,,M,1.2,N,2.2,K,D*05
$GPRMC,235426.67,A,5649.79967,N,13221.84135,W,1.2,192.6,200923,,,d*69
$GPZDA,235427.0014,20,09,2023,,*6E
$GPGGA,235427.669,5649.79935,N,13221.84143,W,2,16,1.1,0.72,M,,,5,0135*14
$GPHDT,196.7,T*3C
$GPVTG,187.4,T,,M,1.2,N,2.3,K,D*00
$GPRMC,235427.67,A,5649.79935,N,13221.84143,W,1.2,196.7,200923,,,d*6B
$GPZDA,235428.0014,20,09,2023,,*61
$PADCP,67,20230920,235428.89,0.33
$GPGGA,235428.669,5649.79902,N,13221.84159,W,2,16,1.1,0.71,M,,,6,0135*14
$GPHDT,200.8,T*3F
$GPVTG,195.2,T,,M,1.3,N,2.4,K,D*03
$GPRMC,235428.67,A,5649.79902,N,13221.84159,W,1.3,200.8,200923,,,d*69
$GPZDA,235429.0014,20,09,2023,,*60
$GPGGA,235429.669,5649.79872,N,13221.84177,W,2,16,1.1,0.73,M,,,7,0135*1C
$GPHDT,204.9,T*3A
$GPVTG,196.4,T,,M,1.2,N,2.2,K,D*01
$GPRMC,235429.67,A,5649.79872,N,13221.84177,W,1.2,204.9,200923,,,d*66
$GPZDA,235430.0015,20,09,2023,,*69
$GPGGA,235430.669,5649.79841,N,13221.84198,W,2,16,1.1,0.74,M,,,7,0135*12
$GPHDT,208.9,T*36
$GPVTG,200.5,T,,M,1.3,N,2.4,K,D*0B
$GPRMC,235430.67,A,5649.79841,N,13221.84198,W,1.3,208.9,200923,,,d*62
$GPZDA,235431.0015,20,09,2023,,*68
$GPGGA,235431.669,5649.79810,N,13221.84227,W,2,17,1.1,0.74,M,,,7,0135*11
$PADCP,68,20230920,235432.15,0.33
$GPHDT,212.7,T*33
$GPVTG,206.3,T,,M,1.2,N,2.3,K,D*0D
$GPRMC,235431.67,A,5649.79810,N,13221.84227,W,1.2,212.7,200923,,,d*64
$GPZDA,235432.0015,20,09,2023,,*6B
$GPGGA,235432.669,5649.79782,N,13221.84258,W,2,17,0.9,0.72,M,,,4,0135*12
$GPHDT,216.5,T*35
$GPVTG,209.4,T,,M,1.2,N,2.3,K,D*05
$GPRMC,235432.67,A,5649.79782,N,13221.84258,W,1.2,216.5,200923,,,d*6D
$GPZDA,235433.0015,20,09,2023,,*6A
$GPGGA,235433.669,5649.79756,N,13221.84294,W,2,17,0.9,0.74,M,,,5,0135*1D
$GPHDT,220.2,T*37
$GPVTG,213.6,T,,M,1.3,N,2.4,K,D*0A
$GPRMC,235433.67,A,5649.79756,N,13221.84294,W,1.3,220.2,200923,,,d*66
$GPZDA,235434.0015,20,09,2023,,*6D
$GPGGA,235434.669,5649.79733,N,13221.84338,W,2,17,0.9,0.70,M,,,6,0135*19
$GPHDT,223.8,T*3E
$GPVTG,221.0,T,,M,1.2,N,2.3,K,D*0B
$GPRMC,235434.67,A,5649.79733,N,13221.84338,W,1.2,223.8,200923,,,d*6D
$PADCP,69,20230920,235435.42,0.33
$GPZDA,235435.0015,20,09,2023,,*6C
$GPGGA,235435.669,5649.79712,N,13221.84383,W,2,17,0.9,0.72,M,,,7,0135*18
$GPHDT,227.3,T*31
$GPVTG,222.2,T,,M,1.2,N,2.2,K,D*0B
$GPRMC,235435.67,A,5649.79712,N,13221.84383,W,1.2,227.3,200923,,,d*60
$GPZDA,235436.0015,20,09,2023,,*6F
$GPGGA,235436.669,5649.79692,N,13221.84433,W,2,17,0.9,0.71,M,,,7,0135*1D
$GPHDT,230.8,T*3C
$GPVTG,228.2,T,,M,1.3,N,2.5,K,D*07
$GPRMC,235436.67,A,5649.79692,N,13221.84433,W,1.3,230.8,200923,,,d*6A
$GPZDA,235437.0015,20,09,2023,,*6E
$GPGGA,235437.669,5649.79673,N,13221.84485,W,2,17,0.9,0.70,M,,,7,0135*1F
$GPHDT,234.1,T*31
$GPVTG,230.4,T,,M,1.2,N,2.3,K,D*0F
$GPRMC,235437.67,A,5649.79673,N,13221.84485,W,1.2,234.1,200923,,,d*65
$GPZDA,235438.0015,20,09,2023,,*61
$PADCP,70,20230920,235438.69,0.33
$GPGGA,235438.669,5649.79657,N,13221.84539,W,2,17,0.9,0.68,M,,,4,0135*1A
$GPHDT,237.5,T*36
$GPVTG,237.0,T,,M,1.3,N,2.4,K,D*0A
$GPRMC,235438.67,A,5649.79657,N,13221.84539,W,1.3,237.5,200923,,,d*6C
$GPZDA,235439.0015,20,09,2023,,*60
$GPGGA,235439.669,5649.79640,N,13221.84600,W,2,17,0.9,0.67,M,,,5,0135*1A
$GPHDT,241.0,T*32
$GPVTG,239.5,T,,M,1.4,N,2.6,K,D*04
$GPRMC,235439.67,A,5649.79640,N,13221.84600,W,1.4,241.0,200923,,,d*61
$GPZDA,235440.0016,20,09,2023,,*6D
$GPGGA,235440.669,5649.79626,N,13221.84662,W,2,17,0.9,0.64,M,,,6,0135*10
$GPHDT,244.3,T*34
$GPVTG,245.4,T,,M,1.2,N,2.3,K,D*0D
$GPRMC,235440.67,A,5649.79626,N,13221.84662,W,1.2,244.3,200923,,,d*6B
$GPZDA,235441.0016,20,09,2023,,*6C
$PADCP,71,20230920,235441.95,0.33
$GPGGA,235441.669,5649.79614,N,13221.84723,W,2,17,0.9,0.62,M,,,7,0135*13
$GPHDT,247.7,T*33
$GPVTG,246.7,T,,M,1.4,N,2.5,K,D*0D
$GPRMC,235441.67,A,5649.79614,N,13221.84723,W,1.4,247.7,200923,,,d*6E
$GPZDA,235442.0016,20,09,2023,,*6F
$GPGGA,235442.669,5649.79602,N,13221.84791,W,2,17,0.9,0.61,M,,,7,0135*1D
$GPHDT,251.3,T*30
$GPVTG,249.7,T,,M,1.4,N,2.6,K,D*01
$GPRMC,235442.67,A,5649.79602,N,13221.84791,W,1.4,251.3,200923,,,d*60
$GPZDA,235443.0016,20,09,2023,,*6E
$GPGGA,235443.669,5649.79593,N,13221.84855,W,2,17,0.9,0.58,M,,,7,0135*1A
$GPHDT,254.5,T*33
$GPVTG,255.6,T,,M,1.3,N,2.4,K,D*08
$GPRMC,235443.67,A,5649.79593,N,13221.84855,W,1.3,254.5,200923,,,d*69
$GPZDA,235444.0016,20,09,2023,,*69
$GPGGA,235444.669,5649.79585,N,13221.84925,W,2,17,0.9,0.56,M,,,4,0135*11
$GPHDT,258.2,T*38
$GPVTG,256.3,T,,M,1.5,N,2.7,K,D*0B
$PADCP,72,20230920,235445.22,0.33
$GPRMC,235444.67,A,5649.79585,N,13221.84925,W,1.5,258.2,200923,,,d*62
$GPZDA,235445.0016,20,09,2023,,*68
$GPGGA,235445.669,5649.79579,N,13221.84997,W,2,17,0.9,0.54,M,,,5,0135*19
$GPHDT,261.6,T*36
$GPVTG,260.7,T,,M,1.4,N,2.6,K,D*0A
$GPRMC,235445.67,A,5649.79579,N,13221.84997,W,1.4,261.6,200923,,,d*66
$GPZDA,235446.0016,20,09,2023,,*6B
$GPGGA,235446.669,5649.79575,N,13221.85067,W,2,17,0.9,0.53,M,,,6,0135*15
$GPHDT,265.1,T*35
$GPVTG,263.7,T,,M,1.4,N,2.7,K,D*08
$GPRMC,235446.67,A,5649.79575,N,13221.85067,W,1.4,265.1,200923,,,d*6D
$GPZDA,235447.0016,20,09,2023,,*6A
$GPGGA,235447.669,5649.79572,N,13221.85144,W,2,17,0.9,0.52,M,,,7,0135*13
$GPHDT,268.9,T*30
$GPVTG,266.2,T,,M,1.5,N,2.8,K,D*06
$GPRMC,235447.67,A,5649.79572,N,13221.85144,W,1.5,268.9,200923,,,d*6F
$GPZDA,235448.0016,20,09,2023,,*65
$PADCP,73,20230920,235448.48,0.33
$GPGGA,235448.669,5649.79572,N,13221.85219,W,2,17,0.9,0.49,M,,,7,0135*1D
$GPHDT,272.3,T*31
$GPVTG,272.1,T,,M,1.4,N,2.7,K,D*0E
$GPRMC,235448.67,A,5649.79572,N,13221.85219,W,1.4,272.3,200923,,,d*6B
$GPZDA,235449.0016,20,09,2023,,*64
$GPGGA,235449.669,5649.79575,N,13221.85294,W,2,17,0.9,0.45,M,,,7,0135*12
$GPHDT,276.1,T*37
$GPVTG,273.5,T,,M,1.5,N,2.8,K,D*05
$GPRMC,235449.67,A,5649.79575,N,13221.85294,W,1.5,276.1,200923,,,d*6F
$GPZDA,235450.0016,20,09,2023,,*6C
$GPGGA,235450.669,5649.79578,N,13221.85372,W,2,17,0.9,0.46,M,,,4,0135*1E
$GPHDT,279.5,T*3C
$GPVTG,275.5,T,,M,1.5,N,2.8,K,D*03
$GPRMC,235450.67,A,5649.79578,N,13221.85372,W,1.5,279.5,200923,,,d*68
$GPZDA,235451.0017,20,09,2023,,*6C
$PADCP,74,20230920,235451.75,0.33
$GPGGA,235451.669,5649.79585,N,13221.85447,W,2,17,0.9,0.43,M,,,5,0135*18
$GPHDT,282.8,T*35
$GPVTG,281.2,T,,M,1.5,N,2.8,K,D*0F
$GPRMC,235451.67,A,5649.79585,N,13221.85447,W,1.5,282.8,200923,,,d*63
$GPZDA,235452.0017,20,09,2023,,*6F
